[{"name": "Aalst", "country_iso2": "BE", "state": "Flanders", "is_capital": false, "latitude": 50.9383, "longitude": 4.0392, "population": 88854}, {"name": "Aarschot", "country_iso2": "BE", "state": "Flanders", "is_capital": false, "latitude": 50.9875, "longitude": 4.8333, "population": 29965}, {"name": "Aartselaar", "country_iso2": "BE", "state": "Flanders", "is_capital": false, "latitude": 51.1333, "longitude": 4.3833, "population": 14427}, {"name": "Alken", "country_iso2": "BE", "state": "Flanders", "is_capital": false, "latitude": 50.8757, "longitude": 5.3079, "population": 11757}, {"name": "Amay", "country_iso2": "BE", "state": "Wallonia", "is_capital": false, "latitude": 50.5478, "longitude": 5.3192, "population": 14305}, {"name": "Andenne", "country_iso2": "BE", "state": "Wallonia", "is_capital": false, "latitude": 50.4833, "longitude": 5.1, "population": 27573}, {"name": "Anderlecht", "country_iso2": "BE", "state": "Brussels-Capital Region", "is_capital": false, "latitude": 50.8333, "longitude": 4.3333, "population": 120887}, {"name": "Anderlues", "country_iso2": "BE", "state": "Wallonia", "is_capital": false, "latitude": 50.4073, "longitude": 4.2698, "population": 12254}, {"name": "Ans", "country_iso2": "BE", "state": "Wallonia", "is_capital": false, "latitude": 50.6625, "longitude": 5.52, "population": 28238}, {"name": "Antwerp", "country_iso2": "BE", "state": "Flanders", "is_capital": false, "latitude": 51.2178, "longitude": 4.4003, "population": 565039}, {"name": "Anzegem", "country_iso2": "BE", "state": "Flanders", "is_capital": false, "latitude": 50.8333, "longitude": 3.4667, "population": 14609}, {"name": "Ardooie", "country_iso2": "BE", "state": "Flanders", "is_capital": false, "latitude": 50.9667, "longitude": 3.1833, "population": 8988}, {"name": "Arendonk", "country_iso2": "BE", "state": "Flanders", "is_capital": false, "latitude": 51.3226, "longitude": 5.0845, "population": 13290}, {"name": "Arlon", "country_iso2": "BE", "state": "Wallonia", "is_capital": false, "latitude": 49.6836, "longitude": 5.8167, "population": 30818}, {"name": "Asse", "country_iso2": "BE", "state": "Flanders", "is_capital": false, "latitude": 50.9, "longitude": 4.2, "population": 32958}, {"name": "Assebroek", "country_iso2": "BE", "state": "Flanders", "is_capital": false, "latitude": 51.1964, "longitude": 3.2536, "population": 19737}, {"name": "Assenede", "country_iso2": "BE", "state": "Flanders", "is_capital": false, "latitude": 51.2333, "longitude": 3.75, "population": 14200}, {"name": "Ath", "country_iso2": "BE", "state": "Wallonia", "is_capital": false, "latitude": 50.6167, "longitude": 3.7667, "population": 29164}, {"name": "Aubange", "country_iso2": "BE", "state": "Wallonia", "is_capital": false, "latitude": 49.5667, "longitude": 5.805, "population": 16927}, {"name": "Avelgem", "country_iso2": "BE", "state": "Flanders", "is_capital": false, "latitude": 50.7667, "longitude": 3.4333, "population": 10065}, {"name": "Awans", "country_iso2": "BE", "state": "Wallonia", "is_capital": false, "latitude": 50.6669, "longitude": 5.4633, "population": 9353}, {"name": "Aywaille", "country_iso2": "BE", "state": "Wallonia", "is_capital": false, "latitude": 50.4724, "longitude": 5.6734, "population": 12405}, {"name": "Balen", "country_iso2": "BE", "state": "Flanders", "is_capital": false, "latitude": 51.1708, "longitude": 5.1697, "population": 22813}, {"name": "Bassenge", "country_iso2": "BE", "state": "Wallonia", "is_capital": false, "latitude": 50.7583, "longitude": 5.6094, "population": 8986}, {"name": "Bastogne", "country_iso2": "BE", "state": "Wallonia", "is_capital": false, "latitude": 50.0042, "longitude": 5.72, "population": 15894}, {"name": "Beauraing", "country_iso2": "BE", "state": "Wallonia", "is_capital": false, "latitude": 50.1101, "longitude": 4.9564, "population": 9160}, {"name": "Beernem", "country_iso2": "BE", "state": "Flanders", "is_capital": false, "latitude": 51.1333, "longitude": 3.3333, "population": 15687}, {"name": "Beerse", "country_iso2": "BE", "state": "Flanders", "is_capital": false, "latitude": 51.3191, "longitude": 4.8555, "population": 18128}, {"name": "Beersel", "country_iso2": "BE", "state": "Flanders", "is_capital": false, "latitude": 50.7667, "longitude": 4.3, "population": 25069}, {"name": "Begijnendijk", "country_iso2": "BE", "state": "Flanders", "is_capital": false, "latitude": 51.0191, "longitude": 4.7831, "population": 10053}, {"name": "Beloeil", "country_iso2": "BE", "state": "Wallonia", "is_capital": false, "latitude": 50.5333, "longitude": 3.7167, "population": 14032}, {"name": "Berchem", "country_iso2": "BE", "state": "Flanders", "is_capital": false, "latitude": 51.2, "longitude": 4.4167, "population": 43180}, {"name": "Beringen", "country_iso2": "BE", "state": "Flanders", "is_capital": false, "latitude": 51.0507, "longitude": 5.2216, "population": 46065}, {"name": "Berlaar", "country_iso2": "BE", "state": "Flanders", "is_capital": false, "latitude": 51.1179, "longitude": 4.658, "population": 11656}, {"name": "Berlare", "country_iso2": "BE", "state": "Flanders", "is_capital": false, "latitude": 51.025, "longitude": 4.0025, "population": 14849}, {"name": "Bernissart", "country_iso2": "BE", "state": "Wallonia", "is_capital": false, "latitude": 50.4833, "longitude": 3.65, "population": 11878}, {"name": "Bertem", "country_iso2": "BE", "state": "Flanders", "is_capital": false, "latitude": 50.8671, "longitude": 4.6361, "population": 9958}, {"name": "Bertrix", "country_iso2": "BE", "state": "Wallonia", "is_capital": false, "latitude": 49.8555, "longitude": 5.2566, "population": 8763}, {"name": "Beveren", "country_iso2": "BE", "state": "Flanders", "is_capital": false, "latitude": 51.2, "longitude": 4.25, "population": 50281}, {"name": "Beyne-Heusay", "country_iso2": "BE", "state": "Wallonia", "is_capital": false, "latitude": 50.6167, "longitude": 5.65, "population": 12019}, {"name": "Bierbeek", "country_iso2": "BE", "state": "Flanders", "is_capital": false, "latitude": 50.8276, "longitude": 4.7585, "population": 10025}, {"name": "Bilzen", "country_iso2": "BE", "state": "Flanders", "is_capital": false, "latitude": 50.873, "longitude": 5.5163, "population": 32318}, {"name": "Binche", "country_iso2": "BE", "state": "Wallonia", "is_capital": false, "latitude": 50.4103, "longitude": 4.1652, "population": 33598}, {"name": "Bissegem", "country_iso2": "BE", "state": "Flanders", "is_capital": false, "latitude": 50.8167, "longitude": 3.2167, "population": 15533}, {"name": "Blankenberge", "country_iso2": "BE", "state": "Flanders", "is_capital": false, "latitude": 51.3, "longitude": 3.1167, "population": 20349}, {"name": "Blegny", "country_iso2": "BE", "state": "Wallonia", "is_capital": false, "latitude": 50.6667, "longitude": 5.7333, "population": 13212}, {"name": "Bocholt", "country_iso2": "BE", "state": "Flanders", "is_capital": false, "latitude": 51.1729, "longitude": 5.5792, "population": 13085}, {"name": "Boechout", "country_iso2": "BE", "state": "Flanders", "is_capital": false, "latitude": 51.1594, "longitude": 4.4923, "population": 13372}, {"name": "Bonheiden", "country_iso2": "BE", "state": "Flanders", "is_capital": false, "latitude": 51.0224, "longitude": 4.5479, "population": 15078}, {"name": "Boom", "country_iso2": "BE", "state": "Flanders", "is_capital": false, "latitude": 51.0833, "longitude": 4.3667, "population": 18555}, {"name": "Boortmeerbeek", "country_iso2": "BE", "state": "Flanders", "is_capital": false, "latitude": 50.9817, "longitude": 4.5718, "population": 12379}, {"name": "Borgerhout", "country_iso2": "BE", "state": "Flanders", "is_capital": false, "latitude": 51.2167, "longitude": 4.4333, "population": 45769}, {"name": "Borgloon", "country_iso2": "BE", "state": "Flanders", "is_capital": false, "latitude": 50.8022, "longitude": 5.3433, "population": 10697}, {"name": "Bornem", "country_iso2": "BE", "state": "Flanders", "is_capital": false, "latitude": 51.1, "longitude": 4.2333, "population": 21353}, {"name": "Borsbeek", "country_iso2": "BE", "state": "Flanders", "is_capital": false, "latitude": 51.1932, "longitude": 4.4879, "population": 10949}, {"name": "Boussu", "country_iso2": "BE", "state": "Wallonia", "is_capital": false, "latitude": 50.4331, "longitude": 3.7961, "population": 19856}, {"name": "Braine-le-Château", "country_iso2": "BE", "state": "Wallonia", "is_capital": false, "latitude": 50.6833, "longitude": 4.2667, "population": 10447}, {"name": "Braine-le-Comte", "country_iso2": "BE", "state": "Wallonia", "is_capital": false, "latitude": 50.6, "longitude": 4.1333, "population": 22290}, {"name": "Braine-l’Alleud", "country_iso2": "BE", "state": "Wallonia", "is_capital": false, "latitude": 50.6833, "longitude": 4.3667, "population": 39837}, {"name": "Brasschaat", "country_iso2": "BE", "state": "Flanders", "is_capital": false, "latitude": 51.2914, "longitude": 4.495, "population": 38223}, {"name": "Brecht", "country_iso2": "BE", "state": "Flanders", "is_capital": false, "latitude": 51.3494, "longitude": 4.6394, "population": 29454}, {"name": "Bredene", "country_iso2": "BE", "state": "Flanders", "is_capital": false, "latitude": 51.2333, "longitude": 2.9667, "population": 17828}, {"name": "Bree", "country_iso2": "BE", "state": "Flanders", "is_capital": false, "latitude": 51.1414, "longitude": 5.598, "population": 16324}, {"name": "Bruges", "country_iso2": "BE", "state": "Flanders", "is_capital": false, "latitude": 51.2089, "longitude": 3.2242, "population": 118509}, {"name": "Brussels", "country_iso2": "BE", "state": "Brussels-Capital Region", "is_capital": true, "latitude": 50.8467, "longitude": 4.3525, "population": 1249597}, {"name": "Buggenhout", "country_iso2": "BE", "state": "Flanders", "is_capital": false, "latitude": 51.0, "longitude": 4.2, "population": 14475}, {"name": "Chapelle-lez-Herlaimont", "country_iso2": "BE", "state": "Wallonia", "is_capital": false, "latitude": 50.4667, "longitude": 4.2833, "population": 14900}, {"name": "Charleroi", "country_iso2": "BE", "state": "Wallonia", "is_capital": false, "latitude": 50.4167, "longitude": 4.4442, "population": 204322}, {"name": "Chaudfontaine", "country_iso2": "BE", "state": "Wallonia", "is_capital": false, "latitude": 50.5818, "longitude": 5.634, "population": 20935}, {"name": "Chaumont-Gistoux", "country_iso2": "BE", "state": "Wallonia", "is_capital": false, "latitude": 50.6839, "longitude": 4.6947, "population": 11731}, {"name": "Chimay", "country_iso2": "BE", "state": "Wallonia", "is_capital": false, "latitude": 50.0479, "longitude": 4.3173, "population": 9841}, {"name": "Châtelet", "country_iso2": "BE", "state": "Wallonia", "is_capital": false, "latitude": 50.4039, "longitude": 4.5253, "population": 36101}, {"name": "Ciney", "country_iso2": "BE", "state": "Wallonia", "is_capital": false, "latitude": 50.2963, "longitude": 5.1007, "population": 16439}, {"name": "Colfontaine", "country_iso2": "BE", "state": "Wallonia", "is_capital": false, "latitude": 50.4138, "longitude": 3.8555, "population": 20762}, {"name": "Courcelles", "country_iso2": "BE", "state": "Wallonia", "is_capital": false, "latitude": 50.4667, "longitude": 4.3667, "population": 31376}, {"name": "Court-Saint-Étienne", "country_iso2": "BE", "state": "Wallonia", "is_capital": false, "latitude": 50.6333, "longitude": 4.5667, "population": 10500}, {"name": "Couvin", "country_iso2": "BE", "state": "Wallonia", "is_capital": false, "latitude": 50.0519, "longitude": 4.4961, "population": 13782}, {"name": "Cuesmes", "country_iso2": "BE", "state": "Wallonia", "is_capital": false, "latitude": 50.4362, "longitude": 3.9207, "population": 9964}, {"name": "Damme", "country_iso2": "BE", "state": "Flanders", "is_capital": false, "latitude": 51.25, "longitude": 3.2667, "population": 11008}, {"name": "De Haan", "country_iso2": "BE", "state": "Flanders", "is_capital": false, "latitude": 51.2667, "longitude": 3.0333, "population": 12635}, {"name": "De Panne", "country_iso2": "BE", "state": "Flanders", "is_capital": false, "latitude": 51.1, "longitude": 2.5833, "population": 11129}, {"name": "De Pinte", "country_iso2": "BE", "state": "Flanders", "is_capital": false, "latitude": 51.0, "longitude": 3.65, "population": 11046}, {"name": "Deerlijk", "country_iso2": "BE", "state": "Flanders", "is_capital": false, "latitude": 50.85, "longitude": 3.35, "population": 11796}, {"name": "Deinze", "country_iso2": "BE", "state": "Flanders", "is_capital": false, "latitude": 50.9833, "longitude": 3.5333, "population": 44315}, {"name": "Denderleeuw", "country_iso2": "BE", "state": "Flanders", "is_capital": false, "latitude": 50.8833, "longitude": 4.0667, "population": 20086}, {"name": "Dendermonde", "country_iso2": "BE", "state": "Flanders", "is_capital": false, "latitude": 51.0333, "longitude": 4.1, "population": 45673}, {"name": "Dessel", "country_iso2": "BE", "state": "Flanders", "is_capital": false, "latitude": 51.2396, "longitude": 5.1131, "population": 9605}, {"name": "Destelbergen", "country_iso2": "BE", "state": "Flanders", "is_capital": false, "latitude": 51.05, "longitude": 3.8, "population": 18026}, {"name": "Deurne", "country_iso2": "BE", "state": "Flanders", "is_capital": false, "latitude": 51.2247, "longitude": 4.4625, "population": 82270}, {"name": "Diepenbeek", "country_iso2": "BE", "state": "Flanders", "is_capital": false, "latitude": 50.9072, "longitude": 5.4175, "population": 19137}, {"name": "Diest", "country_iso2": "BE", "state": "Flanders", "is_capital": false, "latitude": 50.9847, "longitude": 5.0514, "population": 23824}, {"name": "Diksmuide", "country_iso2": "BE", "state": "Flanders", "is_capital": false, "latitude": 51.0333, "longitude": 2.865, "population": 16739}, {"name": "Dilbeek", "country_iso2": "BE", "state": "Flanders", "is_capital": false, "latitude": 50.845, "longitude": 4.265, "population": 42434}, {"name": "Dinant", "country_iso2": "BE", "state": "Wallonia", "is_capital": false, "latitude": 50.26, "longitude": 4.9101, "population": 13544}, {"name": "Dison", "country_iso2": "BE", "state": "Wallonia", "is_capital": false, "latitude": 50.6098, "longitude": 5.8543, "population": 15405}, {"name": "Dour", "country_iso2": "BE", "state": "Wallonia", "is_capital": false, "latitude": 50.3979, "longitude": 3.7807, "population": 16716}, {"name": "Drongen", "country_iso2": "BE", "state": "Flanders", "is_capital": false, "latitude": 51.0503, "longitude": 3.6628, "population": 13038}, {"name": "Duffel", "country_iso2": "BE", "state": "Flanders", "is_capital": false, "latitude": 51.0957, "longitude": 4.5056, "population": 17664}, {"name": "Durbuy", "country_iso2": "BE", "state": "Wallonia", "is_capital": false, "latitude": 50.3523, "longitude": 5.4568, "population": 11637}, {"name": "Edegem", "country_iso2": "BE", "state": "Flanders", "is_capital": false, "latitude": 51.15, "longitude": 4.45, "population": 22261}, {"name": "Eeklo", "country_iso2": "BE", "state": "Flanders", "is_capital": false, "latitude": 51.1833, "longitude": 3.55, "population": 20890}, {"name": "Ekeren", "country_iso2": "BE", "state": "Flanders", "is_capital": false, "latitude": 51.2833, "longitude": 4.4167, "population": 22874}, {"name": "Enghien", "country_iso2": "BE", "state": "Wallonia", "is_capital": false, "latitude": 50.6956, "longitude": 4.0411, "population": 13734}, {"name": "Erquelinnes", "country_iso2": "BE", "state": "Wallonia", "is_capital": false, "latitude": 50.3099, "longitude": 4.1214, "population": 9940}, {"name": "Ertvelde", "country_iso2": "BE", "state": "Flanders", "is_capital": false, "latitude": 51.1783, "longitude": 3.7447, "population": 10503}, {"name": "Esneux", "country_iso2": "BE", "state": "Wallonia", "is_capital": false, "latitude": 50.5333, "longitude": 5.5667, "population": 12889}, {"name": "Essen", "country_iso2": "BE", "state": "Flanders", "is_capital": false, "latitude": 51.4667, "longitude": 4.4667, "population": 19162}, {"name": "Estaimpuis", "country_iso2": "BE", "state": "Wallonia", "is_capital": false, "latitude": 50.7, "longitude": 3.2667, "population": 10424}, {"name": "Etterbeek", "country_iso2": "BE", "state": "Brussels-Capital Region", "is_capital": false, "latitude": 50.8333, "longitude": 4.3833, "population": 48473}, {"name": "Eupen", "country_iso2": "BE", "state": "Wallonia", "is_capital": false, "latitude": 50.6333, "longitude": 6.0333, "population": 19526}, {"name": "Evere", "country_iso2": "BE", "state": "Brussels-Capital Region", "is_capital": false, "latitude": 50.8667, "longitude": 4.4, "population": 42656}, {"name": "Evergem", "country_iso2": "BE", "state": "Flanders", "is_capital": false, "latitude": 51.1167, "longitude": 3.7, "population": 35239}, {"name": "Farciennes", "country_iso2": "BE", "state": "Wallonia", "is_capital": false, "latitude": 50.4314, "longitude": 4.5475, "population": 11247}, {"name": "Fleurus", "country_iso2": "BE", "state": "Wallonia", "is_capital": false, "latitude": 50.4843, "longitude": 4.5518, "population": 22594}, {"name": "Florennes", "country_iso2": "BE", "state": "Wallonia", "is_capital": false, "latitude": 50.2514, "longitude": 4.6044, "population": 11410}, {"name": "Flémalle-Haute", "country_iso2": "BE", "state": "Wallonia", "is_capital": false, "latitude": 50.6011, "longitude": 5.4628, "population": 26174}, {"name": "Fléron", "country_iso2": "BE", "state": "Wallonia", "is_capital": false, "latitude": 50.6167, "longitude": 5.6833, "population": 16495}, {"name": "Fontaine-l’Évêque", "country_iso2": "BE", "state": "Wallonia", "is_capital": false, "latitude": 50.4092, "longitude": 4.3242, "population": 17801}, {"name": "Forest", "country_iso2": "BE", "state": "Brussels-Capital Region", "is_capital": false, "latitude": 50.8131, "longitude": 4.3247, "population": 56581}, {"name": "Frameries", "country_iso2": "BE", "state": "Wallonia", "is_capital": false, "latitude": 50.4088, "longitude": 3.8906, "population": 21878}, {"name": "Galmaarden", "country_iso2": "BE", "state": "Flanders", "is_capital": false, "latitude": 50.75, "longitude": 3.99, "population": 8725}, {"name": "Ganshoren", "country_iso2": "BE", "state": "Brussels-Capital Region", "is_capital": false, "latitude": 50.8667, "longitude": 4.3167, "population": 25234}, {"name": "Gavere", "country_iso2": "BE", "state": "Flanders", "is_capital": false, "latitude": 50.9333, "longitude": 3.6667, "population": 12769}, {"name": "Geel", "country_iso2": "BE", "state": "Flanders", "is_capital": false, "latitude": 51.1661, "longitude": 4.9919, "population": 41146}, {"name": "Gembloux", "country_iso2": "BE", "state": "Wallonia", "is_capital": false, "latitude": 50.561, "longitude": 4.697, "population": 25933}, {"name": "Genappe", "country_iso2": "BE", "state": "Wallonia", "is_capital": false, "latitude": 50.6, "longitude": 4.45, "population": 15353}, {"name": "Genk", "country_iso2": "BE", "state": "Flanders", "is_capital": false, "latitude": 50.9653, "longitude": 5.5006, "population": 66110}, {"name": "Gent", "country_iso2": "BE", "state": "Flanders", "is_capital": false, "latitude": 51.0536, "longitude": 3.7253, "population": 265086}, {"name": "Gentbrugge", "country_iso2": "BE", "state": "Flanders", "is_capital": false, "latitude": 51.0314, "longitude": 3.7642, "population": 15957}, {"name": "Geraardsbergen", "country_iso2": "BE", "state": "Flanders", "is_capital": false, "latitude": 50.7667, "longitude": 3.8667, "population": 33403}, {"name": "Gerpinnes", "country_iso2": "BE", "state": "Wallonia", "is_capital": false, "latitude": 50.3369, "longitude": 4.5283, "population": 12660}, {"name": "Gistel", "country_iso2": "BE", "state": "Flanders", "is_capital": false, "latitude": 51.15, "longitude": 2.9667, "population": 12106}, {"name": "Gooik", "country_iso2": "BE", "state": "Flanders", "is_capital": false, "latitude": 50.8, "longitude": 4.1167, "population": 9236}, {"name": "Grez-Doiceau", "country_iso2": "BE", "state": "Wallonia", "is_capital": false, "latitude": 50.7333, "longitude": 4.7, "population": 13368}, {"name": "Grimbergen", "country_iso2": "BE", "state": "Flanders", "is_capital": false, "latitude": 50.9333, "longitude": 4.3833, "population": 37355}, {"name": "Grobbendonk", "country_iso2": "BE", "state": "Flanders", "is_capital": false, "latitude": 51.1919, "longitude": 4.7386, "population": 11172}, {"name": "Haacht", "country_iso2": "BE", "state": "Flanders", "is_capital": false, "latitude": 50.977, "longitude": 4.6384, "population": 14470}, {"name": "Haaltert", "country_iso2": "BE", "state": "Flanders", "is_capital": false, "latitude": 50.9, "longitude": 4.0, "population": 18443}, {"name": "Halen", "country_iso2": "BE", "state": "Flanders", "is_capital": false, "latitude": 50.9481, "longitude": 5.1144, "population": 9461}, {"name": "Halle", "country_iso2": "BE", "state": "Flanders", "is_capital": false, "latitude": 50.7361, "longitude": 4.2372, "population": 39096}, {"name": "Hamme", "country_iso2": "BE", "state": "Flanders", "is_capital": false, "latitude": 51.0833, "longitude": 4.1333, "population": 24829}, {"name": "Hannut", "country_iso2": "BE", "state": "Wallonia", "is_capital": false, "latitude": 50.672, "longitude": 5.0781, "population": 16435}, {"name": "Harelbeke", "country_iso2": "BE", "state": "Flanders", "is_capital": false, "latitude": 50.85, "longitude": 3.3, "population": 27886}, {"name": "Hasselt", "country_iso2": "BE", "state": "Flanders", "is_capital": false, "latitude": 50.9304, "longitude": 5.3383, "population": 77651}, {"name": "Heist-op-den-Berg", "country_iso2": "BE", "state": "Flanders", "is_capital": false, "latitude": 51.0758, "longitude": 4.7286, "population": 42950}, {"name": "Hemiksem", "country_iso2": "BE", "state": "Flanders", "is_capital": false, "latitude": 51.15, "longitude": 4.35, "population": 11634}, {"name": "Herent", "country_iso2": "BE", "state": "Flanders", "is_capital": false, "latitude": 50.9081, "longitude": 4.6706, "population": 21632}, {"name": "Herentals", "country_iso2": "BE", "state": "Flanders", "is_capital": false, "latitude": 51.1767, "longitude": 4.8364, "population": 28272}, {"name": "Herenthout", "country_iso2": "BE", "state": "Flanders", "is_capital": false, "latitude": 51.1395, "longitude": 4.7559, "population": 9109}, {"name": "Herk-de-Stad", "country_iso2": "BE", "state": "Flanders", "is_capital": false, "latitude": 50.9406, "longitude": 5.1672, "population": 12661}, {"name": "Herselt", "country_iso2": "BE", "state": "Flanders", "is_capital": false, "latitude": 51.0537, "longitude": 4.8828, "population": 14521}, {"name": "Herstal", "country_iso2": "BE", "state": "Wallonia", "is_capital": false, "latitude": 50.6644, "longitude": 5.63, "population": 39958}, {"name": "Herve", "country_iso2": "BE", "state": "Wallonia", "is_capital": false, "latitude": 50.6394, "longitude": 5.7942, "population": 17598}, {"name": "Herzele", "country_iso2": "BE", "state": "Flanders", "is_capital": false, "latitude": 50.8833, "longitude": 3.8833, "population": 17723}, {"name": "Heule", "country_iso2": "BE", "state": "Flanders", "is_capital": false, "latitude": 50.8333, "longitude": 3.2333, "population": 10503}, {"name": "Heusden", "country_iso2": "BE", "state": "Flanders", "is_capital": false, "latitude": 51.0281, "longitude": 3.8, "population": 8688}, {"name": "Heverlee", "country_iso2": "BE", "state": "Flanders", "is_capital": false, "latitude": 50.86, "longitude": 4.69, "population": 23555}, {"name": "Hoboken", "country_iso2": "BE", "state": "Flanders", "is_capital": false, "latitude": 51.1667, "longitude": 4.3667, "population": 41220}, {"name": "Hoeilaart", "country_iso2": "BE", "state": "Flanders", "is_capital": false, "latitude": 50.7667, "longitude": 4.4667, "population": 11172}, {"name": "Hoeselt", "country_iso2": "BE", "state": "Flanders", "is_capital": false, "latitude": 50.85, "longitude": 5.4833, "population": 9685}, {"name": "Holsbeek", "country_iso2": "BE", "state": "Flanders", "is_capital": false, "latitude": 50.9208, "longitude": 4.7569, "population": 9905}, {"name": "Hooglede", "country_iso2": "BE", "state": "Flanders", "is_capital": false, "latitude": 50.9833, "longitude": 3.0833, "population": 9950}, {"name": "Hoogstraten", "country_iso2": "BE", "state": "Flanders", "is_capital": false, "latitude": 51.4008, "longitude": 4.7611, "population": 21424}, {"name": "Houthulst", "country_iso2": "BE", "state": "Flanders", "is_capital": false, "latitude": 50.9833, "longitude": 2.95, "population": 10032}, {"name": "Huldenberg", "country_iso2": "BE", "state": "Flanders", "is_capital": false, "latitude": 50.7895, "longitude": 4.585, "population": 9892}, {"name": "Hulshout", "country_iso2": "BE", "state": "Flanders", "is_capital": false, "latitude": 51.075, "longitude": 4.7901, "population": 10471}, {"name": "Huy", "country_iso2": "BE", "state": "Wallonia", "is_capital": false, "latitude": 50.5201, "longitude": 5.2375, "population": 21293}, {"name": "Ichtegem", "country_iso2": "BE", "state": "Flanders", "is_capital": false, "latitude": 51.0928, "longitude": 3.0106, "population": 13939}, {"name": "Ieper", "country_iso2": "BE", "state": "Flanders", "is_capital": false, "latitude": 50.8508, "longitude": 2.885, "population": 35039}, {"name": "Ingelmunster", "country_iso2": "BE", "state": "Flanders", "is_capital": false, "latitude": 50.9167, "longitude": 3.25, "population": 10928}, {"name": "Izegem", "country_iso2": "BE", "state": "Flanders", "is_capital": false, "latitude": 50.9167, "longitude": 3.2, "population": 28845}, {"name": "Jabbeke", "country_iso2": "BE", "state": "Flanders", "is_capital": false, "latitude": 51.15, "longitude": 3.2333, "population": 13880}, {"name": "Jalhay", "country_iso2": "BE", "state": "Wallonia", "is_capital": false, "latitude": 50.5572, "longitude": 5.9642, "population": 8590}, {"name": "Jette", "country_iso2": "BE", "state": "Brussels-Capital Region", "is_capital": false, "latitude": 50.8667, "longitude": 4.3333, "population": 52728}, {"name": "Jodoigne", "country_iso2": "BE", "state": "Wallonia", "is_capital": false, "latitude": 50.7276, "longitude": 4.8723, "population": 14079}, {"name": "Juprelle", "country_iso2": "BE", "state": "Wallonia", "is_capital": false, "latitude": 50.7101, "longitude": 5.5304, "population": 9288}, {"name": "Jurbise", "country_iso2": "BE", "state": "Wallonia", "is_capital": false, "latitude": 50.5333, "longitude": 3.9333, "population": 10417}, {"name": "Kalmthout", "country_iso2": "BE", "state": "Flanders", "is_capital": false, "latitude": 51.3833, "longitude": 4.4667, "population": 18872}, {"name": "Kampenhout", "country_iso2": "BE", "state": "Flanders", "is_capital": false, "latitude": 50.9413, "longitude": 4.5496, "population": 11898}, {"name": "Kapelle-op-den-Bos", "country_iso2": "BE", "state": "Flanders", "is_capital": false, "latitude": 51.0167, "longitude": 4.3667, "population": 9396}, {"name": "Kapellen", "country_iso2": "BE", "state": "Flanders", "is_capital": false, "latitude": 51.3167, "longitude": 4.4333, "population": 26981}, {"name": "Kasterlee", "country_iso2": "BE", "state": "Flanders", "is_capital": false, "latitude": 51.2407, "longitude": 4.9669, "population": 18882}, {"name": "Keerbergen", "country_iso2": "BE", "state": "Flanders", "is_capital": false, "latitude": 51.0031, "longitude": 4.6311, "population": 12743}, {"name": "Kessel-Lo", "country_iso2": "BE", "state": "Flanders", "is_capital": false, "latitude": 50.9, "longitude": 4.75, "population": 30317}, {"name": "Kinrooi", "country_iso2": "BE", "state": "Flanders", "is_capital": false, "latitude": 51.1453, "longitude": 5.7409, "population": 12233}, {"name": "Knokke-Heist", "country_iso2": "BE", "state": "Flanders", "is_capital": false, "latitude": 51.3333, "longitude": 3.2833, "population": 33097}, {"name": "Koekelare", "country_iso2": "BE", "state": "Flanders", "is_capital": false, "latitude": 51.0833, "longitude": 2.9667, "population": 8784}, {"name": "Koekelberg", "country_iso2": "BE", "state": "Brussels-Capital Region", "is_capital": false, "latitude": 50.8667, "longitude": 4.3333, "population": 21959}, {"name": "Koksijde", "country_iso2": "BE", "state": "Flanders", "is_capital": false, "latitude": 51.1, "longitude": 2.65, "population": 21957}, {"name": "Kontich", "country_iso2": "BE", "state": "Flanders", "is_capital": false, "latitude": 51.1333, "longitude": 4.45, "population": 21203}, {"name": "Kortemark", "country_iso2": "BE", "state": "Flanders", "is_capital": false, "latitude": 51.0333, "longitude": 3.0333, "population": 12584}, {"name": "Kortenberg", "country_iso2": "BE", "state": "Flanders", "is_capital": false, "latitude": 50.8865, "longitude": 4.5412, "population": 20214}, {"name": "Kortrijk", "country_iso2": "BE", "state": "Flanders", "is_capital": false, "latitude": 50.8275, "longitude": 3.2658, "population": 77741}, {"name": "Kraainem", "country_iso2": "BE", "state": "Flanders", "is_capital": false, "latitude": 50.8667, "longitude": 4.4667, "population": 13690}, {"name": "Kruibeke", "country_iso2": "BE", "state": "Flanders", "is_capital": false, "latitude": 51.1667, "longitude": 4.3, "population": 16657}, {"name": "Kuurne", "country_iso2": "BE", "state": "Flanders", "is_capital": false, "latitude": 50.85, "longitude": 3.2833, "population": 13318}, {"name": "La Bruyère", "country_iso2": "BE", "state": "Wallonia", "is_capital": false, "latitude": 50.5, "longitude": 4.8, "population": 9226}, {"name": "La Calamine", "country_iso2": "BE", "state": "Wallonia", "is_capital": false, "latitude": 50.7161, "longitude": 6.0142, "population": 11061}, {"name": "La Louvière", "country_iso2": "BE", "state": "Wallonia", "is_capital": false, "latitude": 50.4667, "longitude": 4.1833, "population": 80986}, {"name": "Laarne", "country_iso2": "BE", "state": "Flanders", "is_capital": false, "latitude": 51.0167, "longitude": 3.85, "population": 12487}, {"name": "Laeken", "country_iso2": "BE", "state": "Brussels-Capital Region", "is_capital": false, "latitude": 50.8778, "longitude": 4.3558, "population": 60295}, {"name": "Lanaken", "country_iso2": "BE", "state": "Flanders", "is_capital": false, "latitude": 50.8925, "longitude": 5.6497, "population": 25818}, {"name": "Landen", "country_iso2": "BE", "state": "Flanders", "is_capital": false, "latitude": 50.7547, "longitude": 5.0814, "population": 15961}, {"name": "Lebbeke", "country_iso2": "BE", "state": "Flanders", "is_capital": false, "latitude": 51.0, "longitude": 4.1167, "population": 19195}, {"name": "Lede", "country_iso2": "BE", "state": "Flanders", "is_capital": false, "latitude": 50.9667, "longitude": 3.9833, "population": 18628}, {"name": "Ledeberg", "country_iso2": "BE", "state": "Flanders", "is_capital": false, "latitude": 51.0375, "longitude": 3.7425, "population": 16530}, {"name": "Ledegem", "country_iso2": "BE", "state": "Flanders", "is_capital": false, "latitude": 50.85, "longitude": 3.1167, "population": 9716}, {"name": "Leopoldsburg", "country_iso2": "BE", "state": "Flanders", "is_capital": false, "latitude": 51.1177, "longitude": 5.2541, "population": 15625}, {"name": "Lessines", "country_iso2": "BE", "state": "Wallonia", "is_capital": false, "latitude": 50.7167, "longitude": 3.8333, "population": 18552}, {"name": "Lichtervelde", "country_iso2": "BE", "state": "Flanders", "is_capital": false, "latitude": 51.0333, "longitude": 3.1333, "population": 8793}, {"name": "Liedekerke", "country_iso2": "BE", "state": "Flanders", "is_capital": false, "latitude": 50.8667, "longitude": 4.0833, "population": 13188}, {"name": "Lierre", "country_iso2": "BE", "state": "Flanders", "is_capital": false, "latitude": 51.1311, "longitude": 4.5697, "population": 36646}, {"name": "Lille", "country_iso2": "BE", "state": "Flanders", "is_capital": false, "latitude": 51.2383, "longitude": 4.8242, "population": 16564}, {"name": "Lint", "country_iso2": "BE", "state": "Flanders", "is_capital": false, "latitude": 51.1275, "longitude": 4.4962, "population": 8641}, {"name": "Lint", "country_iso2": "BE", "state": "Flanders", "is_capital": false, "latitude": 51.1167, "longitude": 4.4833, "population": 8505}, {"name": "Liège", "country_iso2": "BE", "state": "Wallonia", "is_capital": false, "latitude": 50.6397, "longitude": 5.5706, "population": 195278}, {"name": "Lochristi", "country_iso2": "BE", "state": "Flanders", "is_capital": false, "latitude": 51.1, "longitude": 3.8333, "population": 22300}, {"name": "Lokeren", "country_iso2": "BE", "state": "Flanders", "is_capital": false, "latitude": 51.1, "longitude": 3.9833, "population": 42703}, {"name": "Lommel", "country_iso2": "BE", "state": "Flanders", "is_capital": false, "latitude": 51.2317, "longitude": 5.311, "population": 34044}, {"name": "Londerzeel", "country_iso2": "BE", "state": "Flanders", "is_capital": false, "latitude": 51.0, "longitude": 4.3, "population": 18620}, {"name": "Louvain-la-Neuve", "country_iso2": "BE", "state": "Wallonia", "is_capital": false, "latitude": 50.6696, "longitude": 4.6112, "population": 10710}, {"name": "Lovendegem", "country_iso2": "BE", "state": "Flanders", "is_capital": false, "latitude": 51.1, "longitude": 3.6, "population": 9703}, {"name": "Lubbeek", "country_iso2": "BE", "state": "Flanders", "is_capital": false, "latitude": 50.8817, "longitude": 4.8414, "population": 14393}, {"name": "Lummen", "country_iso2": "BE", "state": "Flanders", "is_capital": false, "latitude": 50.9862, "longitude": 5.1927, "population": 14762}, {"name": "Maaseik", "country_iso2": "BE", "state": "Flanders", "is_capital": false, "latitude": 51.1019, "longitude": 5.7856, "population": 25201}, {"name": "Machelen", "country_iso2": "BE", "state": "Flanders", "is_capital": false, "latitude": 50.9167, "longitude": 4.4333, "population": 15417}, {"name": "Maldegem", "country_iso2": "BE", "state": "Flanders", "is_capital": false, "latitude": 51.2, "longitude": 3.4333, "population": 23689}, {"name": "Malmédy", "country_iso2": "BE", "state": "Wallonia", "is_capital": false, "latitude": 50.4261, "longitude": 6.0303, "population": 12654}, {"name": "Manage", "country_iso2": "BE", "state": "Wallonia", "is_capital": false, "latitude": 50.5, "longitude": 4.2333, "population": 23122}, {"name": "Marche-en-Famenne", "country_iso2": "BE", "state": "Wallonia", "is_capital": false, "latitude": 50.2266, "longitude": 5.3437, "population": 17455}, {"name": "Marcinelle", "country_iso2": "BE", "state": "Wallonia", "is_capital": false, "latitude": 50.3992, "longitude": 4.4469, "population": 22877}, {"name": "Mariakerke", "country_iso2": "BE", "state": "Flanders", "is_capital": false, "latitude": 51.0728, "longitude": 3.6761, "population": 17241}, {"name": "Mechelen", "country_iso2": "BE", "state": "Flanders", "is_capital": false, "latitude": 51.0281, "longitude": 4.4803, "population": 86921}, {"name": "Mechelen-aan-de-Maas", "country_iso2": "BE", "state": "Flanders", "is_capital": false, "latitude": 50.9967, "longitude": 5.7025, "population": 38193}, {"name": "Meerhout", "country_iso2": "BE", "state": "Flanders", "is_capital": false, "latitude": 51.132, "longitude": 5.0773, "population": 10324}, {"name": "Meise", "country_iso2": "BE", "state": "Flanders", "is_capital": false, "latitude": 50.9333, "longitude": 4.3333, "population": 19164}, {"name": "Melle", "country_iso2": "BE", "state": "Flanders", "is_capital": false, "latitude": 51.0, "longitude": 3.8, "population": 11574}, {"name": "Melsele", "country_iso2": "BE", "state": "Flanders", "is_capital": false, "latitude": 51.2209, "longitude": 4.2815, "population": 11093}, {"name": "Menen", "country_iso2": "BE", "state": "Flanders", "is_capital": false, "latitude": 50.8, "longitude": 3.1167, "population": 33982}, {"name": "Merchtem", "country_iso2": "BE", "state": "Flanders", "is_capital": false, "latitude": 50.9667, "longitude": 4.2333, "population": 16294}, {"name": "Merelbeke", "country_iso2": "BE", "state": "Flanders", "is_capital": false, "latitude": 51.0, "longitude": 3.75, "population": 24634}, {"name": "Merksem", "country_iso2": "BE", "state": "Flanders", "is_capital": false, "latitude": 51.2428, "longitude": 4.4414, "population": 44808}, {"name": "Merksplas", "country_iso2": "BE", "state": "Flanders", "is_capital": false, "latitude": 51.358, "longitude": 4.8634, "population": 8588}, {"name": "Mettet", "country_iso2": "BE", "state": "Wallonia", "is_capital": false, "latitude": 50.3211, "longitude": 4.659, "population": 13037}, {"name": "Meulebeke", "country_iso2": "BE", "state": "Flanders", "is_capital": false, "latitude": 50.95, "longitude": 3.2833, "population": 10906}, {"name": "Middelkerke", "country_iso2": "BE", "state": "Flanders", "is_capital": false, "latitude": 51.1833, "longitude": 2.8167, "population": 19371}, {"name": "Mol", "country_iso2": "BE", "state": "Flanders", "is_capital": false, "latitude": 51.1842, "longitude": 5.1156, "population": 37022}, {"name": "Mons", "country_iso2": "BE", "state": "Wallonia", "is_capital": false, "latitude": 50.4547, "longitude": 3.9525, "population": 95299}, {"name": "Montegnée", "country_iso2": "BE", "state": "Wallonia", "is_capital": false, "latitude": 50.6333, "longitude": 5.5333, "population": 24251}, {"name": "Montignies-le-Tilleul", "country_iso2": "BE", "state": "Wallonia", "is_capital": false, "latitude": 50.3794, "longitude": 4.379, "population": 10136}, {"name": "Moorslede", "country_iso2": "BE", "state": "Flanders", "is_capital": false, "latitude": 50.8833, "longitude": 3.0667, "population": 11080}, {"name": "Moortebeek", "country_iso2": "BE", "state": "Flanders", "is_capital": false, "latitude": 50.8547, "longitude": 4.3386, "population": 97979}, {"name": "Morlanwelz-Mariemont", "country_iso2": "BE", "state": "Wallonia", "is_capital": false, "latitude": 50.45, "longitude": 4.2333, "population": 19019}, {"name": "Mortsel", "country_iso2": "BE", "state": "Flanders", "is_capital": false, "latitude": 51.1667, "longitude": 4.4667, "population": 26157}, {"name": "Mouscron", "country_iso2": "BE", "state": "Wallonia", "is_capital": false, "latitude": 50.7333, "longitude": 3.2167, "population": 58234}, {"name": "Namur", "country_iso2": "BE", "state": "Wallonia", "is_capital": true, "latitude": 50.4667, "longitude": 4.8667, "population": 114007}, {"name": "Nazareth", "country_iso2": "BE", "state": "Flanders", "is_capital": false, "latitude": 50.9667, "longitude": 3.6, "population": 11574}, {"name": "Neder-Over-Heembeek", "country_iso2": "BE", "state": "Brussels-Capital Region", "is_capital": false, "latitude": 50.9, "longitude": 4.3833, "population": 17595}, {"name": "Neerpelt", "country_iso2": "BE", "state": "Flanders", "is_capital": false, "latitude": 51.2272, "longitude": 5.4317, "population": 17174}, {"name": "Nevele", "country_iso2": "BE", "state": "Flanders", "is_capital": false, "latitude": 51.0333, "longitude": 3.55, "population": 12179}, {"name": "Niel", "country_iso2": "BE", "state": "Flanders", "is_capital": false, "latitude": 51.1167, "longitude": 4.3333, "population": 10546}, {"name": "Nieuwpoort", "country_iso2": "BE", "state": "Flanders", "is_capital": false, "latitude": 51.1167, "longitude": 2.75, "population": 11565}, {"name": "Nijlen", "country_iso2": "BE", "state": "Flanders", "is_capital": false, "latitude": 51.1611, "longitude": 4.6703, "population": 22936}, {"name": "Ninove", "country_iso2": "BE", "state": "Flanders", "is_capital": false, "latitude": 50.8333, "longitude": 4.0167, "population": 39626}, {"name": "Nivelles", "country_iso2": "BE", "state": "Wallonia", "is_capital": false, "latitude": 50.5833, "longitude": 4.3167, "population": 28521}, {"name": "Olen", "country_iso2": "BE", "state": "Flanders", "is_capital": false, "latitude": 51.1439, "longitude": 4.8597, "population": 12560}, {"name": "Oostakker", "country_iso2": "BE", "state": "Flanders", "is_capital": false, "latitude": 51.1003, "longitude": 3.7633, "population": 14074}, {"name": "Oosterzele", "country_iso2": "BE", "state": "Flanders", "is_capital": false, "latitude": 50.95, "longitude": 3.8, "population": 13546}, {"name": "Oostkamp", "country_iso2": "BE", "state": "Flanders", "is_capital": false, "latitude": 51.15, "longitude": 3.2333, "population": 23580}, {"name": "Opglabbeek", "country_iso2": "BE", "state": "Flanders", "is_capital": false, "latitude": 51.0434, "longitude": 5.5835, "population": 10403}, {"name": "Opwijk", "country_iso2": "BE", "state": "Flanders", "is_capital": false, "latitude": 50.9667, "longitude": 4.1833, "population": 14378}, {"name": "Ostend", "country_iso2": "BE", "state": "Flanders", "is_capital": false, "latitude": 51.2258, "longitude": 2.9194, "population": 71557}, {"name": "Oud-Heverlee", "country_iso2": "BE", "state": "Flanders", "is_capital": false, "latitude": 50.8371, "longitude": 4.6639, "population": 11099}, {"name": "Oud-Turnhout", "country_iso2": "BE", "state": "Flanders", "is_capital": false, "latitude": 51.318, "longitude": 4.9823, "population": 13977}, {"name": "Oudenaarde", "country_iso2": "BE", "state": "Flanders", "is_capital": false, "latitude": 50.85, "longitude": 3.6, "population": 31866}, {"name": "Oudenburg", "country_iso2": "BE", "state": "Flanders", "is_capital": false, "latitude": 51.1833, "longitude": 3.0, "population": 9717}, {"name": "Oupeye", "country_iso2": "BE", "state": "Wallonia", "is_capital": false, "latitude": 50.71, "longitude": 5.6449, "population": 25297}, {"name": "Overijse", "country_iso2": "BE", "state": "Flanders", "is_capital": false, "latitude": 50.7751, "longitude": 4.5372, "population": 25169}, {"name": "Overpelt", "country_iso2": "BE", "state": "Flanders", "is_capital": false, "latitude": 51.2111, "longitude": 5.4256, "population": 15478}, {"name": "Paal", "country_iso2": "BE", "state": "Flanders", "is_capital": false, "latitude": 51.0392, "longitude": 5.1728, "population": 12083}, {"name": "Peer", "country_iso2": "BE", "state": "Flanders", "is_capital": false, "latitude": 51.133, "longitude": 5.453, "population": 16421}, {"name": "Pepinster", "country_iso2": "BE", "state": "Wallonia", "is_capital": false, "latitude": 50.5662, "longitude": 5.8038, "population": 9765}, {"name": "Perwez", "country_iso2": "BE", "state": "Wallonia", "is_capital": false, "latitude": 50.6241, "longitude": 4.815, "population": 9291}, {"name": "Philippeville", "country_iso2": "BE", "state": "Wallonia", "is_capital": false, "latitude": 50.1964, "longitude": 4.5436, "population": 9228}, {"name": "Plombières", "country_iso2": "BE", "state": "Wallonia", "is_capital": false, "latitude": 50.7372, "longitude": 5.9596, "population": 10401}, {"name": "Pont-à-Celles", "country_iso2": "BE", "state": "Wallonia", "is_capital": false, "latitude": 50.5, "longitude": 4.35, "population": 17287}, {"name": "Poperinge", "country_iso2": "BE", "state": "Flanders", "is_capital": false, "latitude": 50.85, "longitude": 2.7333, "population": 19782}, {"name": "Profondeville", "country_iso2": "BE", "state": "Wallonia", "is_capital": false, "latitude": 50.3777, "longitude": 4.8692, "population": 12204}, {"name": "Putte", "country_iso2": "BE", "state": "Flanders", "is_capital": false, "latitude": 51.0566, "longitude": 4.6292, "population": 17584}, {"name": "Puurs", "country_iso2": "BE", "state": "Flanders", "is_capital": false, "latitude": 51.0761, "longitude": 4.2803, "population": 17452}, {"name": "Péruwelz", "country_iso2": "BE", "state": "Wallonia", "is_capital": false, "latitude": 50.5167, "longitude": 3.5833, "population": 17113}, {"name": "Quaregnon", "country_iso2": "BE", "state": "Wallonia", "is_capital": false, "latitude": 50.4417, "longitude": 3.867, "population": 19006}, {"name": "Raeren", "country_iso2": "BE", "state": "Wallonia", "is_capital": false, "latitude": 50.6833, "longitude": 6.1167, "population": 10707}, {"name": "Ranst", "country_iso2": "BE", "state": "Flanders", "is_capital": false, "latitude": 51.1896, "longitude": 4.5634, "population": 19187}, {"name": "Ravels", "country_iso2": "BE", "state": "Flanders", "is_capital": false, "latitude": 51.3708, "longitude": 4.9926, "population": 14871}, {"name": "Retie", "country_iso2": "BE", "state": "Flanders", "is_capital": false, "latitude": 51.2658, "longitude": 5.0828, "population": 11240}, {"name": "Riemst", "country_iso2": "BE", "state": "Flanders", "is_capital": false, "latitude": 50.8089, "longitude": 5.6019, "population": 16665}, {"name": "Rijkevorsel", "country_iso2": "BE", "state": "Flanders", "is_capital": false, "latitude": 51.3489, "longitude": 4.7597, "population": 11932}, {"name": "Rixensart", "country_iso2": "BE", "state": "Wallonia", "is_capital": false, "latitude": 50.7167, "longitude": 4.5333, "population": 22401}, {"name": "Rochefort", "country_iso2": "BE", "state": "Wallonia", "is_capital": false, "latitude": 50.159, "longitude": 5.2231, "population": 12554}, {"name": "Roeselare", "country_iso2": "BE", "state": "Flanders", "is_capital": false, "latitude": 50.9333, "longitude": 3.1167, "population": 64495}, {"name": "Ronse", "country_iso2": "BE", "state": "Flanders", "is_capital": false, "latitude": 50.75, "longitude": 3.6, "population": 26702}, {"name": "Rotselaar", "country_iso2": "BE", "state": "Flanders", "is_capital": false, "latitude": 50.9511, "longitude": 4.7108, "population": 16678}, {"name": "Roux", "country_iso2": "BE", "state": "Wallonia", "is_capital": false, "latitude": 50.4412, "longitude": 4.3926, "population": 9182}, {"name": "Rumst", "country_iso2": "BE", "state": "Flanders", "is_capital": false, "latitude": 51.0833, "longitude": 4.4167, "population": 15114}, {"name": "Saint-Ghislain", "country_iso2": "BE", "state": "Wallonia", "is_capital": false, "latitude": 50.45, "longitude": 3.8167, "population": 23335}, {"name": "Saint-Nicolas", "country_iso2": "BE", "state": "Wallonia", "is_capital": false, "latitude": 50.6302, "longitude": 5.5373, "population": 24251}, {"name": "Saint-Vith", "country_iso2": "BE", "state": "Wallonia", "is_capital": false, "latitude": 50.2797, "longitude": 6.1275, "population": 9682}, {"name": "Schaarbeek", "country_iso2": "BE", "state": "Brussels-Capital Region", "is_capital": false, "latitude": 50.8675, "longitude": 4.3736, "population": 132799}, {"name": "Scherpenheuvel", "country_iso2": "BE", "state": "Flanders", "is_capital": false, "latitude": 50.9797, "longitude": 4.9764, "population": 22952}, {"name": "Schilde", "country_iso2": "BE", "state": "Flanders", "is_capital": false, "latitude": 51.2389, "longitude": 4.5815, "population": 19585}, {"name": "Schoten", "country_iso2": "BE", "state": "Flanders", "is_capital": false, "latitude": 51.25, "longitude": 4.5, "population": 34462}, {"name": "Seneffe", "country_iso2": "BE", "state": "Wallonia", "is_capital": false, "latitude": 50.5167, "longitude": 4.25, "population": 11272}, {"name": "Seraing", "country_iso2": "BE", "state": "Wallonia", "is_capital": false, "latitude": 50.5986, "longitude": 5.5122, "population": 64270}, {"name": "Sint-Amandsberg", "country_iso2": "BE", "state": "Flanders", "is_capital": false, "latitude": 51.0539, "longitude": 3.7492, "population": 32151}, {"name": "Sint-Andries", "country_iso2": "BE", "state": "Flanders", "is_capital": false, "latitude": 51.1972, "longitude": 3.1803, "population": 19818}, {"name": "Sint-Genesius-Rode", "country_iso2": "BE", "state": "Flanders", "is_capital": false, "latitude": 50.75, "longitude": 4.35, "population": 18296}, {"name": "Sint-Gillis-Waas", "country_iso2": "BE", "state": "Flanders", "is_capital": false, "latitude": 51.2167, "longitude": 4.1167, "population": 19273}, {"name": "Sint-Gillis-bij-Dendermonde", "country_iso2": "BE", "state": "Flanders", "is_capital": false, "latitude": 51.0189, "longitude": 4.1058, "population": 12920}, {"name": "Sint-Job-in-’t-Goor", "country_iso2": "BE", "state": "Flanders", "is_capital": false, "latitude": 51.3017, "longitude": 4.5691, "population": 8647}, {"name": "Sint-Joost-ten-Node", "country_iso2": "BE", "state": "Brussels-Capital Region", "is_capital": false, "latitude": 50.85, "longitude": 4.3833, "population": 27497}, {"name": "Sint-Katelijne-Waver", "country_iso2": "BE", "state": "Flanders", "is_capital": false, "latitude": 51.0667, "longitude": 4.5333, "population": 20870}, {"name": "Sint-Kruis", "country_iso2": "BE", "state": "Flanders", "is_capital": false, "latitude": 51.2139, "longitude": 3.2503, "population": 15892}, {"name": "Sint-Lievens-Houtem", "country_iso2": "BE", "state": "Flanders", "is_capital": false, "latitude": 50.9167, "longitude": 3.8667, "population": 10255}, {"name": "Sint-Martens-Lennik", "country_iso2": "BE", "state": "Flanders", "is_capital": false, "latitude": 50.8, "longitude": 4.15, "population": 9024}, {"name": "Sint-Michiels", "country_iso2": "BE", "state": "Flanders", "is_capital": false, "latitude": 51.1886, "longitude": 3.2117, "population": 12427}, {"name": "Sint-Niklaas", "country_iso2": "BE", "state": "Flanders", "is_capital": false, "latitude": 51.1667, "longitude": 4.1333, "population": 80167}, {"name": "Sint-Pieters-Leeuw", "country_iso2": "BE", "state": "Flanders", "is_capital": false, "latitude": 50.7833, "longitude": 4.25, "population": 34038}, {"name": "Sint-Truiden", "country_iso2": "BE", "state": "Flanders", "is_capital": false, "latitude": 50.8156, "longitude": 5.1868, "population": 40672}, {"name": "Soignies", "country_iso2": "BE", "state": "Wallonia", "is_capital": false, "latitude": 50.5667, "longitude": 4.0667, "population": 27603}, {"name": "Soumagne", "country_iso2": "BE", "state": "Wallonia", "is_capital": false, "latitude": 50.6124, "longitude": 5.7469, "population": 16888}, {"name": "Spa", "country_iso2": "BE", "state": "Wallonia", "is_capital": false, "latitude": 50.4924, "longitude": 5.8648, "population": 10378}, {"name": "Sprimont", "country_iso2": "BE", "state": "Wallonia", "is_capital": false, "latitude": 50.5053, "longitude": 5.6618, "population": 14645}, {"name": "Stabroek", "country_iso2": "BE", "state": "Flanders", "is_capital": false, "latitude": 51.3333, "longitude": 4.3667, "population": 18529}, {"name": "Staden", "country_iso2": "BE", "state": "Flanders", "is_capital": false, "latitude": 50.9833, "longitude": 3.0167, "population": 11376}, {"name": "Steenokkerzeel", "country_iso2": "BE", "state": "Flanders", "is_capital": false, "latitude": 50.9188, "longitude": 4.5114, "population": 12090}, {"name": "Stekene", "country_iso2": "BE", "state": "Flanders", "is_capital": false, "latitude": 51.2, "longitude": 4.0333, "population": 18352}, {"name": "Strombeek-Bever", "country_iso2": "BE", "state": "Brussels-Capital Region", "is_capital": false, "latitude": 50.91, "longitude": 4.35, "population": 11500}, {"name": "Temse", "country_iso2": "BE", "state": "Flanders", "is_capital": false, "latitude": 51.1167, "longitude": 4.2, "population": 29528}, {"name": "Ternat", "country_iso2": "BE", "state": "Flanders", "is_capital": false, "latitude": 50.8667, "longitude": 4.1833, "population": 15481}, {"name": "Tervuren", "country_iso2": "BE", "state": "Flanders", "is_capital": false, "latitude": 50.8167, "longitude": 4.5, "population": 22248}, {"name": "Tessenderlo", "country_iso2": "BE", "state": "Flanders", "is_capital": false, "latitude": 51.0679, "longitude": 5.0891, "population": 18514}, {"name": "Theux", "country_iso2": "BE", "state": "Wallonia", "is_capital": false, "latitude": 50.5352, "longitude": 5.8132, "population": 12025}, {"name": "Thuin", "country_iso2": "BE", "state": "Wallonia", "is_capital": false, "latitude": 50.3398, "longitude": 4.2874, "population": 14671}, {"name": "Tielt", "country_iso2": "BE", "state": "Flanders", "is_capital": false, "latitude": 51.0, "longitude": 3.3167, "population": 20500}, {"name": "Tienen", "country_iso2": "BE", "state": "Flanders", "is_capital": false, "latitude": 50.8075, "longitude": 4.9372, "population": 36581}, {"name": "Tongeren", "country_iso2": "BE", "state": "Flanders", "is_capital": false, "latitude": 50.7807, "longitude": 5.4623, "population": 31142}, {"name": "Torhout", "country_iso2": "BE", "state": "Flanders", "is_capital": false, "latitude": 51.05, "longitude": 3.1, "population": 20530}, {"name": "Tournai", "country_iso2": "BE", "state": "Wallonia", "is_capital": false, "latitude": 50.6056, "longitude": 3.3881, "population": 69554}, {"name": "Tremelo", "country_iso2": "BE", "state": "Flanders", "is_capital": false, "latitude": 50.9918, "longitude": 4.7039, "population": 14842}, {"name": "Tubize", "country_iso2": "BE", "state": "Wallonia", "is_capital": false, "latitude": 50.693, "longitude": 4.2047, "population": 25914}, {"name": "Turnhout", "country_iso2": "BE", "state": "Flanders", "is_capital": false, "latitude": 51.3231, "longitude": 4.9483, "population": 44136}, {"name": "Verviers", "country_iso2": "BE", "state": "Wallonia", "is_capital": false, "latitude": 50.5835, "longitude": 5.8641, "population": 55198}, {"name": "Veurne", "country_iso2": "BE", "state": "Flanders", "is_capital": false, "latitude": 51.0667, "longitude": 2.65, "population": 12295}, {"name": "Villers-la-Ville", "country_iso2": "BE", "state": "Wallonia", "is_capital": false, "latitude": 50.5833, "longitude": 4.5333, "population": 10713}, {"name": "Vilvoorde", "country_iso2": "BE", "state": "Flanders", "is_capital": false, "latitude": 50.9333, "longitude": 4.4167, "population": 44015}, {"name": "Virton", "country_iso2": "BE", "state": "Wallonia", "is_capital": false, "latitude": 49.5677, "longitude": 5.5323, "population": 11323}, {"name": "Visé", "country_iso2": "BE", "state": "Wallonia", "is_capital": false, "latitude": 50.737, "longitude": 5.6958, "population": 17767}, {"name": "Vosselaar", "country_iso2": "BE", "state": "Flanders", "is_capital": false, "latitude": 51.3081, "longitude": 4.8883, "population": 11159}, {"name": "Waasmunster", "country_iso2": "BE", "state": "Flanders", "is_capital": false, "latitude": 51.1097, "longitude": 4.0847, "population": 10768}, {"name": "Walcourt", "country_iso2": "BE", "state": "Wallonia", "is_capital": false, "latitude": 50.2534, "longitude": 4.4347, "population": 18376}, {"name": "Wanze", "country_iso2": "BE", "state": "Wallonia", "is_capital": false, "latitude": 50.5353, "longitude": 5.2133, "population": 13576}, {"name": "Waregem", "country_iso2": "BE", "state": "Flanders", "is_capital": false, "latitude": 50.8833, "longitude": 3.4167, "population": 38347}, {"name": "Waremme", "country_iso2": "BE", "state": "Wallonia", "is_capital": false, "latitude": 50.6967, "longitude": 5.2569, "population": 15168}, {"name": "Waterloo", "country_iso2": "BE", "state": "Wallonia", "is_capital": false, "latitude": 50.7175, "longitude": 4.3979, "population": 30174}, {"name": "Wavre", "country_iso2": "BE", "state": "Wallonia", "is_capital": false, "latitude": 50.7147, "longitude": 4.6107, "population": 34305}, {"name": "Welkenraedt", "country_iso2": "BE", "state": "Wallonia", "is_capital": false, "latitude": 50.6606, "longitude": 5.9714, "population": 9920}, {"name": "Wemmel", "country_iso2": "BE", "state": "Flanders", "is_capital": false, "latitude": 50.9078, "longitude": 4.3067, "population": 16347}, {"name": "Wervik", "country_iso2": "BE", "state": "Flanders", "is_capital": false, "latitude": 50.7833, "longitude": 3.0333, "population": 19020}, {"name": "Westerlo", "country_iso2": "BE", "state": "Flanders", "is_capital": false, "latitude": 51.0897, "longitude": 4.9153, "population": 24884}, {"name": "Wetteren", "country_iso2": "BE", "state": "Flanders", "is_capital": false, "latitude": 51.0, "longitude": 3.8833, "population": 25477}, {"name": "Wevelgem", "country_iso2": "BE", "state": "Flanders", "is_capital": false, "latitude": 50.8, "longitude": 3.1667, "population": 31412}, {"name": "Wezembeek-Oppem", "country_iso2": "BE", "state": "Flanders", "is_capital": false, "latitude": 50.8442, "longitude": 4.4872, "population": 14021}, {"name": "Wichelen", "country_iso2": "BE", "state": "Flanders", "is_capital": false, "latitude": 51.0, "longitude": 3.9667, "population": 11578}, {"name": "Wielsbeke", "country_iso2": "BE", "state": "Flanders", "is_capital": false, "latitude": 50.9, "longitude": 3.3667, "population": 9584}, {"name": "Wijnegem", "country_iso2": "BE", "state": "Flanders", "is_capital": false, "latitude": 51.2272, "longitude": 4.52, "population": 9711}, {"name": "Willebroek", "country_iso2": "BE", "state": "Flanders", "is_capital": false, "latitude": 51.0667, "longitude": 4.3667, "population": 26223}, {"name": "Wilrijk", "country_iso2": "BE", "state": "Flanders", "is_capital": false, "latitude": 51.1667, "longitude": 4.3833, "population": 38319}, {"name": "Wilsele", "country_iso2": "BE", "state": "Flanders", "is_capital": false, "latitude": 50.8945, "longitude": 4.6982, "population": 9892}, {"name": "Wingene", "country_iso2": "BE", "state": "Flanders", "is_capital": false, "latitude": 51.05, "longitude": 3.2667, "population": 14243}, {"name": "Wommelgem", "country_iso2": "BE", "state": "Flanders", "is_capital": false, "latitude": 51.2031, "longitude": 4.5227, "population": 12893}, {"name": "Wondelgem", "country_iso2": "BE", "state": "Flanders", "is_capital": false, "latitude": 51.0889, "longitude": 3.7131, "population": 16932}, {"name": "Wuustwezel", "country_iso2": "BE", "state": "Flanders", "is_capital": false, "latitude": 51.3922, "longitude": 4.5942, "population": 20671}, {"name": "Yvoir", "country_iso2": "BE", "state": "Wallonia", "is_capital": false, "latitude": 50.3264, "longitude": 4.8782, "population": 9163}, {"name": "Zandhoven", "country_iso2": "BE", "state": "Flanders", "is_capital": false, "latitude": 51.215, "longitude": 4.6608, "population": 12985}, {"name": "Zaventem", "country_iso2": "BE", "state": "Flanders", "is_capital": false, "latitude": 50.8667, "longitude": 4.4667, "population": 35184}, {"name": "Zedelgem", "country_iso2": "BE", "state": "Flanders", "is_capital": false, "latitude": 51.1333, "longitude": 3.1333, "population": 22635}, {"name": "Zele", "country_iso2": "BE", "state": "Flanders", "is_capital": false, "latitude": 51.0667, "longitude": 4.0333, "population": 20976}, {"name": "Zelzate", "country_iso2": "BE", "state": "Flanders", "is_capital": false, "latitude": 51.2, "longitude": 3.8167, "population": 12699}, {"name": "Zemst", "country_iso2": "BE", "state": "Flanders", "is_capital": false, "latitude": 50.9722, "longitude": 4.4222, "population": 23325}, {"name": "Zoersel", "country_iso2": "BE", "state": "Flanders", "is_capital": false, "latitude": 51.2675, "longitude": 4.7126, "population": 21739}, {"name": "Zonhoven", "country_iso2": "BE", "state": "Flanders", "is_capital": false, "latitude": 50.9914, "longitude": 5.3709, "population": 21214}, {"name": "Zonnebeke", "country_iso2": "BE", "state": "Flanders", "is_capital": false, "latitude": 50.8667, "longitude": 2.9833, "population": 12445}, {"name": "Zottegem", "country_iso2": "BE", "state": "Flanders", "is_capital": false, "latitude": 50.8667, "longitude": 3.8, "population": 26373}, {"name": "Zulte", "country_iso2": "BE", "state": "Flanders", "is_capital": false, "latitude": 50.9167, "longitude": 3.4333, "population": 15720}, {"name": "Zwevegem", "country_iso2": "BE", "state": "Flanders", "is_capital": false, "latitude": 50.8, "longitude": 3.3333, "population": 24619}, {"name": "Zwijndrecht", "country_iso2": "BE", "state": "Flanders", "is_capital": false, "latitude": 51.2167, "longitude": 4.3333, "population": 19002}, {"name": "Écaussinnes-Lalaing", "country_iso2": "BE", "state": "Wallonia", "is_capital": false, "latitude": 50.5667, "longitude": 4.1833, "population": 11135}, {"name": "Éghezée", "country_iso2": "BE", "state": "Wallonia", "is_capital": false, "latitude": 50.5925, "longitude": 4.9104, "population": 16247}]