[{"name": "Ad Dirāz", "country_iso2": "BH", "state": "Ash Shamālīyah", "is_capital": false, "latitude": 26.2186, "longitude": 50.4756, "population": 18000}, {"name": "Al Hamalah", "country_iso2": "BH", "state": "Ash Shamālīyah", "is_capital": false, "latitude": 26.1497, "longitude": 50.4653, "population": 18000}, {"name": "Al Muḩarraq", "country_iso2": "BH", "state": "Al Muḩarraq", "is_capital": false, "latitude": 26.25, "longitude": 50.6167, "population": 176583}, {"name": "Al Mālikīyah", "country_iso2": "BH", "state": "Ash Shamālīyah", "is_capital": false, "latitude": 26.1008, "longitude": 50.4878, "population": 14800}, {"name": "Jidd Ḩafş", "country_iso2": "BH", "state": "Al ‘Āşimah", "is_capital": false, "latitude": 26.219, "longitude": 50.538, "population": 66588}, {"name": "Karrānah", "country_iso2": "BH", "state": "Ash Shamālīyah", "is_capital": false, "latitude": 26.2306, "longitude": 50.5108, "population": 12000}, {"name": "Madīnat Ḩamad", "country_iso2": "BH", "state": "Ash Shamālīyah", "is_capital": false, "latitude": 26.1128, "longitude": 50.5139, "population": 133550}, {"name": "Madīnat ‘Īsá", "country_iso2": "BH", "state": "Al Janūbīyah", "is_capital": false, "latitude": 26.1736, "longitude": 50.5478, "population": 61293}, {"name": "Manama", "country_iso2": "BH", "state": "Al ‘Āşimah", "is_capital": true, "latitude": 26.2233, "longitude": 50.5875, "population": 727000}, {"name": "Sitrah", "country_iso2": "BH", "state": "Al ‘Āşimah", "is_capital": false, "latitude": 26.12, "longitude": 50.65, "population": 20000}]