[{"name": "Abomey", "country_iso2": "BJ", "state": "Zou", "is_capital": true, "latitude": 7.1856, "longitude": 1.9881, "population": 90195}, {"name": "Abomey-Calavi", "country_iso2": "BJ", "state": "Atlantique", "is_capital": false, "latitude": 6.4486, "longitude": 2.3556, "population": 655965}, {"name": "Adakplamé", "country_iso2": "BJ", "state": "Plateau", "is_capital": false, "latitude": 7.45, "longitude": 2.55, "population": 14089}, {"name": "Adjahomé", "country_iso2": "BJ", "state": "Couffo", "is_capital": false, "latitude": 7.0618, "longitude": 1.8368, "population": 16421}, {"name": "Adjaouèrè", "country_iso2": "BJ", "state": "Plateau", "is_capital": false, "latitude": 7.0, "longitude": 2.6167, "population": 115953}, {"name": "Adjarra", "country_iso2": "BJ", "state": "Ouémé", "is_capital": false, "latitude": 6.5333, "longitude": 2.6667, "population": 97424}, {"name": "Adjarra", "country_iso2": "BJ", "state": "Atlantique", "is_capital": false, "latitude": 6.5333, "longitude": 2.2667, "population": 8651}, {"name": "Adjido", "country_iso2": "BJ", "state": "Zou", "is_capital": false, "latitude": 7.0333, "longitude": 1.9833, "population": 9064}, {"name": "Adjohon", "country_iso2": "BJ", "state": "Ouémé", "is_capital": false, "latitude": 6.7, "longitude": 2.4667, "population": 60955}, {"name": "Adohoun", "country_iso2": "BJ", "state": "Mono", "is_capital": false, "latitude": 6.6333, "longitude": 1.6667, "population": 10622}, {"name": "Agamé", "country_iso2": "BJ", "state": "Couffo", "is_capital": false, "latitude": 6.7333, "longitude": 1.7667, "population": 11465}, {"name": "Agatogba", "country_iso2": "BJ", "state": "Mono", "is_capital": false, "latitude": 6.4, "longitude": 1.9, "population": 9758}, {"name": "Agbangnizoun", "country_iso2": "BJ", "state": "Zou", "is_capital": false, "latitude": 7.0667, "longitude": 1.9667, "population": 55001}, {"name": "Agblangandan", "country_iso2": "BJ", "state": "Ouémé", "is_capital": false, "latitude": 6.3667, "longitude": 2.5167, "population": 30716}, {"name": "Agouna", "country_iso2": "BJ", "state": "Zou", "is_capital": false, "latitude": 7.5667, "longitude": 1.7, "population": 10763}, {"name": "Agoué", "country_iso2": "BJ", "state": "Mono", "is_capital": false, "latitude": 6.25, "longitude": 1.6833, "population": 9589}, {"name": "Ahogbeya", "country_iso2": "BJ", "state": "Couffo", "is_capital": false, "latitude": 7.0333, "longitude": 1.9167, "population": 10330}, {"name": "Akassato", "country_iso2": "BJ", "state": "Atlantique", "is_capital": false, "latitude": 6.5, "longitude": 2.3667, "population": 17197}, {"name": "Aklanpa", "country_iso2": "BJ", "state": "Collines", "is_capital": false, "latitude": 8.1684, "longitude": 2.232, "population": 16895}, {"name": "Akpassi", "country_iso2": "BJ", "state": "Collines", "is_capital": false, "latitude": 8.45, "longitude": 1.8833, "population": 8979}, {"name": "Allada", "country_iso2": "BJ", "state": "Atlantique", "is_capital": false, "latitude": 6.65, "longitude": 2.15, "population": 127512}, {"name": "Angara-Débou", "country_iso2": "BJ", "state": "Atacora", "is_capital": false, "latitude": 11.3289, "longitude": 3.0406, "population": 16369}, {"name": "Aplahoué", "country_iso2": "BJ", "state": "Couffo", "is_capital": false, "latitude": 6.9333, "longitude": 1.6833, "population": 170069}, {"name": "Atchoupa", "country_iso2": "BJ", "state": "Ouémé", "is_capital": false, "latitude": 6.5333, "longitude": 2.6333, "population": 19565}, {"name": "Athiémé", "country_iso2": "BJ", "state": "Mono", "is_capital": false, "latitude": 6.5833, "longitude": 1.6667, "population": 56483}, {"name": "Atomé-Avégamé", "country_iso2": "BJ", "state": "Couffo", "is_capital": false, "latitude": 7.2333, "longitude": 1.65, "population": 13582}, {"name": "Avabodji", "country_iso2": "BJ", "state": "Ouémé", "is_capital": false, "latitude": 6.4533, "longitude": 2.5275, "population": 8668}, {"name": "Avrankou", "country_iso2": "BJ", "state": "Ouémé", "is_capital": false, "latitude": 6.55, "longitude": 2.6667, "population": 128050}, {"name": "Ayomi", "country_iso2": "BJ", "state": "Couffo", "is_capital": false, "latitude": 6.7833, "longitude": 1.7167, "population": 14191}, {"name": "Azaourissè", "country_iso2": "BJ", "state": "Ouémé", "is_capital": false, "latitude": 6.6944, "longitude": 2.5075, "population": 16883}, {"name": "Azové", "country_iso2": "BJ", "state": "Couffo", "is_capital": false, "latitude": 6.95, "longitude": 1.7, "population": 22853}, {"name": "Bagou", "country_iso2": "BJ", "state": "Alibori", "is_capital": false, "latitude": 10.8147, "longitude": 2.7164, "population": 20631}, {"name": "Bakaga", "country_iso2": "BJ", "state": "Borgou", "is_capital": false, "latitude": 9.35, "longitude": 2.6167, "population": 206667}, {"name": "Banigbé", "country_iso2": "BJ", "state": "Plateau", "is_capital": false, "latitude": 6.9, "longitude": 2.65, "population": 16080}, {"name": "Banikoara", "country_iso2": "BJ", "state": "Alibori", "is_capital": false, "latitude": 11.3, "longitude": 2.4333, "population": 248621}, {"name": "Banté", "country_iso2": "BJ", "state": "Collines", "is_capital": false, "latitude": 8.4167, "longitude": 1.8833, "population": 106945}, {"name": "Barei", "country_iso2": "BJ", "state": "Donga", "is_capital": false, "latitude": 9.6833, "longitude": 1.5667, "population": 9259}, {"name": "Bassila", "country_iso2": "BJ", "state": "Donga", "is_capital": false, "latitude": 9.0167, "longitude": 1.6667, "population": 130770}, {"name": "Basso", "country_iso2": "BJ", "state": "Borgou", "is_capital": false, "latitude": 10.5, "longitude": 3.6833, "population": 9827}, {"name": "Bembèrèkè", "country_iso2": "BJ", "state": "Borgou", "is_capital": false, "latitude": 10.225, "longitude": 2.6681, "population": 31101}, {"name": "Birni", "country_iso2": "BJ", "state": "Atacora", "is_capital": false, "latitude": 9.9892, "longitude": 1.5269, "population": 12559}, {"name": "Birni Lafia", "country_iso2": "BJ", "state": "Alibori", "is_capital": false, "latitude": 11.9783, "longitude": 3.2225, "population": 9946}, {"name": "Biro", "country_iso2": "BJ", "state": "Borgou", "is_capital": false, "latitude": 9.9, "longitude": 2.9333, "population": 18003}, {"name": "Bohicon", "country_iso2": "BJ", "state": "Zou", "is_capital": false, "latitude": 7.2, "longitude": 2.0667, "population": 149271}, {"name": "Bonou", "country_iso2": "BJ", "state": "Ouémé", "is_capital": false, "latitude": 6.9, "longitude": 2.45, "population": 44349}, {"name": "Bopa", "country_iso2": "BJ", "state": "Mono", "is_capital": false, "latitude": 6.5833, "longitude": 1.9833, "population": 70268}, {"name": "Bouanri", "country_iso2": "BJ", "state": "Borgou", "is_capital": false, "latitude": 10.2, "longitude": 2.8667, "population": 19281}, {"name": "Bougou", "country_iso2": "BJ", "state": "Donga", "is_capital": false, "latitude": 9.4333, "longitude": 1.6167, "population": 9505}, {"name": "Bouka", "country_iso2": "BJ", "state": "Borgou", "is_capital": false, "latitude": 10.2167, "longitude": 3.1333, "population": 27906}, {"name": "Boukoumbé", "country_iso2": "BJ", "state": "Atacora", "is_capital": false, "latitude": 10.1833, "longitude": 1.1, "population": 83147}, {"name": "Briniamaro", "country_iso2": "BJ", "state": "Atacora", "is_capital": false, "latitude": 10.7411, "longitude": 2.0731, "population": 14751}, {"name": "Bétérou", "country_iso2": "BJ", "state": "Borgou", "is_capital": false, "latitude": 9.2, "longitude": 2.2667, "population": 15236}, {"name": "Comé", "country_iso2": "BJ", "state": "Mono", "is_capital": false, "latitude": 6.4, "longitude": 1.8833, "population": 33507}, {"name": "Cotonou", "country_iso2": "BJ", "state": "Littoral", "is_capital": true, "latitude": 6.3667, "longitude": 2.4333, "population": 679012}, {"name": "Coussé", "country_iso2": "BJ", "state": "Atlantique", "is_capital": false, "latitude": 6.85, "longitude": 2.1333, "population": 11885}, {"name": "Cové", "country_iso2": "BJ", "state": "Zou", "is_capital": false, "latitude": 7.2333, "longitude": 2.3, "population": 43554}, {"name": "Dagbé", "country_iso2": "BJ", "state": "Ouémé", "is_capital": false, "latitude": 6.5667, "longitude": 2.6833, "population": 9498}, {"name": "Dahé", "country_iso2": "BJ", "state": "Mono", "is_capital": false, "latitude": 6.5167, "longitude": 1.95, "population": 14622}, {"name": "Dan", "country_iso2": "BJ", "state": "Zou", "is_capital": false, "latitude": 7.3167, "longitude": 2.0667, "population": 10356}, {"name": "Dangbo", "country_iso2": "BJ", "state": "Ouémé", "is_capital": false, "latitude": 6.5, "longitude": 2.6833, "population": 66055}, {"name": "Dassa-Zoumé", "country_iso2": "BJ", "state": "Collines", "is_capital": false, "latitude": 7.75, "longitude": 2.1833, "population": 112118}, {"name": "Dassari", "country_iso2": "BJ", "state": "Atacora", "is_capital": false, "latitude": 10.8158, "longitude": 1.1406, "population": 15839}, {"name": "Dasso", "country_iso2": "BJ", "state": "Zou", "is_capital": false, "latitude": 7.0167, "longitude": 2.4667, "population": 9607}, {"name": "Datori", "country_iso2": "BJ", "state": "Atacora", "is_capital": false, "latitude": 10.4017, "longitude": 0.7828, "population": 9615}, {"name": "Djakotomé", "country_iso2": "BJ", "state": "Couffo", "is_capital": false, "latitude": 6.9, "longitude": 1.7167, "population": 134704}, {"name": "Djidja", "country_iso2": "BJ", "state": "Zou", "is_capital": false, "latitude": 7.3333, "longitude": 1.9333, "population": 123542}, {"name": "Djougou", "country_iso2": "BJ", "state": "Donga", "is_capital": true, "latitude": 9.7, "longitude": 1.6667, "population": 237040}, {"name": "Dodji-Bata", "country_iso2": "BJ", "state": "Atlantique", "is_capital": false, "latitude": 6.6833, "longitude": 2.2833, "population": 9119}, {"name": "Dogbo", "country_iso2": "BJ", "state": "Couffo", "is_capital": true, "latitude": 6.8167, "longitude": 1.7833, "population": null}, {"name": "Donwari", "country_iso2": "BJ", "state": "Alibori", "is_capital": false, "latitude": 11.1197, "longitude": 2.8558, "population": 12773}, {"name": "Dougba", "country_iso2": "BJ", "state": "Collines", "is_capital": false, "latitude": 8.4497, "longitude": 2.4737, "population": 10387}, {"name": "Doumé", "country_iso2": "BJ", "state": "Collines", "is_capital": false, "latitude": 8.0167, "longitude": 1.6333, "population": 13592}, {"name": "Doutou", "country_iso2": "BJ", "state": "Mono", "is_capital": false, "latitude": 6.55, "longitude": 1.8833, "population": 22099}, {"name": "Dékanmé", "country_iso2": "BJ", "state": "Zou", "is_capital": false, "latitude": 7.1333, "longitude": 1.9667, "population": 8581}, {"name": "Dérassi", "country_iso2": "BJ", "state": "Borgou", "is_capital": false, "latitude": 10.1667, "longitude": 3.2667, "population": 11630}, {"name": "Ekpé", "country_iso2": "BJ", "state": "Ouémé", "is_capital": false, "latitude": 6.4, "longitude": 2.5333, "population": 75313}, {"name": "Firou", "country_iso2": "BJ", "state": "Atacora", "is_capital": false, "latitude": 10.9192, "longitude": 1.9386, "population": 10331}, {"name": "Founougo", "country_iso2": "BJ", "state": "Alibori", "is_capital": false, "latitude": 11.4808, "longitude": 2.5322, "population": 30527}, {"name": "Fô-Bouré", "country_iso2": "BJ", "state": "Borgou", "is_capital": false, "latitude": 10.1167, "longitude": 2.4, "population": 10677}, {"name": "Ganvié", "country_iso2": "BJ", "state": "Atlantique", "is_capital": false, "latitude": 6.4667, "longitude": 2.4167, "population": 10280}, {"name": "Garou", "country_iso2": "BJ", "state": "Atacora", "is_capital": false, "latitude": 11.8053, "longitude": 3.4739, "population": 16235}, {"name": "Gbanhi", "country_iso2": "BJ", "state": "Collines", "is_capital": false, "latitude": 8.4497, "longitude": 2.4737, "population": 12045}, {"name": "Gbéroubouè", "country_iso2": "BJ", "state": "Borgou", "is_capital": false, "latitude": 10.5333, "longitude": 2.7333, "population": 11846}, {"name": "Glazoué", "country_iso2": "BJ", "state": "Collines", "is_capital": false, "latitude": 7.9736, "longitude": 2.24, "population": 124431}, {"name": "Godohou", "country_iso2": "BJ", "state": "Couffo", "is_capital": false, "latitude": 7.0333, "longitude": 1.7833, "population": 12259}, {"name": "Godomè", "country_iso2": "BJ", "state": "Atlantique", "is_capital": false, "latitude": 6.3667, "longitude": 2.35, "population": 253262}, {"name": "Gogounou", "country_iso2": "BJ", "state": "Alibori", "is_capital": false, "latitude": 10.8386, "longitude": 2.8361, "population": 117793}, {"name": "Golo-Djigbé", "country_iso2": "BJ", "state": "Atlantique", "is_capital": false, "latitude": 6.5403, "longitude": 2.3253, "population": 28103}, {"name": "Gomparou", "country_iso2": "BJ", "state": "Alibori", "is_capital": false, "latitude": 11.3, "longitude": 2.4489, "population": 12934}, {"name": "Gouandé", "country_iso2": "BJ", "state": "Atacora", "is_capital": false, "latitude": 10.7828, "longitude": 0.9186, "population": 13071}, {"name": "Gouka", "country_iso2": "BJ", "state": "Collines", "is_capital": false, "latitude": 8.1333, "longitude": 1.9667, "population": 13765}, {"name": "Goumori", "country_iso2": "BJ", "state": "Alibori", "is_capital": false, "latitude": 11.1833, "longitude": 2.2833, "population": 23286}, {"name": "Gounarou", "country_iso2": "BJ", "state": "Alibori", "is_capital": false, "latitude": 10.8667, "longitude": 2.85, "population": 10767}, {"name": "Grand-Popo", "country_iso2": "BJ", "state": "Mono", "is_capital": false, "latitude": 6.2833, "longitude": 1.8333, "population": 57636}, {"name": "Guinagourou", "country_iso2": "BJ", "state": "Borgou", "is_capital": false, "latitude": 9.5667, "longitude": 2.95, "population": 11411}, {"name": "Guéné", "country_iso2": "BJ", "state": "Atacora", "is_capital": false, "latitude": 11.7306, "longitude": 3.2242, "population": 25206}, {"name": "Hozin", "country_iso2": "BJ", "state": "Ouémé", "is_capital": false, "latitude": 6.5333, "longitude": 2.55, "population": 10076}, {"name": "Hévié", "country_iso2": "BJ", "state": "Atlantique", "is_capital": false, "latitude": 6.4167, "longitude": 2.25, "population": 13450}, {"name": "Idigny", "country_iso2": "BJ", "state": "Plateau", "is_capital": false, "latitude": 7.4833, "longitude": 2.7, "population": 26882}, {"name": "Ifanhim", "country_iso2": "BJ", "state": "Plateau", "is_capital": false, "latitude": 6.6667, "longitude": 2.7167, "population": 113749}, {"name": "Igana", "country_iso2": "BJ", "state": "Plateau", "is_capital": false, "latitude": 7.0333, "longitude": 2.7, "population": 8735}, {"name": "Ina", "country_iso2": "BJ", "state": "Borgou", "is_capital": false, "latitude": 9.9833, "longitude": 2.7167, "population": 16558}, {"name": "Issaba", "country_iso2": "BJ", "state": "Plateau", "is_capital": false, "latitude": 7.0833, "longitude": 2.6167, "population": 19732}, {"name": "Kaboua", "country_iso2": "BJ", "state": "Collines", "is_capital": false, "latitude": 8.25, "longitude": 2.6833, "population": 11500}, {"name": "Kalalé", "country_iso2": "BJ", "state": "Borgou", "is_capital": false, "latitude": 10.2953, "longitude": 3.3786, "population": 168882}, {"name": "Kandi", "country_iso2": "BJ", "state": "Alibori", "is_capital": true, "latitude": 11.1286, "longitude": 2.9369, "population": 177683}, {"name": "Karimama", "country_iso2": "BJ", "state": "Alibori", "is_capital": false, "latitude": 12.0667, "longitude": 3.1833, "population": 66675}, {"name": "Katagon", "country_iso2": "BJ", "state": "Ouémé", "is_capital": false, "latitude": 6.6333, "longitude": 2.5833, "population": 12173}, {"name": "Kika", "country_iso2": "BJ", "state": "Borgou", "is_capital": false, "latitude": 9.3, "longitude": 2.2667, "population": 12398}, {"name": "Kilibo", "country_iso2": "BJ", "state": "Collines", "is_capital": false, "latitude": 8.5717, "longitude": 2.6017, "population": 10616}, {"name": "Kissa", "country_iso2": "BJ", "state": "Couffo", "is_capital": false, "latitude": 7.0333, "longitude": 1.7833, "population": 20016}, {"name": "Kolokondé", "country_iso2": "BJ", "state": "Donga", "is_capital": false, "latitude": 9.9, "longitude": 1.7667, "population": 17419}, {"name": "Kopargo", "country_iso2": "BJ", "state": "Donga", "is_capital": false, "latitude": 9.8375, "longitude": 1.5481, "population": 70938}, {"name": "Kouandé", "country_iso2": "BJ", "state": "Atacora", "is_capital": false, "latitude": 10.3317, "longitude": 1.6914, "population": 112014}, {"name": "Kouarfa", "country_iso2": "BJ", "state": "Atacora", "is_capital": false, "latitude": 10.4833, "longitude": 1.5167, "population": 9809}, {"name": "Kountouri", "country_iso2": "BJ", "state": "Atacora", "is_capital": false, "latitude": 10.405, "longitude": 0.9425, "population": 11958}, {"name": "Kouti", "country_iso2": "BJ", "state": "Plateau", "is_capital": false, "latitude": 6.5542, "longitude": 2.6616, "population": 12751}, {"name": "Kérou", "country_iso2": "BJ", "state": "Atacora", "is_capital": false, "latitude": 10.825, "longitude": 2.1094, "population": 37419}, {"name": "Kétou", "country_iso2": "BJ", "state": "Plateau", "is_capital": false, "latitude": 7.3581, "longitude": 2.6075, "population": 156497}, {"name": "Lagbé", "country_iso2": "BJ", "state": "Plateau", "is_capital": false, "latitude": 6.6833, "longitude": 2.6833, "population": 9138}, {"name": "Lalo", "country_iso2": "BJ", "state": "Couffo", "is_capital": false, "latitude": 6.9167, "longitude": 1.8833, "population": 119926}, {"name": "Lanta", "country_iso2": "BJ", "state": "Couffo", "is_capital": false, "latitude": 7.1, "longitude": 1.8667, "population": 9129}, {"name": "Libanté", "country_iso2": "BJ", "state": "Alibori", "is_capital": false, "latitude": 10.7936, "longitude": 3.5828, "population": 10365}, {"name": "Lissegazoun", "country_iso2": "BJ", "state": "Atlantique", "is_capital": false, "latitude": 6.6167, "longitude": 2.0833, "population": 11856}, {"name": "Lobogo", "country_iso2": "BJ", "state": "Mono", "is_capital": false, "latitude": 6.6333, "longitude": 1.9, "population": 17622}, {"name": "Locogahoué", "country_iso2": "BJ", "state": "Couffo", "is_capital": false, "latitude": 6.8, "longitude": 1.783, "population": 8567}, {"name": "Lokossa", "country_iso2": "BJ", "state": "Mono", "is_capital": true, "latitude": 6.6333, "longitude": 1.7167, "population": 106081}, {"name": "Lonkly", "country_iso2": "BJ", "state": "Couffo", "is_capital": false, "latitude": 7.1333, "longitude": 1.6833, "population": 10445}, {"name": "Malanville", "country_iso2": "BJ", "state": "Atacora", "is_capital": false, "latitude": 11.8667, "longitude": 3.3833, "population": 168641}, {"name": "Manta", "country_iso2": "BJ", "state": "Atacora", "is_capital": false, "latitude": 10.3564, "longitude": 1.1056, "population": 13633}, {"name": "Massi", "country_iso2": "BJ", "state": "Donga", "is_capital": false, "latitude": 9.9167, "longitude": 1.4667, "population": 10030}, {"name": "Massé", "country_iso2": "BJ", "state": "Plateau", "is_capital": false, "latitude": 7.1578, "longitude": 2.5436, "population": 16902}, {"name": "Matéri", "country_iso2": "BJ", "state": "Atacora", "is_capital": false, "latitude": 10.6978, "longitude": 1.0633, "population": 113958}, {"name": "Missérété", "country_iso2": "BJ", "state": "Ouémé", "is_capital": false, "latitude": 6.5625, "longitude": 2.5853, "population": 127249}, {"name": "Mousoulou", "country_iso2": "BJ", "state": "Zou", "is_capital": false, "latitude": 7.3899, "longitude": 1.9367, "population": 8806}, {"name": "Méridjonou", "country_iso2": "BJ", "state": "Ouémé", "is_capital": false, "latitude": 6.4619, "longitude": 2.6774, "population": 13959}, {"name": "Natitingou", "country_iso2": "BJ", "state": "Atacora", "is_capital": true, "latitude": 10.3, "longitude": 1.3667, "population": 104010}, {"name": "Ndali", "country_iso2": "BJ", "state": "Borgou", "is_capital": false, "latitude": 9.8608, "longitude": 2.7181, "population": 113604}, {"name": "Nikki", "country_iso2": "BJ", "state": "Borgou", "is_capital": false, "latitude": 9.9333, "longitude": 3.2083, "population": 69970}, {"name": "Niémasson", "country_iso2": "BJ", "state": "Atacora", "is_capital": false, "latitude": 10.3078, "longitude": 2.0378, "population": 11069}, {"name": "Onklou", "country_iso2": "BJ", "state": "Donga", "is_capital": false, "latitude": 9.5, "longitude": 1.9833, "population": 14693}, {"name": "Ouaké", "country_iso2": "BJ", "state": "Donga", "is_capital": false, "latitude": 9.6617, "longitude": 1.3847, "population": 74289}, {"name": "Ouando", "country_iso2": "BJ", "state": "Ouémé", "is_capital": false, "latitude": 6.5542, "longitude": 2.6616, "population": 8712}, {"name": "Ouidah", "country_iso2": "BJ", "state": "Atlantique", "is_capital": true, "latitude": 6.3667, "longitude": 2.0833, "population": 91688}, {"name": "Ouinhri", "country_iso2": "BJ", "state": "Zou", "is_capital": false, "latitude": 7.0, "longitude": 2.45, "population": 59381}, {"name": "Ouédo", "country_iso2": "BJ", "state": "Atlantique", "is_capital": false, "latitude": 6.4833, "longitude": 2.45, "population": 10067}, {"name": "Ouédo-Aguéko", "country_iso2": "BJ", "state": "Atlantique", "is_capital": false, "latitude": 6.4963, "longitude": 2.4268, "population": 10610}, {"name": "Ouédémè", "country_iso2": "BJ", "state": "Couffo", "is_capital": false, "latitude": 6.7, "longitude": 1.6833, "population": 9099}, {"name": "Ouénou", "country_iso2": "BJ", "state": "Borgou", "is_capital": false, "latitude": 9.787, "longitude": 2.6375, "population": 12245}, {"name": "Pabégou", "country_iso2": "BJ", "state": "Donga", "is_capital": false, "latitude": 9.8333, "longitude": 1.5492, "population": 10156}, {"name": "Pahou", "country_iso2": "BJ", "state": "Atlantique", "is_capital": false, "latitude": 6.3833, "longitude": 2.2167, "population": 14436}, {"name": "Paouignan", "country_iso2": "BJ", "state": "Collines", "is_capital": false, "latitude": 7.6937, "longitude": 2.2673, "population": 27351}, {"name": "Parakou", "country_iso2": "BJ", "state": "Borgou", "is_capital": true, "latitude": 9.35, "longitude": 2.6167, "population": 206667}, {"name": "Pira", "country_iso2": "BJ", "state": "Collines", "is_capital": false, "latitude": 8.5, "longitude": 1.7333, "population": 12377}, {"name": "Pobé", "country_iso2": "BJ", "state": "Plateau", "is_capital": false, "latitude": 6.9667, "longitude": 2.6833, "population": 123740}, {"name": "Porto-Novo", "country_iso2": "BJ", "state": "Ouémé", "is_capital": true, "latitude": 6.4972, "longitude": 2.605, "population": 133168}, {"name": "Pèrèrè", "country_iso2": "BJ", "state": "Borgou", "is_capital": false, "latitude": 9.7994, "longitude": 2.9928, "population": 78988}, {"name": "Péda-Houéyogbé", "country_iso2": "BJ", "state": "Mono", "is_capital": false, "latitude": 6.45, "longitude": 1.9333, "population": 74492}, {"name": "Péhonko", "country_iso2": "BJ", "state": "Atacora", "is_capital": false, "latitude": 10.2283, "longitude": 2.0019, "population": 78217}, {"name": "Péonga", "country_iso2": "BJ", "state": "Borgou", "is_capital": false, "latitude": 10.3333, "longitude": 3.2667, "population": 11843}, {"name": "Sagon", "country_iso2": "BJ", "state": "Zou", "is_capital": false, "latitude": 7.15, "longitude": 2.4167, "population": 12160}, {"name": "Sakabansi", "country_iso2": "BJ", "state": "Borgou", "is_capital": false, "latitude": 10.0442, "longitude": 3.3821, "population": 15111}, {"name": "Sakété", "country_iso2": "BJ", "state": "Plateau", "is_capital": true, "latitude": 6.7364, "longitude": 2.6581, "population": 114207}, {"name": "Sam", "country_iso2": "BJ", "state": "Alibori", "is_capital": false, "latitude": 11.0333, "longitude": 2.7333, "population": 12006}, {"name": "Sanson", "country_iso2": "BJ", "state": "Borgou", "is_capital": false, "latitude": 9.2833, "longitude": 2.4333, "population": 10784}, {"name": "Savalou", "country_iso2": "BJ", "state": "Collines", "is_capital": true, "latitude": 7.9333, "longitude": 1.9667, "population": 35433}, {"name": "Savé", "country_iso2": "BJ", "state": "Collines", "is_capital": false, "latitude": 8.0333, "longitude": 2.4833, "population": 31444}, {"name": "Siki", "country_iso2": "BJ", "state": "Borgou", "is_capital": false, "latitude": 10.1833, "longitude": 2.3833, "population": 12398}, {"name": "Sinendé", "country_iso2": "BJ", "state": "Borgou", "is_capital": false, "latitude": 10.3447, "longitude": 2.3792, "population": 91672}, {"name": "Sinmpérékou", "country_iso2": "BJ", "state": "Alibori", "is_capital": false, "latitude": 11.2333, "longitude": 2.4167, "population": 14748}, {"name": "So-Awa", "country_iso2": "BJ", "state": "Atlantique", "is_capital": false, "latitude": 6.4667, "longitude": 2.4167, "population": 76315}, {"name": "Soklogbo", "country_iso2": "BJ", "state": "Collines", "is_capital": false, "latitude": 7.6937, "longitude": 2.2673, "population": 12278}, {"name": "Sokotindji", "country_iso2": "BJ", "state": "Alibori", "is_capital": false, "latitude": 10.8528, "longitude": 3.4297, "population": 9493}, {"name": "Sokouhoué", "country_iso2": "BJ", "state": "Couffo", "is_capital": false, "latitude": 6.9, "longitude": 1.6667, "population": 11998}, {"name": "Sonsoro", "country_iso2": "BJ", "state": "Alibori", "is_capital": false, "latitude": 11.0875, "longitude": 2.7597, "population": 9501}, {"name": "Sori", "country_iso2": "BJ", "state": "Alibori", "is_capital": false, "latitude": 10.7281, "longitude": 2.7825, "population": 21735}, {"name": "Sèmèrè", "country_iso2": "BJ", "state": "Donga", "is_capital": false, "latitude": 9.6268, "longitude": 1.4515, "population": 8566}, {"name": "Ségbana", "country_iso2": "BJ", "state": "Alibori", "is_capital": false, "latitude": 10.9278, "longitude": 3.6944, "population": 89268}, {"name": "Ségou", "country_iso2": "BJ", "state": "Atlantique", "is_capital": false, "latitude": 6.6167, "longitude": 2.2167, "population": 16124}, {"name": "Sérarou", "country_iso2": "BJ", "state": "Borgou", "is_capital": false, "latitude": 9.5833, "longitude": 2.65, "population": 16060}, {"name": "Sérékali", "country_iso2": "BJ", "state": "Borgou", "is_capital": false, "latitude": 9.9186, "longitude": 3.0434, "population": 10818}, {"name": "Takon", "country_iso2": "BJ", "state": "Plateau", "is_capital": false, "latitude": 6.65, "longitude": 2.6167, "population": 10424}, {"name": "Takouta", "country_iso2": "BJ", "state": "Atacora", "is_capital": false, "latitude": 10.3, "longitude": 1.2, "population": 8811}, {"name": "Tanguiéta", "country_iso2": "BJ", "state": "Atacora", "is_capital": false, "latitude": 10.6167, "longitude": 1.2667, "population": 74675}, {"name": "Tanmpègré", "country_iso2": "BJ", "state": "Atacora", "is_capital": false, "latitude": 10.48, "longitude": 1.45, "population": 8560}, {"name": "Tantéga", "country_iso2": "BJ", "state": "Atacora", "is_capital": false, "latitude": 10.85, "longitude": 1.0333, "population": 16625}, {"name": "Tasso", "country_iso2": "BJ", "state": "Borgou", "is_capital": false, "latitude": 9.6737, "longitude": 3.2333, "population": 9234}, {"name": "Tayakou", "country_iso2": "BJ", "state": "Atacora", "is_capital": false, "latitude": 10.55, "longitude": 1.2, "population": 9716}, {"name": "Tchaourou", "country_iso2": "BJ", "state": "Borgou", "is_capital": false, "latitude": 8.8833, "longitude": 2.6, "population": 221108}, {"name": "Tiahounkossi", "country_iso2": "BJ", "state": "Atacora", "is_capital": false, "latitude": 10.8167, "longitude": 1.0667, "population": 16625}, {"name": "Tobré", "country_iso2": "BJ", "state": "Atacora", "is_capital": false, "latitude": 10.2, "longitude": 2.1333, "population": 16912}, {"name": "Toffo", "country_iso2": "BJ", "state": "Atlantique", "is_capital": false, "latitude": 6.85, "longitude": 2.0833, "population": 74717}, {"name": "Togba", "country_iso2": "BJ", "state": "Couffo", "is_capital": false, "latitude": 7.1, "longitude": 1.6667, "population": 18674}, {"name": "Tohoué", "country_iso2": "BJ", "state": "Ouémé", "is_capital": false, "latitude": 6.3967, "longitude": 2.5853, "population": 17652}, {"name": "Tomboutou", "country_iso2": "BJ", "state": "Atacora", "is_capital": false, "latitude": 11.855, "longitude": 3.2892, "population": 10026}, {"name": "Tori-Bossito", "country_iso2": "BJ", "state": "Atlantique", "is_capital": false, "latitude": 6.5031, "longitude": 2.145, "population": 44569}, {"name": "Tori-Cada", "country_iso2": "BJ", "state": "Atlantique", "is_capital": false, "latitude": 6.5833, "longitude": 2.2, "population": 11952}, {"name": "Tota", "country_iso2": "BJ", "state": "Couffo", "is_capital": false, "latitude": 6.8, "longitude": 1.7833, "population": 101870}, {"name": "Toui", "country_iso2": "BJ", "state": "Collines", "is_capital": false, "latitude": 8.6833, "longitude": 2.6, "population": 15634}, {"name": "Toukountouna", "country_iso2": "BJ", "state": "Atacora", "is_capital": false, "latitude": 10.4986, "longitude": 1.3756, "population": 39779}, {"name": "Toura", "country_iso2": "BJ", "state": "Alibori", "is_capital": false, "latitude": 11.2436, "longitude": 2.3831, "population": 13110}, {"name": "Toviklin", "country_iso2": "BJ", "state": "Couffo", "is_capital": false, "latitude": 6.8333, "longitude": 1.8167, "population": 88611}, {"name": "Vakon", "country_iso2": "BJ", "state": "Ouémé", "is_capital": false, "latitude": 6.5167, "longitude": 2.5667, "population": 20541}, {"name": "Yoko", "country_iso2": "BJ", "state": "Plateau", "is_capital": false, "latitude": 6.7, "longitude": 2.6167, "population": 10543}, {"name": "Zagnanado", "country_iso2": "BJ", "state": "Zou", "is_capital": false, "latitude": 7.2667, "longitude": 2.35, "population": 132401}, {"name": "Zinvié", "country_iso2": "BJ", "state": "Atlantique", "is_capital": false, "latitude": 6.6167, "longitude": 2.35, "population": 18157}, {"name": "Zogbodomé", "country_iso2": "BJ", "state": "Zou", "is_capital": false, "latitude": 7.0833, "longitude": 2.1, "population": 72338}, {"name": "Zoudjamé", "country_iso2": "BJ", "state": "Couffo", "is_capital": false, "latitude": 6.8167, "longitude": 1.8667, "population": 9673}]