[{"name": "Bandar Seri Begawan", "country_iso2": "BN", "state": "Brunei dan Muara", "is_capital": true, "latitude": 4.8903, "longitude": 114.9422, "population": 50000}, {"name": "Bangar", "country_iso2": "BN", "state": "Temburong", "is_capital": true, "latitude": 4.7086, "longitude": 115.0739, "population": 451}, {"name": "Kampong Tunah Jambu", "country_iso2": "BN", "state": "Brunei dan Muara", "is_capital": false, "latitude": 4.9957, "longitude": 115.0019, "population": 8809}, {"name": "Kuala Belait", "country_iso2": "BN", "state": "Belait", "is_capital": true, "latitude": 4.5828, "longitude": 114.1918, "population": 4259}, {"name": "Seria", "country_iso2": "BN", "state": "Belait", "is_capital": false, "latitude": 4.6141, "longitude": 114.3302, "population": 21082}, {"name": "Tutong", "country_iso2": "BN", "state": "Tutong", "is_capital": true, "latitude": 4.8067, "longitude": 114.6592, "population": 9883}]