[{"name": "Abadiânia", "country_iso2": "BR", "state": "Goiás", "is_capital": false, "latitude": -16.2039, "longitude": -48.7069, "population": 11452}, {"name": "Abaetetuba", "country_iso2": "BR", "state": "Pará", "is_capital": false, "latitude": -1.7178, "longitude": -48.8828, "population": 158188}, {"name": "Abaeté", "country_iso2": "BR", "state": "Minas Gerais", "is_capital": false, "latitude": -19.1583, "longitude": -45.4522, "population": 22360}, {"name": "Abaiara", "country_iso2": "BR", "state": "Ceará", "is_capital": false, "latitude": -7.3589, "longitude": -39.0458, "population": 10038}, {"name": "Abaré", "country_iso2": "BR", "state": "Bahia", "is_capital": false, "latitude": -8.7208, "longitude": -39.115, "population": 17639}, {"name": "Abelardo Luz", "country_iso2": "BR", "state": "Santa Catarina", "is_capital": false, "latitude": -26.565, "longitude": -52.3278, "population": 17392}, {"name": "Abre Campo", "country_iso2": "BR", "state": "Minas Gerais", "is_capital": false, "latitude": -20.3008, "longitude": -42.4778, "population": 13927}, {"name": "Abreu e Lima", "country_iso2": "BR", "state": "Pernambuco", "is_capital": false, "latitude": -7.9117, "longitude": -34.9028, "population": 98462}, {"name": "Abunã", "country_iso2": "BR", "state": "Rondônia", "is_capital": false, "latitude": -9.6954, "longitude": -65.3597, "population": 1929}, {"name": "Acajutiba", "country_iso2": "BR", "state": "Bahia", "is_capital": false, "latitude": -11.6619, "longitude": -38.0169, "population": 13795}, {"name": "Acarape", "country_iso2": "BR", "state": "Ceará", "is_capital": false, "latitude": -4.2242, "longitude": -38.7083, "population": 16288}, {"name": "Acaraú", "country_iso2": "BR", "state": "Ceará", "is_capital": false, "latitude": -2.8858, "longitude": -40.12, "population": 48968}, {"name": "Acari", "country_iso2": "BR", "state": "Rio Grande do Norte", "is_capital": false, "latitude": -6.4358, "longitude": -36.6389, "population": 10597}, {"name": "Acará", "country_iso2": "BR", "state": "Pará", "is_capital": false, "latitude": -1.9608, "longitude": -48.1969, "population": 52126}, {"name": "Acopiara", "country_iso2": "BR", "state": "Ceará", "is_capital": false, "latitude": -6.095, "longitude": -39.4528, "population": 44962}, {"name": "Adamantina", "country_iso2": "BR", "state": "São Paulo", "is_capital": false, "latitude": -21.6847, "longitude": -51.0733, "population": 35111}, {"name": "Adustina", "country_iso2": "BR", "state": "Bahia", "is_capital": false, "latitude": -10.5328, "longitude": -38.1, "population": 14201}, {"name": "Afogados da Ingazeira", "country_iso2": "BR", "state": "Pernambuco", "is_capital": false, "latitude": -7.7508, "longitude": -37.6342, "population": 40241}, {"name": "Afonso Bezerra", "country_iso2": "BR", "state": "Rio Grande do Norte", "is_capital": false, "latitude": -5.4978, "longitude": -36.5058, "population": 10839}, {"name": "Afonso Cláudio", "country_iso2": "BR", "state": "Espírito Santo", "is_capital": false, "latitude": -20.0739, "longitude": -41.1239, "population": 30455}, {"name": "Afrânio", "country_iso2": "BR", "state": "Pernambuco", "is_capital": false, "latitude": -8.5, "longitude": -41.0, "population": 18674}, {"name": "Afuá", "country_iso2": "BR", "state": "Pará", "is_capital": false, "latitude": -0.1569, "longitude": -50.3869, "population": 37765}, {"name": "Agrestina", "country_iso2": "BR", "state": "Pernambuco", "is_capital": false, "latitude": -8.45, "longitude": -35.95, "population": 23779}, {"name": "Aguaí", "country_iso2": "BR", "state": "São Paulo", "is_capital": false, "latitude": -22.0603, "longitude": -46.9736, "population": 34863}, {"name": "Agudo", "country_iso2": "BR", "state": "Rio Grande do Sul", "is_capital": false, "latitude": -29.645, "longitude": -53.24, "population": 16041}, {"name": "Agudos", "country_iso2": "BR", "state": "São Paulo", "is_capital": false, "latitude": -22.4739, "longitude": -48.9836, "population": 37401}, {"name": "Agudos do Sul", "country_iso2": "BR", "state": "Paraná", "is_capital": false, "latitude": -25.9928, "longitude": -49.335, "population": 10233}, {"name": "Aimorés", "country_iso2": "BR", "state": "Minas Gerais", "is_capital": false, "latitude": -19.4958, "longitude": -41.0639, "population": 25141}, {"name": "Aiuaba", "country_iso2": "BR", "state": "Ceará", "is_capital": false, "latitude": -6.5739, "longitude": -40.1239, "population": 14076}, {"name": "Alagoa Grande", "country_iso2": "BR", "state": "Paraíba", "is_capital": false, "latitude": -7.0822, "longitude": -35.6, "population": 26062}, {"name": "Alagoa Nova", "country_iso2": "BR", "state": "Paraíba", "is_capital": false, "latitude": -7.0708, "longitude": -35.7583, "population": 20921}, {"name": "Alagoinha", "country_iso2": "BR", "state": "Bahia", "is_capital": false, "latitude": -12.3333, "longitude": -42.0833, "population": 14718}, {"name": "Alagoinha", "country_iso2": "BR", "state": "Paraíba", "is_capital": false, "latitude": -6.95, "longitude": -35.545, "population": 13725}, {"name": "Alagoinha", "country_iso2": "BR", "state": "Pernambuco", "is_capital": false, "latitude": -8.4658, "longitude": -36.7758, "population": 13542}, {"name": "Alagoinhas", "country_iso2": "BR", "state": "Bahia", "is_capital": false, "latitude": -12.1356, "longitude": -38.4192, "population": 152327}, {"name": "Alcobaça", "country_iso2": "BR", "state": "Bahia", "is_capital": false, "latitude": -17.5189, "longitude": -39.1958, "population": 24530}, {"name": "Alcântara", "country_iso2": "BR", "state": "Maranhão", "is_capital": false, "latitude": -2.4089, "longitude": -44.415, "population": 18467}, {"name": "Alcântaras", "country_iso2": "BR", "state": "Ceará", "is_capital": false, "latitude": -3.5889, "longitude": -40.5458, "population": 11369}, {"name": "Aldeias Altas", "country_iso2": "BR", "state": "Maranhão", "is_capital": false, "latitude": -4.6278, "longitude": -43.4708, "population": 23286}, {"name": "Alegre", "country_iso2": "BR", "state": "Espírito Santo", "is_capital": false, "latitude": -20.7639, "longitude": -41.5328, "population": 29177}, {"name": "Alegrete", "country_iso2": "BR", "state": "Rio Grande do Sul", "is_capital": false, "latitude": -29.7839, "longitude": -55.7911, "population": 72409}, {"name": "Alenquer", "country_iso2": "BR", "state": "Pará", "is_capital": false, "latitude": -1.9419, "longitude": -54.7378, "population": 69377}, {"name": "Alexandria", "country_iso2": "BR", "state": "Rio Grande do Norte", "is_capital": false, "latitude": -6.4128, "longitude": -38.0158, "population": 13640}, {"name": "Alexânia", "country_iso2": "BR", "state": "Goiás", "is_capital": false, "latitude": -16.0819, "longitude": -48.5069, "population": 27008}, {"name": "Alfenas", "country_iso2": "BR", "state": "Minas Gerais", "is_capital": false, "latitude": -21.4289, "longitude": -45.9469, "population": 78970}, {"name": "Alfredo Chaves", "country_iso2": "BR", "state": "Espírito Santo", "is_capital": false, "latitude": -20.635, "longitude": -40.75, "population": 13616}, {"name": "Alfredo Wagner", "country_iso2": "BR", "state": "Santa Catarina", "is_capital": false, "latitude": -27.7, "longitude": -49.3339, "population": 10481}, {"name": "Alhandra", "country_iso2": "BR", "state": "Paraíba", "is_capital": false, "latitude": -7.3504, "longitude": -34.9284, "population": 15914}, {"name": "Aliança", "country_iso2": "BR", "state": "Pernambuco", "is_capital": false, "latitude": -7.6028, "longitude": -35.2308, "population": 35741}, {"name": "Almeirim", "country_iso2": "BR", "state": "Pará", "is_capital": false, "latitude": -1.5228, "longitude": -52.5819, "population": 34280}, {"name": "Almenara", "country_iso2": "BR", "state": "Minas Gerais", "is_capital": false, "latitude": -16.1833, "longitude": -40.7, "population": 40364}, {"name": "Almirante Tamandaré", "country_iso2": "BR", "state": "Paraná", "is_capital": false, "latitude": -25.325, "longitude": -49.31, "population": 119825}, {"name": "Alpinópolis", "country_iso2": "BR", "state": "Minas Gerais", "is_capital": false, "latitude": -20.8639, "longitude": -46.3878, "population": 19958}, {"name": "Alta Floresta", "country_iso2": "BR", "state": "Mato Grosso", "is_capital": false, "latitude": -9.8758, "longitude": -56.0858, "population": 58613}, {"name": "Alta Floresta D’Oeste", "country_iso2": "BR", "state": "Rondônia", "is_capital": false, "latitude": -11.9283, "longitude": -61.995, "population": 21494}, {"name": "Altamira", "country_iso2": "BR", "state": "Pará", "is_capital": false, "latitude": -3.2028, "longitude": -52.2058, "population": 126279}, {"name": "Alterosa", "country_iso2": "BR", "state": "Minas Gerais", "is_capital": false, "latitude": -21.2489, "longitude": -46.1428, "population": 13915}, {"name": "Altinho", "country_iso2": "BR", "state": "Pernambuco", "is_capital": false, "latitude": -8.49, "longitude": -36.0589, "population": 20674}, {"name": "Altinópolis", "country_iso2": "BR", "state": "São Paulo", "is_capital": false, "latitude": -21.0231, "longitude": -47.3728, "population": 16203}, {"name": "Alto Alegre dos Parecis", "country_iso2": "BR", "state": "Rondônia", "is_capital": false, "latitude": -12.1278, "longitude": -61.8508, "population": 11479}, {"name": "Alto Araguaia", "country_iso2": "BR", "state": "Mato Grosso", "is_capital": false, "latitude": -17.3147, "longitude": -53.2153, "population": 19385}, {"name": "Alto Garças", "country_iso2": "BR", "state": "Mato Grosso", "is_capital": false, "latitude": -16.9439, "longitude": -53.5278, "population": 13052}, {"name": "Alto Longá", "country_iso2": "BR", "state": "Piauí", "is_capital": false, "latitude": -5.2511, "longitude": -42.2103, "population": 14339}, {"name": "Alto Paraná", "country_iso2": "BR", "state": "Paraná", "is_capital": false, "latitude": -23.1289, "longitude": -52.3189, "population": 13909}, {"name": "Alto Parnaíba", "country_iso2": "BR", "state": "Maranhão", "is_capital": false, "latitude": -9.1108, "longitude": -45.93, "population": 11109}, {"name": "Alto Piquiri", "country_iso2": "BR", "state": "Paraná", "is_capital": false, "latitude": -24.0278, "longitude": -53.4408, "population": 9727}, {"name": "Alto Rio Doce", "country_iso2": "BR", "state": "Minas Gerais", "is_capital": false, "latitude": -21.0258, "longitude": -43.4108, "population": 10891}, {"name": "Alto Santo", "country_iso2": "BR", "state": "Ceará", "is_capital": false, "latitude": -5.5208, "longitude": -38.2719, "population": 14155}, {"name": "Alto do Rodrigues", "country_iso2": "BR", "state": "Rio Grande do Norte", "is_capital": false, "latitude": -5.2878, "longitude": -36.7619, "population": 12484}, {"name": "Altos", "country_iso2": "BR", "state": "Piauí", "is_capital": false, "latitude": -5.0389, "longitude": -42.4608, "population": 47453}, {"name": "Altônia", "country_iso2": "BR", "state": "Paraná", "is_capital": false, "latitude": -23.8739, "longitude": -53.9019, "population": 18742}, {"name": "Alvarães", "country_iso2": "BR", "state": "Amazonas", "is_capital": false, "latitude": -3.2, "longitude": -64.8333, "population": 15866}, {"name": "Alvinópolis", "country_iso2": "BR", "state": "Minas Gerais", "is_capital": false, "latitude": -20.1069, "longitude": -43.0489, "population": 15059}, {"name": "Alvorada", "country_iso2": "BR", "state": "Tocantins", "is_capital": false, "latitude": -12.48, "longitude": -49.125, "population": 8802}, {"name": "Alvorada D’Oeste", "country_iso2": "BR", "state": "Rondônia", "is_capital": false, "latitude": -11.3417, "longitude": -62.2861, "population": 13117}, {"name": "Alvorada do Sul", "country_iso2": "BR", "state": "Paraná", "is_capital": false, "latitude": -22.78, "longitude": -51.2308, "population": 10326}, {"name": "Além Paraíba", "country_iso2": "BR", "state": "Minas Gerais", "is_capital": false, "latitude": -21.8878, "longitude": -42.7039, "population": 30717}, {"name": "Amambaí", "country_iso2": "BR", "state": "Mato Grosso do Sul", "is_capital": false, "latitude": -23.1039, "longitude": -55.2258, "population": 39325}, {"name": "Amapá", "country_iso2": "BR", "state": "Amapá", "is_capital": false, "latitude": 2.0528, "longitude": -50.7928, "population": 7943}, {"name": "Amaraji", "country_iso2": "BR", "state": "Pernambuco", "is_capital": false, "latitude": -8.3758, "longitude": -35.4522, "population": 18205}, {"name": "Amarante", "country_iso2": "BR", "state": "Piauí", "is_capital": false, "latitude": -6.2408, "longitude": -42.855, "population": 16884}, {"name": "Amarante do Maranhão", "country_iso2": "BR", "state": "Maranhão", "is_capital": false, "latitude": -5.5669, "longitude": -46.7419, "population": 31292}, {"name": "Amargosa", "country_iso2": "BR", "state": "Bahia", "is_capital": false, "latitude": -13.03, "longitude": -39.605, "population": 31108}, {"name": "Amaturá", "country_iso2": "BR", "state": "Amazonas", "is_capital": false, "latitude": -3.3639, "longitude": -68.1978, "population": 10819}, {"name": "Americana", "country_iso2": "BR", "state": "São Paulo", "is_capital": false, "latitude": -22.7392, "longitude": -47.3314, "population": 242018}, {"name": "Amontada", "country_iso2": "BR", "state": "Ceará", "is_capital": false, "latitude": -3.3608, "longitude": -39.8308, "population": 42156}, {"name": "Amparo", "country_iso2": "BR", "state": "São Paulo", "is_capital": false, "latitude": -22.7031, "longitude": -46.765, "population": 72677}, {"name": "Ampère", "country_iso2": "BR", "state": "Paraná", "is_capital": false, "latitude": -25.915, "longitude": -53.4728, "population": 19620}, {"name": "América Dourada", "country_iso2": "BR", "state": "Bahia", "is_capital": false, "latitude": -11.455, "longitude": -41.4358, "population": 15137}, {"name": "Américo Brasiliense", "country_iso2": "BR", "state": "São Paulo", "is_capital": false, "latitude": -21.7361, "longitude": -48.1114, "population": 38202}, {"name": "Anadia", "country_iso2": "BR", "state": "Alagoas", "is_capital": false, "latitude": -9.6844, "longitude": -36.3042, "population": 13966}, {"name": "Anagé", "country_iso2": "BR", "state": "Bahia", "is_capital": false, "latitude": -14.6119, "longitude": -41.1358, "population": 25438}, {"name": "Anajatuba", "country_iso2": "BR", "state": "Maranhão", "is_capital": false, "latitude": -3.2644, "longitude": -44.6197, "population": 26988}, {"name": "Anajás", "country_iso2": "BR", "state": "Pará", "is_capital": false, "latitude": -0.9869, "longitude": -49.94, "population": 28011}, {"name": "Anamã", "country_iso2": "BR", "state": "Amazonas", "is_capital": false, "latitude": -3.58, "longitude": -61.4039, "population": 9962}, {"name": "Ananindeua", "country_iso2": "BR", "state": "Pará", "is_capital": false, "latitude": -1.3658, "longitude": -48.3719, "population": 478778}, {"name": "Ananás", "country_iso2": "BR", "state": "Tocantins", "is_capital": false, "latitude": -6.3658, "longitude": -48.0728, "population": 10325}, {"name": "Anapurus", "country_iso2": "BR", "state": "Maranhão", "is_capital": false, "latitude": -3.6719, "longitude": -43.1158, "population": 13793}, {"name": "Anastácio", "country_iso2": "BR", "state": "Mato Grosso do Sul", "is_capital": false, "latitude": -20.4839, "longitude": -55.8069, "population": 22477}, {"name": "Anchieta", "country_iso2": "BR", "state": "Espírito Santo", "is_capital": false, "latitude": -20.8056, "longitude": -40.6444, "population": 29984}, {"name": "Andaraí", "country_iso2": "BR", "state": "Bahia", "is_capital": false, "latitude": -12.8069, "longitude": -41.3308, "population": 13080}, {"name": "Andirá", "country_iso2": "BR", "state": "Paraná", "is_capital": false, "latitude": -23.0508, "longitude": -50.2289, "population": 19878}, {"name": "Andorinha", "country_iso2": "BR", "state": "Bahia", "is_capital": false, "latitude": -10.345, "longitude": -39.8328, "population": 15012}, {"name": "Andradas", "country_iso2": "BR", "state": "Minas Gerais", "is_capital": false, "latitude": -22.0678, "longitude": -46.5689, "population": 32968}, {"name": "Andradina", "country_iso2": "BR", "state": "São Paulo", "is_capital": false, "latitude": -20.8958, "longitude": -51.3789, "population": 59783}, {"name": "Andrelândia", "country_iso2": "BR", "state": "Minas Gerais", "is_capital": false, "latitude": -21.74, "longitude": -44.3089, "population": 11927}, {"name": "André Fernandes", "country_iso2": "BR", "state": "Minas Gerais", "is_capital": false, "latitude": -15.9658, "longitude": -41.4978, "population": 9110}, {"name": "Angatuba", "country_iso2": "BR", "state": "São Paulo", "is_capital": false, "latitude": -23.4903, "longitude": -48.4128, "population": 24161}, {"name": "Angelim", "country_iso2": "BR", "state": "Pernambuco", "is_capital": false, "latitude": -8.8833, "longitude": -36.2833, "population": 10241}, {"name": "Angical", "country_iso2": "BR", "state": "Bahia", "is_capital": false, "latitude": -12.0069, "longitude": -44.6939, "population": 13732}, {"name": "Angicos", "country_iso2": "BR", "state": "Rio Grande do Norte", "is_capital": false, "latitude": -5.6658, "longitude": -36.6008, "population": 11632}, {"name": "Angra dos Reis", "country_iso2": "BR", "state": "Rio de Janeiro", "is_capital": false, "latitude": -23.0069, "longitude": -44.3178, "population": 119247}, {"name": "Anguera", "country_iso2": "BR", "state": "Bahia", "is_capital": false, "latitude": -12.1508, "longitude": -39.2458, "population": 11031}, {"name": "Anicuns", "country_iso2": "BR", "state": "Goiás", "is_capital": false, "latitude": -16.4608, "longitude": -49.9619, "population": 18503}, {"name": "Anori", "country_iso2": "BR", "state": "Amazonas", "is_capital": false, "latitude": -3.7728, "longitude": -61.6442, "population": 17194}, {"name": "Antas", "country_iso2": "BR", "state": "Bahia", "is_capital": false, "latitude": -10.4, "longitude": -38.3328, "population": 14206}, {"name": "Antenor Navarro", "country_iso2": "BR", "state": "Paraíba", "is_capital": false, "latitude": -6.7289, "longitude": -38.4489, "population": 17964}, {"name": "Antonina", "country_iso2": "BR", "state": "Paraná", "is_capital": false, "latitude": -25.4289, "longitude": -48.7119, "population": 18091}, {"name": "Antônio Cardoso", "country_iso2": "BR", "state": "Bahia", "is_capital": false, "latitude": -12.435, "longitude": -39.12, "population": 11146}, {"name": "Antônio Carlos", "country_iso2": "BR", "state": "Santa Catarina", "is_capital": false, "latitude": -27.5169, "longitude": -48.7678, "population": 11224}, {"name": "Antônio Carlos", "country_iso2": "BR", "state": "Minas Gerais", "is_capital": false, "latitude": -21.3178, "longitude": -43.7469, "population": 11095}, {"name": "Antônio Dias", "country_iso2": "BR", "state": "Minas Gerais", "is_capital": false, "latitude": -19.6528, "longitude": -42.8719, "population": 9219}, {"name": "Antônio Prado", "country_iso2": "BR", "state": "Rio Grande do Sul", "is_capital": false, "latitude": -28.8578, "longitude": -51.2828, "population": 12833}, {"name": "Anápolis", "country_iso2": "BR", "state": "Goiás", "is_capital": false, "latitude": -16.3269, "longitude": -48.9528, "population": 288085}, {"name": "Anísio de Abreu", "country_iso2": "BR", "state": "Piauí", "is_capital": false, "latitude": -9.1889, "longitude": -43.0458, "population": 9407}, {"name": "Aparecida", "country_iso2": "BR", "state": "São Paulo", "is_capital": false, "latitude": -22.8469, "longitude": -45.2297, "population": 36185}, {"name": "Aparecida do Taboado", "country_iso2": "BR", "state": "Mato Grosso do Sul", "is_capital": false, "latitude": -20.0869, "longitude": -51.0939, "population": 27674}, {"name": "Aperibé", "country_iso2": "BR", "state": "Rio de Janeiro", "is_capital": false, "latitude": -21.6208, "longitude": -42.1028, "population": 11034}, {"name": "Apiaí", "country_iso2": "BR", "state": "São Paulo", "is_capital": false, "latitude": -24.5097, "longitude": -48.8428, "population": 25211}, {"name": "Apiúna", "country_iso2": "BR", "state": "Santa Catarina", "is_capital": false, "latitude": -27.0358, "longitude": -49.39, "population": 9811}, {"name": "Apodi", "country_iso2": "BR", "state": "Rio Grande do Norte", "is_capital": false, "latitude": -5.6639, "longitude": -37.7989, "population": 34174}, {"name": "Aporá", "country_iso2": "BR", "state": "Bahia", "is_capital": false, "latitude": -11.66, "longitude": -38.0808, "population": 15922}, {"name": "Apucarana", "country_iso2": "BR", "state": "Paraná", "is_capital": false, "latitude": -23.5508, "longitude": -51.4608, "population": 130134}, {"name": "Apuiarés", "country_iso2": "BR", "state": "Ceará", "is_capital": false, "latitude": -3.9489, "longitude": -39.4319, "population": 12540}, {"name": "Aquidabã", "country_iso2": "BR", "state": "Sergipe", "is_capital": false, "latitude": -10.2833, "longitude": -37.0333, "population": 20131}, {"name": "Aquidauana", "country_iso2": "BR", "state": "Mato Grosso do Sul", "is_capital": false, "latitude": -20.4711, "longitude": -55.7872, "population": 48029}, {"name": "Aquiraz", "country_iso2": "BR", "state": "Ceará", "is_capital": false, "latitude": -3.9008, "longitude": -38.3908, "population": 60469}, {"name": "Aracaju", "country_iso2": "BR", "state": "Sergipe", "is_capital": true, "latitude": -10.9111, "longitude": -37.0717, "population": 664908}, {"name": "Aracati", "country_iso2": "BR", "state": "Ceará", "is_capital": false, "latitude": -4.5619, "longitude": -37.77, "population": 61187}, {"name": "Aracatu", "country_iso2": "BR", "state": "Bahia", "is_capital": false, "latitude": -14.4278, "longitude": -41.4619, "population": 13936}, {"name": "Araci", "country_iso2": "BR", "state": "Bahia", "is_capital": false, "latitude": -11.3328, "longitude": -38.9669, "population": 47584}, {"name": "Aracoiaba", "country_iso2": "BR", "state": "Ceará", "is_capital": false, "latitude": -4.3708, "longitude": -38.8139, "population": 25553}, {"name": "Aracruz", "country_iso2": "BR", "state": "Espírito Santo", "is_capital": false, "latitude": -19.8203, "longitude": -40.2733, "population": 103101}, {"name": "Aragarças", "country_iso2": "BR", "state": "Goiás", "is_capital": false, "latitude": -15.8978, "longitude": -52.2508, "population": 18390}, {"name": "Aragoiânia", "country_iso2": "BR", "state": "Goiás", "is_capital": false, "latitude": -16.9119, "longitude": -49.4508, "population": 11890}, {"name": "Araguari", "country_iso2": "BR", "state": "Minas Gerais", "is_capital": false, "latitude": -18.6489, "longitude": -48.1869, "population": 117808}, {"name": "Araguatins", "country_iso2": "BR", "state": "Tocantins", "is_capital": false, "latitude": -5.6508, "longitude": -48.1239, "population": 31918}, {"name": "Araguaína", "country_iso2": "BR", "state": "Tocantins", "is_capital": false, "latitude": -7.1908, "longitude": -48.2069, "population": 171301}, {"name": "Araioses", "country_iso2": "BR", "state": "Maranhão", "is_capital": false, "latitude": -2.89, "longitude": -41.9031, "population": 46771}, {"name": "Aramari", "country_iso2": "BR", "state": "Bahia", "is_capital": false, "latitude": -12.0819, "longitude": -38.4989, "population": 9833}, {"name": "Arapiraca", "country_iso2": "BR", "state": "Alagoas", "is_capital": false, "latitude": -9.7525, "longitude": -36.6611, "population": 234696}, {"name": "Arapongas", "country_iso2": "BR", "state": "Paraná", "is_capital": false, "latitude": -23.4189, "longitude": -51.4239, "population": 119138}, {"name": "Arapoti", "country_iso2": "BR", "state": "Paraná", "is_capital": false, "latitude": -24.1578, "longitude": -49.8269, "population": 25777}, {"name": "Araputanga", "country_iso2": "BR", "state": "Mato Grosso", "is_capital": false, "latitude": -15.4708, "longitude": -58.3528, "population": 14786}, {"name": "Araquari", "country_iso2": "BR", "state": "Santa Catarina", "is_capital": false, "latitude": -26.37, "longitude": -48.7219, "population": 23645}, {"name": "Arara", "country_iso2": "BR", "state": "Paraíba", "is_capital": false, "latitude": -6.8278, "longitude": -35.7578, "population": 12212}, {"name": "Araranguá", "country_iso2": "BR", "state": "Santa Catarina", "is_capital": false, "latitude": -28.935, "longitude": -49.4858, "population": 71922}, {"name": "Araraquara", "country_iso2": "BR", "state": "São Paulo", "is_capital": false, "latitude": -21.7939, "longitude": -48.1758, "population": 242228}, {"name": "Araras", "country_iso2": "BR", "state": "São Paulo", "is_capital": false, "latitude": -22.3569, "longitude": -47.3839, "population": 130866}, {"name": "Ararendá", "country_iso2": "BR", "state": "Ceará", "is_capital": false, "latitude": -4.7528, "longitude": -40.8328, "population": 11096}, {"name": "Arari", "country_iso2": "BR", "state": "Maranhão", "is_capital": false, "latitude": -3.4539, "longitude": -44.78, "population": 29472}, {"name": "Ararica", "country_iso2": "BR", "state": "Rio Grande do Sul", "is_capital": false, "latitude": -29.6139, "longitude": -50.925, "population": 8525}, {"name": "Araripe", "country_iso2": "BR", "state": "Ceará", "is_capital": false, "latitude": -7.2128, "longitude": -40.0458, "population": 19783}, {"name": "Araripina", "country_iso2": "BR", "state": "Pernambuco", "is_capital": false, "latitude": -7.55, "longitude": -40.5667, "population": 85088}, {"name": "Araruama", "country_iso2": "BR", "state": "Rio de Janeiro", "is_capital": false, "latitude": -22.8728, "longitude": -42.3428, "population": 82803}, {"name": "Araruna", "country_iso2": "BR", "state": "Paraíba", "is_capital": false, "latitude": -6.5321, "longitude": -35.7398, "population": 17189}, {"name": "Araruna", "country_iso2": "BR", "state": "Paraná", "is_capital": false, "latitude": -23.9319, "longitude": -52.4958, "population": 14485}, {"name": "Arataca", "country_iso2": "BR", "state": "Bahia", "is_capital": false, "latitude": -15.2628, "longitude": -39.4139, "population": 10191}, {"name": "Aratuba", "country_iso2": "BR", "state": "Ceará", "is_capital": false, "latitude": -4.4178, "longitude": -39.045, "population": 11224}, {"name": "Aratuípe", "country_iso2": "BR", "state": "Bahia", "is_capital": false, "latitude": -13.0789, "longitude": -39.0019, "population": 8677}, {"name": "Araucária", "country_iso2": "BR", "state": "Paraná", "is_capital": false, "latitude": -25.5928, "longitude": -49.41, "population": 151666}, {"name": "Arauá", "country_iso2": "BR", "state": "Sergipe", "is_capital": false, "latitude": -11.2622, "longitude": -37.6197, "population": 9947}, {"name": "Araxá", "country_iso2": "BR", "state": "Minas Gerais", "is_capital": false, "latitude": -19.5928, "longitude": -46.9408, "population": 111691}, {"name": "Araçagi", "country_iso2": "BR", "state": "Paraíba", "is_capital": false, "latitude": -6.8528, "longitude": -35.3808, "population": 16646}, {"name": "Araçariguama", "country_iso2": "BR", "state": "São Paulo", "is_capital": false, "latitude": -23.4386, "longitude": -47.0614, "population": 22860}, {"name": "Araçatuba", "country_iso2": "BR", "state": "São Paulo", "is_capital": false, "latitude": -21.2089, "longitude": -50.4328, "population": 200124}, {"name": "Araçoiaba", "country_iso2": "BR", "state": "Pernambuco", "is_capital": false, "latitude": -7.79, "longitude": -35.0908, "population": 19243}, {"name": "Araçoiaba da Serra", "country_iso2": "BR", "state": "São Paulo", "is_capital": false, "latitude": -23.5053, "longitude": -47.6142, "population": 31321}, {"name": "Araçuaí", "country_iso2": "BR", "state": "Minas Gerais", "is_capital": false, "latitude": -16.85, "longitude": -42.07, "population": 34297}, {"name": "Araçás", "country_iso2": "BR", "state": "Bahia", "is_capital": false, "latitude": -12.22, "longitude": -38.2028, "population": 11557}, {"name": "Araújos", "country_iso2": "BR", "state": "Minas Gerais", "is_capital": false, "latitude": -19.9478, "longitude": -45.1658, "population": 9199}, {"name": "Arceburgo", "country_iso2": "BR", "state": "Minas Gerais", "is_capital": false, "latitude": -21.3639, "longitude": -46.94, "population": 9177}, {"name": "Arcos", "country_iso2": "BR", "state": "Minas Gerais", "is_capital": false, "latitude": -20.2914, "longitude": -45.5397, "population": 32687}, {"name": "Arcoverde", "country_iso2": "BR", "state": "Pernambuco", "is_capital": false, "latitude": -8.4189, "longitude": -37.0539, "population": 61600}, {"name": "Areado", "country_iso2": "BR", "state": "Minas Gerais", "is_capital": false, "latitude": -21.3589, "longitude": -46.1458, "population": 13881}, {"name": "Areal", "country_iso2": "BR", "state": "Rio de Janeiro", "is_capital": false, "latitude": -22.2308, "longitude": -43.1058, "population": 11828}, {"name": "Arealva", "country_iso2": "BR", "state": "São Paulo", "is_capital": false, "latitude": -22.0286, "longitude": -48.9111, "population": 8613}, {"name": "Areia", "country_iso2": "BR", "state": "Paraíba", "is_capital": false, "latitude": -6.9628, "longitude": -35.6919, "population": 22633}, {"name": "Areia Branca", "country_iso2": "BR", "state": "Rio Grande do Norte", "is_capital": false, "latitude": -4.9558, "longitude": -37.1369, "population": 24093}, {"name": "Areia Branca", "country_iso2": "BR", "state": "Sergipe", "is_capital": false, "latitude": -10.7578, "longitude": -37.3153, "population": 18686}, {"name": "Areiópolis", "country_iso2": "BR", "state": "São Paulo", "is_capital": false, "latitude": -22.6681, "longitude": -48.665, "population": 11158}, {"name": "Arenápolis", "country_iso2": "BR", "state": "Mato Grosso", "is_capital": false, "latitude": -14.4503, "longitude": -56.8461, "population": 9502}, {"name": "Arinos", "country_iso2": "BR", "state": "Minas Gerais", "is_capital": false, "latitude": -15.9169, "longitude": -46.1058, "population": 17272}, {"name": "Aripuanã", "country_iso2": "BR", "state": "Mato Grosso", "is_capital": false, "latitude": -10.1767, "longitude": -59.4439, "population": 26983}, {"name": "Ariquemes", "country_iso2": "BR", "state": "Rondônia", "is_capital": false, "latitude": -9.9161, "longitude": -63.0408, "population": 111148}, {"name": "Armazém", "country_iso2": "BR", "state": "Santa Catarina", "is_capital": false, "latitude": -28.2619, "longitude": -49.0178, "population": 8834}, {"name": "Armação dos Búzios", "country_iso2": "BR", "state": "Rio de Janeiro", "is_capital": false, "latitude": -22.7469, "longitude": -41.8819, "population": 40006}, {"name": "Aroeiras", "country_iso2": "BR", "state": "Paraíba", "is_capital": false, "latitude": -7.545, "longitude": -35.7078, "population": 18705}, {"name": "Arraial do Cabo", "country_iso2": "BR", "state": "Rio de Janeiro", "is_capital": false, "latitude": -22.9658, "longitude": -42.0278, "population": 30986}, {"name": "Arraias", "country_iso2": "BR", "state": "Tocantins", "is_capital": false, "latitude": -12.9308, "longitude": -46.9378, "population": 10287}, {"name": "Arroio Grande", "country_iso2": "BR", "state": "Rio Grande do Sul", "is_capital": false, "latitude": -32.2378, "longitude": -53.0869, "population": 17558}, {"name": "Arroio do Meio", "country_iso2": "BR", "state": "Rio Grande do Sul", "is_capital": false, "latitude": -29.4008, "longitude": -51.945, "population": 16951}, {"name": "Arroio do Tigre", "country_iso2": "BR", "state": "Rio Grande do Sul", "is_capital": false, "latitude": -29.3328, "longitude": -53.0928, "population": 12058}, {"name": "Arroio dos Ratos", "country_iso2": "BR", "state": "Rio Grande do Sul", "is_capital": false, "latitude": -30.0769, "longitude": -51.7289, "population": 14601}, {"name": "Artur Nogueira", "country_iso2": "BR", "state": "São Paulo", "is_capital": false, "latitude": -22.5731, "longitude": -47.1725, "population": 50246}, {"name": "Arujá", "country_iso2": "BR", "state": "São Paulo", "is_capital": false, "latitude": -23.3967, "longitude": -46.3211, "population": 83939}, {"name": "Arês", "country_iso2": "BR", "state": "Rio Grande do Norte", "is_capital": false, "latitude": -6.1939, "longitude": -35.16, "population": 13251}, {"name": "Assaré", "country_iso2": "BR", "state": "Ceará", "is_capital": false, "latitude": -6.8739, "longitude": -39.875, "population": 21697}, {"name": "Assaí", "country_iso2": "BR", "state": "Paraná", "is_capital": false, "latitude": -23.3728, "longitude": -50.8408, "population": 13797}, {"name": "Assis", "country_iso2": "BR", "state": "São Paulo", "is_capital": false, "latitude": -22.6619, "longitude": -50.4119, "population": 101409}, {"name": "Astolfo Dutra", "country_iso2": "BR", "state": "Minas Gerais", "is_capital": false, "latitude": -21.315, "longitude": -42.8619, "population": 14138}, {"name": "Astorga", "country_iso2": "BR", "state": "Paraná", "is_capital": false, "latitude": -23.2328, "longitude": -51.6658, "population": 25475}, {"name": "Atalaia", "country_iso2": "BR", "state": "Alagoas", "is_capital": false, "latitude": -9.5019, "longitude": -36.0228, "population": 37512}, {"name": "Atalaia do Norte", "country_iso2": "BR", "state": "Amazonas", "is_capital": false, "latitude": -4.3719, "longitude": -70.1919, "population": 15314}, {"name": "Ataléia", "country_iso2": "BR", "state": "Minas Gerais", "is_capital": false, "latitude": -18.0439, "longitude": -41.11, "population": 13736}, {"name": "Atibaia", "country_iso2": "BR", "state": "São Paulo", "is_capital": false, "latitude": -23.1172, "longitude": -46.5506, "population": 137187}, {"name": "Augustinópolis", "country_iso2": "BR", "state": "Tocantins", "is_capital": false, "latitude": -5.4658, "longitude": -47.8878, "population": 17484}, {"name": "Augusto Correa", "country_iso2": "BR", "state": "Pará", "is_capital": false, "latitude": -1.0219, "longitude": -46.645, "population": 44573}, {"name": "Aurelino Leal", "country_iso2": "BR", "state": "Bahia", "is_capital": false, "latitude": -14.3169, "longitude": -39.3269, "population": 11179}, {"name": "Auriflama", "country_iso2": "BR", "state": "São Paulo", "is_capital": false, "latitude": -20.6858, "longitude": -50.555, "population": 13692}, {"name": "Aurora", "country_iso2": "BR", "state": "Ceará", "is_capital": false, "latitude": -6.9428, "longitude": -38.9678, "population": 23714}, {"name": "Autazes", "country_iso2": "BR", "state": "Amazonas", "is_capital": false, "latitude": -3.5797, "longitude": -59.1306, "population": 40290}, {"name": "Avanhandava", "country_iso2": "BR", "state": "São Paulo", "is_capital": false, "latitude": -21.4608, "longitude": -49.9497, "population": 13859}, {"name": "Avaré", "country_iso2": "BR", "state": "São Paulo", "is_capital": false, "latitude": -23.0989, "longitude": -48.9258, "population": 91232}, {"name": "Aveiro", "country_iso2": "BR", "state": "Pará", "is_capital": false, "latitude": -3.6058, "longitude": -55.3319, "population": 18290}, {"name": "Avelino Lopes", "country_iso2": "BR", "state": "Piauí", "is_capital": false, "latitude": -10.1369, "longitude": -43.9489, "population": 10866}, {"name": "Axixá", "country_iso2": "BR", "state": "Maranhão", "is_capital": false, "latitude": -2.8369, "longitude": -44.0528, "population": 11790}, {"name": "Axixá do Tocantins", "country_iso2": "BR", "state": "Tocantins", "is_capital": false, "latitude": -5.6169, "longitude": -47.7689, "population": 10262}, {"name": "Açailandia", "country_iso2": "BR", "state": "Maranhão", "is_capital": false, "latitude": -4.9469, "longitude": -47.505, "population": 106550}, {"name": "Açu", "country_iso2": "BR", "state": "Rio Grande do Norte", "is_capital": false, "latitude": -5.5769, "longitude": -36.9089, "population": 47904}, {"name": "Açucena", "country_iso2": "BR", "state": "Minas Gerais", "is_capital": false, "latitude": -19.0728, "longitude": -42.5458, "population": 8943}, {"name": "Bacabal", "country_iso2": "BR", "state": "Maranhão", "is_capital": false, "latitude": -4.225, "longitude": -44.78, "population": 103711}, {"name": "Bacuri", "country_iso2": "BR", "state": "Maranhão", "is_capital": false, "latitude": -1.7028, "longitude": -45.1339, "population": 16290}, {"name": "Bady Bassitt", "country_iso2": "BR", "state": "São Paulo", "is_capital": false, "latitude": -20.9178, "longitude": -49.445, "population": 27260}, {"name": "Baependi", "country_iso2": "BR", "state": "Minas Gerais", "is_capital": false, "latitude": -21.9589, "longitude": -44.89, "population": 18366}, {"name": "Bagre", "country_iso2": "BR", "state": "Pará", "is_capital": false, "latitude": -1.9, "longitude": -50.1639, "population": 13708}, {"name": "Bagé", "country_iso2": "BR", "state": "Rio Grande do Sul", "is_capital": false, "latitude": -31.3308, "longitude": -54.1069, "population": 117938}, {"name": "Baixa Grande", "country_iso2": "BR", "state": "Bahia", "is_capital": false, "latitude": -11.96, "longitude": -40.1678, "population": 18220}, {"name": "Baixo Guandu", "country_iso2": "BR", "state": "Espírito Santo", "is_capital": false, "latitude": -19.5189, "longitude": -41.0158, "population": 27819}, {"name": "Baião", "country_iso2": "BR", "state": "Pará", "is_capital": false, "latitude": -2.7908, "longitude": -49.6719, "population": 51641}, {"name": "Balneário de Camboriú", "country_iso2": "BR", "state": "Santa Catarina", "is_capital": false, "latitude": -26.9908, "longitude": -48.635, "population": 139155}, {"name": "Balneário do Rincão", "country_iso2": "BR", "state": "Santa Catarina", "is_capital": false, "latitude": -28.8344, "longitude": -49.2361, "population": 15981}, {"name": "Balsa Nova", "country_iso2": "BR", "state": "Paraná", "is_capital": false, "latitude": -25.5839, "longitude": -49.6358, "population": 13395}, {"name": "Balsas", "country_iso2": "BR", "state": "Maranhão", "is_capital": false, "latitude": -7.5325, "longitude": -46.0356, "population": 107767}, {"name": "Bambuí", "country_iso2": "BR", "state": "Minas Gerais", "is_capital": false, "latitude": -20.0058, "longitude": -45.9769, "population": 23546}, {"name": "Banabuiú", "country_iso2": "BR", "state": "Ceará", "is_capital": false, "latitude": -5.31, "longitude": -38.9208, "population": 17195}, {"name": "Bananal", "country_iso2": "BR", "state": "São Paulo", "is_capital": false, "latitude": -22.6839, "longitude": -44.3228, "population": 9969}, {"name": "Bananeiras", "country_iso2": "BR", "state": "Paraíba", "is_capital": false, "latitude": -6.75, "longitude": -35.6328, "population": 23134}, {"name": "Bandeirantes", "country_iso2": "BR", "state": "Paraná", "is_capital": false, "latitude": -23.11, "longitude": -50.3678, "population": 31273}, {"name": "Baraúna", "country_iso2": "BR", "state": "Rio Grande do Norte", "is_capital": false, "latitude": -5.08, "longitude": -37.6169, "population": 18922}, {"name": "Barbacena", "country_iso2": "BR", "state": "Minas Gerais", "is_capital": false, "latitude": -21.2258, "longitude": -43.7739, "population": 125317}, {"name": "Barbalha", "country_iso2": "BR", "state": "Ceará", "is_capital": false, "latitude": -7.3111, "longitude": -39.3042, "population": 61228}, {"name": "Barbosa Ferraz", "country_iso2": "BR", "state": "Paraná", "is_capital": false, "latitude": -24.03, "longitude": -52.0119, "population": 10795}, {"name": "Barcarena", "country_iso2": "BR", "state": "Pará", "is_capital": false, "latitude": -1.5058, "longitude": -48.6258, "population": 126650}, {"name": "Barcelos", "country_iso2": "BR", "state": "Amazonas", "is_capital": false, "latitude": -0.975, "longitude": -62.9239, "population": 18834}, {"name": "Bariri", "country_iso2": "BR", "state": "São Paulo", "is_capital": false, "latitude": -22.0744, "longitude": -48.7403, "population": 35558}, {"name": "Barra", "country_iso2": "BR", "state": "Bahia", "is_capital": false, "latitude": -11.0889, "longitude": -43.1419, "population": 51092}, {"name": "Barra Bonita", "country_iso2": "BR", "state": "São Paulo", "is_capital": false, "latitude": -22.4947, "longitude": -48.5581, "population": 36321}, {"name": "Barra Mansa", "country_iso2": "BR", "state": "Rio de Janeiro", "is_capital": false, "latitude": -22.5439, "longitude": -44.1708, "population": 169894}, {"name": "Barra Velha", "country_iso2": "BR", "state": "Santa Catarina", "is_capital": false, "latitude": -26.6319, "longitude": -48.685, "population": 15530}, {"name": "Barra da Estiva", "country_iso2": "BR", "state": "Bahia", "is_capital": false, "latitude": -13.6258, "longitude": -41.3269, "population": 26026}, {"name": "Barra de Santa Rosa", "country_iso2": "BR", "state": "Paraíba", "is_capital": false, "latitude": -6.72, "longitude": -36.0608, "population": 12904}, {"name": "Barra de Santo Antônio", "country_iso2": "BR", "state": "Alagoas", "is_capital": false, "latitude": -9.4, "longitude": -35.5, "population": 16365}, {"name": "Barra de São Francisco", "country_iso2": "BR", "state": "Espírito Santo", "is_capital": false, "latitude": -18.755, "longitude": -40.8908, "population": 37597}, {"name": "Barra do Bugres", "country_iso2": "BR", "state": "Mato Grosso", "is_capital": false, "latitude": -15.0725, "longitude": -57.1811, "population": 35307}, {"name": "Barra do Choça", "country_iso2": "BR", "state": "Bahia", "is_capital": false, "latitude": -14.8808, "longitude": -40.5789, "population": 36539}, {"name": "Barra do Corda", "country_iso2": "BR", "state": "Maranhão", "is_capital": false, "latitude": -5.5031, "longitude": -45.2369, "population": 88492}, {"name": "Barra do Garças", "country_iso2": "BR", "state": "Mato Grosso", "is_capital": false, "latitude": -15.89, "longitude": -52.2569, "population": 69210}, {"name": "Barra do Mendes", "country_iso2": "BR", "state": "Bahia", "is_capital": false, "latitude": -11.81, "longitude": -42.0589, "population": 13836}, {"name": "Barra do Piraí", "country_iso2": "BR", "state": "Rio de Janeiro", "is_capital": false, "latitude": -22.47, "longitude": -43.8258, "population": 92883}, {"name": "Barra do Ribeiro", "country_iso2": "BR", "state": "Rio Grande do Sul", "is_capital": false, "latitude": -30.2908, "longitude": -51.3008, "population": 12225}, {"name": "Barra do Sul", "country_iso2": "BR", "state": "Santa Catarina", "is_capital": false, "latitude": -26.4682, "longitude": -48.6104, "population": 14912}, {"name": "Barra dos Coqueiros", "country_iso2": "BR", "state": "Sergipe", "is_capital": false, "latitude": -10.9089, "longitude": -37.0389, "population": 41511}, {"name": "Barracão", "country_iso2": "BR", "state": "Paraná", "is_capital": false, "latitude": -26.2539, "longitude": -53.6328, "population": 9759}, {"name": "Barras", "country_iso2": "BR", "state": "Piauí", "is_capital": false, "latitude": -4.2469, "longitude": -42.2958, "population": 47938}, {"name": "Barreira", "country_iso2": "BR", "state": "Ceará", "is_capital": false, "latitude": -4.2869, "longitude": -38.6428, "population": 17024}, {"name": "Barreiras", "country_iso2": "BR", "state": "Bahia", "is_capital": false, "latitude": -12.1528, "longitude": -44.99, "population": 131849}, {"name": "Barreirinha", "country_iso2": "BR", "state": "Amazonas", "is_capital": false, "latitude": -2.8025, "longitude": -57.0686, "population": 22579}, {"name": "Barreirinhas", "country_iso2": "BR", "state": "Maranhão", "is_capital": false, "latitude": -2.7469, "longitude": -42.8258, "population": 39669}, {"name": "Barreiros", "country_iso2": "BR", "state": "Pernambuco", "is_capital": false, "latitude": -8.8183, "longitude": -35.1864, "population": 42764}, {"name": "Barretos", "country_iso2": "BR", "state": "São Paulo", "is_capital": false, "latitude": -20.5569, "longitude": -48.5678, "population": 122485}, {"name": "Barrinha", "country_iso2": "BR", "state": "São Paulo", "is_capital": false, "latitude": -21.1936, "longitude": -48.1639, "population": 31230}, {"name": "Barro", "country_iso2": "BR", "state": "Ceará", "is_capital": false, "latitude": -7.1769, "longitude": -38.7819, "population": 19381}, {"name": "Barro Alto", "country_iso2": "BR", "state": "Bahia", "is_capital": false, "latitude": -11.7608, "longitude": -41.9119, "population": 13453}, {"name": "Barro Alto", "country_iso2": "BR", "state": "Goiás", "is_capital": false, "latitude": -14.9708, "longitude": -48.9158, "population": 11408}, {"name": "Barrocas", "country_iso2": "BR", "state": "Bahia", "is_capital": false, "latitude": -11.5289, "longitude": -39.0778, "population": 15203}, {"name": "Barroquinha", "country_iso2": "BR", "state": "Ceará", "is_capital": false, "latitude": -3.0189, "longitude": -41.1369, "population": 14476}, {"name": "Barros Cassal", "country_iso2": "BR", "state": "Rio Grande do Sul", "is_capital": false, "latitude": -29.0928, "longitude": -52.5828, "population": 9296}, {"name": "Barroso", "country_iso2": "BR", "state": "Minas Gerais", "is_capital": false, "latitude": -21.1869, "longitude": -43.9758, "population": 20080}, {"name": "Barueri", "country_iso2": "BR", "state": "São Paulo", "is_capital": false, "latitude": -23.5111, "longitude": -46.8764, "population": 316473}, {"name": "Barão de Cocais", "country_iso2": "BR", "state": "Minas Gerais", "is_capital": false, "latitude": -19.9458, "longitude": -43.4869, "population": 30778}, {"name": "Barão do Grajaú", "country_iso2": "BR", "state": "Maranhão", "is_capital": false, "latitude": -6.7558, "longitude": -43.0239, "population": 18984}, {"name": "Bastos", "country_iso2": "BR", "state": "São Paulo", "is_capital": false, "latitude": -21.9167, "longitude": -50.7333, "population": 21503}, {"name": "Bataguaçu", "country_iso2": "BR", "state": "Mato Grosso do Sul", "is_capital": false, "latitude": -21.7139, "longitude": -52.4219, "population": 23031}, {"name": "Bataiporã", "country_iso2": "BR", "state": "Mato Grosso do Sul", "is_capital": false, "latitude": -22.2953, "longitude": -53.2711, "population": 11349}, {"name": "Batalha", "country_iso2": "BR", "state": "Piauí", "is_capital": false, "latitude": -4.0239, "longitude": -42.0778, "population": 26300}, {"name": "Batalha", "country_iso2": "BR", "state": "Alagoas", "is_capital": false, "latitude": -9.6778, "longitude": -37.1247, "population": 16448}, {"name": "Batatais", "country_iso2": "BR", "state": "São Paulo", "is_capital": false, "latitude": -20.8911, "longitude": -47.585, "population": 62980}, {"name": "Baturité", "country_iso2": "BR", "state": "Ceará", "is_capital": false, "latitude": -4.3289, "longitude": -38.885, "population": 35218}, {"name": "Bauru", "country_iso2": "BR", "state": "São Paulo", "is_capital": false, "latitude": -22.3147, "longitude": -49.0606, "population": 366992}, {"name": "Bayeux", "country_iso2": "BR", "state": "Paraíba", "is_capital": false, "latitude": -7.1333, "longitude": -34.9333, "population": 82742}, {"name": "Baía da Traição", "country_iso2": "BR", "state": "Paraíba", "is_capital": false, "latitude": -6.6878, "longitude": -34.9358, "population": 9224}, {"name": "Bebedouro", "country_iso2": "BR", "state": "São Paulo", "is_capital": false, "latitude": -20.9494, "longitude": -48.4792, "population": 77627}, {"name": "Beberibe", "country_iso2": "BR", "state": "Ceará", "is_capital": false, "latitude": -4.18, "longitude": -38.1308, "population": 53114}, {"name": "Bela Cruz", "country_iso2": "BR", "state": "Ceará", "is_capital": false, "latitude": -3.0508, "longitude": -40.1678, "population": 32775}, {"name": "Bela Vista", "country_iso2": "BR", "state": "Mato Grosso do Sul", "is_capital": false, "latitude": -22.1089, "longitude": -56.5208, "population": 21613}, {"name": "Bela Vista de Goiás", "country_iso2": "BR", "state": "Goiás", "is_capital": false, "latitude": -16.9728, "longitude": -48.9528, "population": 34445}, {"name": "Bela Vista de Minas", "country_iso2": "BR", "state": "Minas Gerais", "is_capital": false, "latitude": -19.83, "longitude": -43.0908, "population": 10167}, {"name": "Bela Vista do Paraíso", "country_iso2": "BR", "state": "Paraná", "is_capital": false, "latitude": -22.9969, "longitude": -51.1908, "population": 14833}, {"name": "Belmonte", "country_iso2": "BR", "state": "Bahia", "is_capital": false, "latitude": -15.8628, "longitude": -38.8828, "population": 20121}, {"name": "Belo Campo", "country_iso2": "BR", "state": "Bahia", "is_capital": false, "latitude": -15.0378, "longitude": -41.26, "population": 18412}, {"name": "Belo Horizonte", "country_iso2": "BR", "state": "Minas Gerais", "is_capital": true, "latitude": -19.9281, "longitude": -43.9419, "population": 5328000}, {"name": "Belo Jardim", "country_iso2": "BR", "state": "Pernambuco", "is_capital": false, "latitude": -8.3358, "longitude": -36.4239, "population": 79507}, {"name": "Belo Oriente", "country_iso2": "BR", "state": "Minas Gerais", "is_capital": false, "latitude": -19.22, "longitude": -42.4839, "population": 23928}, {"name": "Belo Vale", "country_iso2": "BR", "state": "Minas Gerais", "is_capital": false, "latitude": -20.4078, "longitude": -44.0239, "population": 8627}, {"name": "Belterra", "country_iso2": "BR", "state": "Pará", "is_capital": false, "latitude": -2.6358, "longitude": -54.9369, "population": 18099}, {"name": "Belém", "country_iso2": "BR", "state": "Pará", "is_capital": true, "latitude": -1.4558, "longitude": -48.5039, "population": 1280614}, {"name": "Belém", "country_iso2": "BR", "state": "Paraíba", "is_capital": false, "latitude": -6.7469, "longitude": -35.5189, "population": 16401}, {"name": "Belém de Maria", "country_iso2": "BR", "state": "Pernambuco", "is_capital": false, "latitude": -8.6139, "longitude": -35.8089, "population": 10378}, {"name": "Belém de São Francisco", "country_iso2": "BR", "state": "Pernambuco", "is_capital": false, "latitude": -8.7578, "longitude": -38.9639, "population": 18301}, {"name": "Beneditinos", "country_iso2": "BR", "state": "Piauí", "is_capital": false, "latitude": -5.455, "longitude": -42.36, "population": 9929}, {"name": "Benedito Novo", "country_iso2": "BR", "state": "Santa Catarina", "is_capital": false, "latitude": -26.7828, "longitude": -49.3639, "population": 10520}, {"name": "Benevides", "country_iso2": "BR", "state": "Pará", "is_capital": false, "latitude": -1.3608, "longitude": -48.245, "population": 63567}, {"name": "Benjamin Constant", "country_iso2": "BR", "state": "Amazonas", "is_capital": false, "latitude": -4.3755, "longitude": -70.0318, "population": 37648}, {"name": "Bento Gonçalves", "country_iso2": "BR", "state": "Rio Grande do Sul", "is_capital": false, "latitude": -29.1708, "longitude": -51.5189, "population": 123151}, {"name": "Bequimão", "country_iso2": "BR", "state": "Maranhão", "is_capital": false, "latitude": -2.4489, "longitude": -44.7828, "population": 19584}, {"name": "Berilo", "country_iso2": "BR", "state": "Minas Gerais", "is_capital": false, "latitude": -16.9519, "longitude": -42.4658, "population": 9826}, {"name": "Bernardino de Campos", "country_iso2": "BR", "state": "São Paulo", "is_capital": false, "latitude": -23.0131, "longitude": -49.4742, "population": 11157}, {"name": "Bertioga", "country_iso2": "BR", "state": "São Paulo", "is_capital": false, "latitude": -23.8539, "longitude": -46.1389, "population": 64188}, {"name": "Beruri", "country_iso2": "BR", "state": "Amazonas", "is_capital": false, "latitude": -3.9022, "longitude": -61.3714, "population": 20718}, {"name": "Betim", "country_iso2": "BR", "state": "Minas Gerais", "is_capital": false, "latitude": -19.9678, "longitude": -44.1978, "population": 306675}, {"name": "Betânia", "country_iso2": "BR", "state": "Pernambuco", "is_capital": false, "latitude": -8.2767, "longitude": -38.0339, "population": 11232}, {"name": "Bezerros", "country_iso2": "BR", "state": "Pernambuco", "is_capital": false, "latitude": -8.2333, "longitude": -35.75, "population": 57371}, {"name": "Bicas", "country_iso2": "BR", "state": "Minas Gerais", "is_capital": false, "latitude": -21.725, "longitude": -43.0589, "population": 14554}, {"name": "Biguaçu", "country_iso2": "BR", "state": "Santa Catarina", "is_capital": false, "latitude": -27.4942, "longitude": -48.6556, "population": 69486}, {"name": "Birigui", "country_iso2": "BR", "state": "São Paulo", "is_capital": false, "latitude": -21.2889, "longitude": -50.34, "population": 118979}, {"name": "Biritiba-Mirim", "country_iso2": "BR", "state": "São Paulo", "is_capital": false, "latitude": -23.5728, "longitude": -46.0389, "population": 32936}, {"name": "Biritinga", "country_iso2": "BR", "state": "Bahia", "is_capital": false, "latitude": -11.6169, "longitude": -38.8, "population": 15146}, {"name": "Bituruna", "country_iso2": "BR", "state": "Paraná", "is_capital": false, "latitude": -26.1608, "longitude": -51.5528, "population": 15533}, {"name": "Blumenau", "country_iso2": "BR", "state": "Santa Catarina", "is_capital": false, "latitude": -26.9189, "longitude": -49.0658, "population": 361261}, {"name": "Boa Esperança", "country_iso2": "BR", "state": "Minas Gerais", "is_capital": false, "latitude": -21.09, "longitude": -45.5658, "population": 40219}, {"name": "Boa Esperança", "country_iso2": "BR", "state": "Espírito Santo", "is_capital": false, "latitude": -18.54, "longitude": -40.2958, "population": 13608}, {"name": "Boa Esperança do Sul", "country_iso2": "BR", "state": "São Paulo", "is_capital": false, "latitude": -21.9925, "longitude": -48.3908, "population": 15018}, {"name": "Boa Nova", "country_iso2": "BR", "state": "Bahia", "is_capital": false, "latitude": -14.3628, "longitude": -40.2078, "population": 13690}, {"name": "Boa Viagem", "country_iso2": "BR", "state": "Ceará", "is_capital": false, "latitude": -5.1278, "longitude": -39.7319, "population": 50411}, {"name": "Boa Vista", "country_iso2": "BR", "state": "Roraima", "is_capital": true, "latitude": 2.82, "longitude": -60.6719, "population": 413486}, {"name": "Boa Vista do Tupim", "country_iso2": "BR", "state": "Bahia", "is_capital": false, "latitude": -12.66, "longitude": -40.6089, "population": 16873}, {"name": "Boca da Mata", "country_iso2": "BR", "state": "Alagoas", "is_capital": false, "latitude": -9.6408, "longitude": -36.22, "population": 21187}, {"name": "Bocaina", "country_iso2": "BR", "state": "São Paulo", "is_capital": false, "latitude": -22.1361, "longitude": -48.5181, "population": 11810}, {"name": "Bocaiúva", "country_iso2": "BR", "state": "Minas Gerais", "is_capital": false, "latitude": -17.1078, "longitude": -43.815, "population": 48032}, {"name": "Bocaiúva do Sul", "country_iso2": "BR", "state": "Paraná", "is_capital": false, "latitude": -25.2058, "longitude": -49.115, "population": 9050}, {"name": "Bodocó", "country_iso2": "BR", "state": "Pernambuco", "is_capital": false, "latitude": -7.7778, "longitude": -39.9408, "population": 34478}, {"name": "Bofete", "country_iso2": "BR", "state": "São Paulo", "is_capital": false, "latitude": -23.1022, "longitude": -48.2578, "population": 10879}, {"name": "Boituva", "country_iso2": "BR", "state": "São Paulo", "is_capital": false, "latitude": -23.2833, "longitude": -47.6722, "population": 62170}, {"name": "Bom Conselho", "country_iso2": "BR", "state": "Pernambuco", "is_capital": false, "latitude": -9.17, "longitude": -36.68, "population": 42085}, {"name": "Bom Despacho", "country_iso2": "BR", "state": "Minas Gerais", "is_capital": false, "latitude": -19.7358, "longitude": -45.2519, "population": 51737}, {"name": "Bom Jardim", "country_iso2": "BR", "state": "Pernambuco", "is_capital": false, "latitude": -7.7958, "longitude": -35.5869, "population": 37629}, {"name": "Bom Jardim", "country_iso2": "BR", "state": "Rio de Janeiro", "is_capital": false, "latitude": -22.1519, "longitude": -42.4189, "population": 28102}, {"name": "Bom Jesus", "country_iso2": "BR", "state": "Maranhão", "is_capital": false, "latitude": -4.42, "longitude": -46.765, "population": 28599}, {"name": "Bom Jesus", "country_iso2": "BR", "state": "Goiás", "is_capital": false, "latitude": -18.215, "longitude": -49.7419, "population": 23958}, {"name": "Bom Jesus", "country_iso2": "BR", "state": "Piauí", "is_capital": false, "latitude": -9.0739, "longitude": -44.3589, "population": 15924}, {"name": "Bom Jesus", "country_iso2": "BR", "state": "Rio Grande do Sul", "is_capital": false, "latitude": -28.6678, "longitude": -50.4169, "population": 11202}, {"name": "Bom Jesus da Lapa", "country_iso2": "BR", "state": "Bahia", "is_capital": false, "latitude": -13.255, "longitude": -43.4178, "population": 65550}, {"name": "Bom Jesus da Serra", "country_iso2": "BR", "state": "Bahia", "is_capital": false, "latitude": -14.3719, "longitude": -40.5039, "population": 9730}, {"name": "Bom Jesus do Galho", "country_iso2": "BR", "state": "Minas Gerais", "is_capital": false, "latitude": -19.8289, "longitude": -42.3158, "population": 14536}, {"name": "Bom Jesus do Itabapoana", "country_iso2": "BR", "state": "Rio de Janeiro", "is_capital": false, "latitude": -21.1339, "longitude": -41.6797, "population": 35173}, {"name": "Bom Jesus do Norte", "country_iso2": "BR", "state": "Espírito Santo", "is_capital": false, "latitude": -21.1139, "longitude": -41.6719, "population": 9226}, {"name": "Bom Jesus dos Perdões", "country_iso2": "BR", "state": "São Paulo", "is_capital": false, "latitude": -23.135, "longitude": -46.4653, "population": 25985}, {"name": "Bom Lugar", "country_iso2": "BR", "state": "Maranhão", "is_capital": false, "latitude": -4.22, "longitude": -45.0389, "population": 12212}, {"name": "Bom Princípio", "country_iso2": "BR", "state": "Rio Grande do Sul", "is_capital": false, "latitude": -29.4889, "longitude": -51.3528, "population": 9494}, {"name": "Bom Repouso", "country_iso2": "BR", "state": "Minas Gerais", "is_capital": false, "latitude": -22.4708, "longitude": -46.145, "population": 12649}, {"name": "Bom Retiro do Sul", "country_iso2": "BR", "state": "Rio Grande do Sul", "is_capital": false, "latitude": -29.6089, "longitude": -51.9428, "population": 12294}, {"name": "Bom Sucesso", "country_iso2": "BR", "state": "Minas Gerais", "is_capital": false, "latitude": -21.0328, "longitude": -44.7578, "population": 17151}, {"name": "Bombinhas", "country_iso2": "BR", "state": "Santa Catarina", "is_capital": false, "latitude": -27.1378, "longitude": -48.5169, "population": 25058}, {"name": "Bonfinópolis", "country_iso2": "BR", "state": "Goiás", "is_capital": false, "latitude": -16.6178, "longitude": -48.9628, "population": 10296}, {"name": "Boninal", "country_iso2": "BR", "state": "Bahia", "is_capital": false, "latitude": -12.7019, "longitude": -41.8278, "population": 13622}, {"name": "Bonito", "country_iso2": "BR", "state": "Pernambuco", "is_capital": false, "latitude": -8.47, "longitude": -35.7289, "population": 37474}, {"name": "Bonito", "country_iso2": "BR", "state": "Mato Grosso do Sul", "is_capital": false, "latitude": -21.1333, "longitude": -56.4833, "population": 23659}, {"name": "Bonito", "country_iso2": "BR", "state": "Bahia", "is_capital": false, "latitude": -11.9658, "longitude": -41.2669, "population": 15844}, {"name": "Bonito", "country_iso2": "BR", "state": "Pará", "is_capital": false, "latitude": -1.3628, "longitude": -47.3069, "population": 12622}, {"name": "Bonito de Santa Fé", "country_iso2": "BR", "state": "Paraíba", "is_capital": false, "latitude": -7.3128, "longitude": -38.515, "population": 10252}, {"name": "Boqueirão", "country_iso2": "BR", "state": "Paraíba", "is_capital": false, "latitude": -7.4819, "longitude": -36.135, "population": 17598}, {"name": "Boquim", "country_iso2": "BR", "state": "Sergipe", "is_capital": false, "latitude": -11.1469, "longitude": -37.6208, "population": 24188}, {"name": "Boquira", "country_iso2": "BR", "state": "Bahia", "is_capital": false, "latitude": -12.8231, "longitude": -42.7306, "population": 21497}, {"name": "Borba", "country_iso2": "BR", "state": "Amazonas", "is_capital": false, "latitude": -4.3878, "longitude": -59.5939, "population": 28619}, {"name": "Borborema", "country_iso2": "BR", "state": "São Paulo", "is_capital": false, "latitude": -21.62, "longitude": -49.0739, "population": 14226}, {"name": "Borda da Mata", "country_iso2": "BR", "state": "Minas Gerais", "is_capital": false, "latitude": -22.2739, "longitude": -46.165, "population": 17404}, {"name": "Botelhos", "country_iso2": "BR", "state": "Minas Gerais", "is_capital": false, "latitude": -21.6424, "longitude": -46.3937, "population": 14828}, {"name": "Botucatu", "country_iso2": "BR", "state": "São Paulo", "is_capital": false, "latitude": -22.8858, "longitude": -48.445, "population": 139483}, {"name": "Botuporã", "country_iso2": "BR", "state": "Bahia", "is_capital": false, "latitude": -13.3819, "longitude": -42.5228, "population": 11024}, {"name": "Bragança", "country_iso2": "BR", "state": "Pará", "is_capital": false, "latitude": -1.0536, "longitude": -46.7656, "population": 128914}, {"name": "Bragança Paulista", "country_iso2": "BR", "state": "São Paulo", "is_capital": false, "latitude": -22.9189, "longitude": -46.5425, "population": 160665}, {"name": "Branquinha", "country_iso2": "BR", "state": "Alagoas", "is_capital": false, "latitude": -9.2458, "longitude": -36.015, "population": 9603}, {"name": "Brasil Novo", "country_iso2": "BR", "state": "Pará", "is_capital": false, "latitude": -3.2619, "longitude": -52.6678, "population": 24718}, {"name": "Brasilândia", "country_iso2": "BR", "state": "Minas Gerais", "is_capital": false, "latitude": -17.0087, "longitude": -46.0086, "population": 15020}, {"name": "Brasiléia", "country_iso2": "BR", "state": "Acre", "is_capital": false, "latitude": -11.01, "longitude": -68.7478, "population": 26000}, {"name": "Brasnorte", "country_iso2": "BR", "state": "Mato Grosso", "is_capital": false, "latitude": -12.155, "longitude": -57.9789, "population": 17004}, {"name": "Brasília", "country_iso2": "BR", "state": "Distrito Federal", "is_capital": true, "latitude": -15.7939, "longitude": -47.8828, "population": 141742}, {"name": "Brasília de Minas", "country_iso2": "BR", "state": "Minas Gerais", "is_capital": false, "latitude": -16.2078, "longitude": -44.4289, "population": 32025}, {"name": "Brazópolis", "country_iso2": "BR", "state": "Minas Gerais", "is_capital": false, "latitude": -22.4739, "longitude": -45.6078, "population": 14246}, {"name": "Braço do Norte", "country_iso2": "BR", "state": "Santa Catarina", "is_capital": false, "latitude": -28.275, "longitude": -49.1658, "population": 33773}, {"name": "Brejetuba", "country_iso2": "BR", "state": "Espírito Santo", "is_capital": false, "latitude": -20.1458, "longitude": -41.29, "population": 11687}, {"name": "Brejinho", "country_iso2": "BR", "state": "Rio Grande do Norte", "is_capital": false, "latitude": -6.1908, "longitude": -35.3569, "population": 12202}, {"name": "Brejo", "country_iso2": "BR", "state": "Maranhão", "is_capital": false, "latitude": -3.6839, "longitude": -42.75, "population": 34120}, {"name": "Brejo Santo", "country_iso2": "BR", "state": "Ceará", "is_capital": false, "latitude": -7.4928, "longitude": -38.985, "population": 51090}, {"name": "Brejo da Madre de Deus", "country_iso2": "BR", "state": "Pernambuco", "is_capital": false, "latitude": -8.1458, "longitude": -36.3708, "population": 38109}, {"name": "Brejo do Cruz", "country_iso2": "BR", "state": "Paraíba", "is_capital": false, "latitude": -6.3489, "longitude": -37.4978, "population": 13613}, {"name": "Brejão", "country_iso2": "BR", "state": "Pernambuco", "is_capital": false, "latitude": -9.03, "longitude": -36.5689, "population": 9079}, {"name": "Brejões", "country_iso2": "BR", "state": "Bahia", "is_capital": false, "latitude": -13.1039, "longitude": -39.7958, "population": 12943}, {"name": "Breves", "country_iso2": "BR", "state": "Pará", "is_capital": false, "latitude": -1.6822, "longitude": -50.4803, "population": 103497}, {"name": "Brodósqui", "country_iso2": "BR", "state": "São Paulo", "is_capital": false, "latitude": -20.9908, "longitude": -47.6589, "population": 25201}, {"name": "Brotas", "country_iso2": "BR", "state": "São Paulo", "is_capital": false, "latitude": -22.2839, "longitude": -48.1269, "population": 23898}, {"name": "Brotas de Macaúbas", "country_iso2": "BR", "state": "Bahia", "is_capital": false, "latitude": -11.9989, "longitude": -42.6258, "population": 11765}, {"name": "Brumadinho", "country_iso2": "BR", "state": "Minas Gerais", "is_capital": false, "latitude": -20.1428, "longitude": -44.2, "population": 38915}, {"name": "Brumado", "country_iso2": "BR", "state": "Bahia", "is_capital": false, "latitude": -14.2036, "longitude": -41.6653, "population": 70268}, {"name": "Brusque", "country_iso2": "BR", "state": "Santa Catarina", "is_capital": false, "latitude": -27.0978, "longitude": -48.9178, "population": 141385}, {"name": "Bueno Brandão", "country_iso2": "BR", "state": "Minas Gerais", "is_capital": false, "latitude": -22.4408, "longitude": -46.3508, "population": 10911}, {"name": "Buenos Aires", "country_iso2": "BR", "state": "Pernambuco", "is_capital": false, "latitude": -7.7258, "longitude": -35.3269, "population": 12808}, {"name": "Buenópolis", "country_iso2": "BR", "state": "Minas Gerais", "is_capital": false, "latitude": -17.8742, "longitude": -44.1767, "population": 9150}, {"name": "Buerarema", "country_iso2": "BR", "state": "Bahia", "is_capital": false, "latitude": -14.9589, "longitude": -39.3, "population": 14804}, {"name": "Bujari", "country_iso2": "BR", "state": "Acre", "is_capital": false, "latitude": -9.8308, "longitude": -67.9519, "population": 12917}, {"name": "Bujaru", "country_iso2": "BR", "state": "Pará", "is_capital": false, "latitude": -1.515, "longitude": -48.0447, "population": 29427}, {"name": "Buri", "country_iso2": "BR", "state": "São Paulo", "is_capital": false, "latitude": -23.7975, "longitude": -48.5928, "population": 19965}, {"name": "Buritama", "country_iso2": "BR", "state": "São Paulo", "is_capital": false, "latitude": -21.0667, "longitude": -50.1475, "population": 16583}, {"name": "Buriti", "country_iso2": "BR", "state": "Maranhão", "is_capital": false, "latitude": -3.9419, "longitude": -42.925, "population": 29685}, {"name": "Buriti Alegre", "country_iso2": "BR", "state": "Goiás", "is_capital": false, "latitude": -18.1439, "longitude": -49.0439, "population": 10495}, {"name": "Buriti Bravo", "country_iso2": "BR", "state": "Maranhão", "is_capital": false, "latitude": -5.8369, "longitude": -43.8339, "population": 22455}, {"name": "Buriti do Tocantins", "country_iso2": "BR", "state": "Tocantins", "is_capital": false, "latitude": -5.3158, "longitude": -48.2289, "population": 10307}, {"name": "Buriti dos Lopes", "country_iso2": "BR", "state": "Piauí", "is_capital": false, "latitude": -3.175, "longitude": -41.8669, "population": 19654}, {"name": "Buritirama", "country_iso2": "BR", "state": "Bahia", "is_capital": false, "latitude": -10.7078, "longitude": -43.6308, "population": 19589}, {"name": "Buritirama", "country_iso2": "BR", "state": "Maranhão", "is_capital": false, "latitude": -5.5928, "longitude": -47.0178, "population": 12918}, {"name": "Buritis", "country_iso2": "BR", "state": "Minas Gerais", "is_capital": false, "latitude": -15.6178, "longitude": -46.4228, "population": 20396}, {"name": "Buritizeiro", "country_iso2": "BR", "state": "Minas Gerais", "is_capital": false, "latitude": -17.3508, "longitude": -44.9619, "population": 23910}, {"name": "Butiá", "country_iso2": "BR", "state": "Rio Grande do Sul", "is_capital": false, "latitude": -30.12, "longitude": -51.9619, "population": 19084}, {"name": "Buíque", "country_iso2": "BR", "state": "Pernambuco", "is_capital": false, "latitude": -8.6233, "longitude": -37.1564, "population": 52097}, {"name": "Bálsamo", "country_iso2": "BR", "state": "São Paulo", "is_capital": false, "latitude": -20.735, "longitude": -49.5839, "population": 9596}, {"name": "Bôca do Acre", "country_iso2": "BR", "state": "Amazonas", "is_capital": false, "latitude": -8.7519, "longitude": -67.3978, "population": 35447}, {"name": "Caapiranga", "country_iso2": "BR", "state": "Amazonas", "is_capital": false, "latitude": -3.3167, "longitude": -61.2, "population": 8803}, {"name": "Caaporã", "country_iso2": "BR", "state": "Paraíba", "is_capital": false, "latitude": -7.5158, "longitude": -34.9078, "population": 21193}, {"name": "Cabaceiras do Paraguaçu", "country_iso2": "BR", "state": "Bahia", "is_capital": false, "latitude": -12.5358, "longitude": -39.1908, "population": 16559}, {"name": "Cabedelo", "country_iso2": "BR", "state": "Paraíba", "is_capital": false, "latitude": -6.9808, "longitude": -34.8339, "population": 66519}, {"name": "Cabo Frio", "country_iso2": "BR", "state": "Rio de Janeiro", "is_capital": false, "latitude": -22.8789, "longitude": -42.0189, "population": 126828}, {"name": "Cabo Verde", "country_iso2": "BR", "state": "Minas Gerais", "is_capital": false, "latitude": -21.4719, "longitude": -46.3958, "population": 11410}, {"name": "Cabreúva", "country_iso2": "BR", "state": "São Paulo", "is_capital": false, "latitude": -23.3075, "longitude": -47.1331, "population": 50429}, {"name": "Cabrobó", "country_iso2": "BR", "state": "Pernambuco", "is_capital": false, "latitude": -8.5119, "longitude": -39.3069, "population": 30294}, {"name": "Cacequi", "country_iso2": "BR", "state": "Rio Grande do Sul", "is_capital": false, "latitude": -29.8839, "longitude": -54.825, "population": 11157}, {"name": "Cachoeira", "country_iso2": "BR", "state": "Bahia", "is_capital": false, "latitude": -12.6178, "longitude": -38.9558, "population": 29250}, {"name": "Cachoeira Alta", "country_iso2": "BR", "state": "Goiás", "is_capital": false, "latitude": -18.7628, "longitude": -50.9419, "population": 11513}, {"name": "Cachoeira Paulista", "country_iso2": "BR", "state": "São Paulo", "is_capital": false, "latitude": -22.665, "longitude": -45.0094, "population": 32294}, {"name": "Cachoeira de Minas", "country_iso2": "BR", "state": "Minas Gerais", "is_capital": false, "latitude": -22.355, "longitude": -45.7789, "population": 10555}, {"name": "Cachoeira do Arari", "country_iso2": "BR", "state": "Pará", "is_capital": false, "latitude": -1.0108, "longitude": -48.9628, "population": 23981}, {"name": "Cachoeira do Sul", "country_iso2": "BR", "state": "Rio Grande do Sul", "is_capital": false, "latitude": -30.0394, "longitude": -52.8953, "population": 80070}, {"name": "Cachoeira dos Índios", "country_iso2": "BR", "state": "Paraíba", "is_capital": false, "latitude": -6.9269, "longitude": -38.6739, "population": 9151}, {"name": "Cachoeiras de Macacu", "country_iso2": "BR", "state": "Rio de Janeiro", "is_capital": false, "latitude": -22.4628, "longitude": -42.6528, "population": 56943}, {"name": "Cachoeirinha", "country_iso2": "BR", "state": "Rio Grande do Sul", "is_capital": false, "latitude": -29.9508, "longitude": -51.0939, "population": 136258}, {"name": "Cachoeirinha", "country_iso2": "BR", "state": "Pernambuco", "is_capital": false, "latitude": -8.4858, "longitude": -36.2328, "population": 19899}, {"name": "Cachoeiro de Itapemirim", "country_iso2": "BR", "state": "Espírito Santo", "is_capital": false, "latitude": -20.8489, "longitude": -41.1128, "population": 174879}, {"name": "Cacimba de Dentro", "country_iso2": "BR", "state": "Paraíba", "is_capital": false, "latitude": -6.6417, "longitude": -35.79, "population": 17178}, {"name": "Cacimbinhas", "country_iso2": "BR", "state": "Alagoas", "is_capital": false, "latitude": -9.4, "longitude": -36.99, "population": 9552}, {"name": "Cacoal", "country_iso2": "BR", "state": "Rondônia", "is_capital": false, "latitude": -11.4386, "longitude": -61.4472, "population": 73568}, {"name": "Caconde", "country_iso2": "BR", "state": "São Paulo", "is_capital": false, "latitude": -21.5289, "longitude": -46.6439, "population": 18976}, {"name": "Caculé", "country_iso2": "BR", "state": "Bahia", "is_capital": false, "latitude": -14.5028, "longitude": -42.2219, "population": 22462}, {"name": "Caetano", "country_iso2": "BR", "state": "Bahia", "is_capital": false, "latitude": -14.3378, "longitude": -40.91, "population": 11266}, {"name": "Caetanópolis", "country_iso2": "BR", "state": "Minas Gerais", "is_capital": false, "latitude": -19.295, "longitude": -44.4189, "population": 11435}, {"name": "Caetité", "country_iso2": "BR", "state": "Bahia", "is_capital": false, "latitude": -14.0689, "longitude": -42.475, "population": 52012}, {"name": "Caeté", "country_iso2": "BR", "state": "Minas Gerais", "is_capital": false, "latitude": -19.88, "longitude": -43.6697, "population": 45047}, {"name": "Caetés", "country_iso2": "BR", "state": "Pernambuco", "is_capital": false, "latitude": -8.7728, "longitude": -36.6228, "population": 28827}, {"name": "Cafarnaum", "country_iso2": "BR", "state": "Bahia", "is_capital": false, "latitude": -11.6939, "longitude": -41.4678, "population": 17466}, {"name": "Cafelândia", "country_iso2": "BR", "state": "Paraná", "is_capital": false, "latitude": -24.6178, "longitude": -53.32, "population": 18997}, {"name": "Cafelândia", "country_iso2": "BR", "state": "São Paulo", "is_capital": false, "latitude": -21.8025, "longitude": -49.61, "population": 17499}, {"name": "Caiapônia", "country_iso2": "BR", "state": "Goiás", "is_capital": false, "latitude": -16.9569, "longitude": -51.81, "population": 14673}, {"name": "Caicó", "country_iso2": "BR", "state": "Rio Grande do Norte", "is_capital": false, "latitude": -6.4578, "longitude": -37.0978, "population": 61146}, {"name": "Caieiras", "country_iso2": "BR", "state": "São Paulo", "is_capital": false, "latitude": -23.3642, "longitude": -46.7406, "population": 102775}, {"name": "Cairu", "country_iso2": "BR", "state": "Bahia", "is_capital": false, "latitude": -13.4869, "longitude": -39.0439, "population": 17761}, {"name": "Cajamar", "country_iso2": "BR", "state": "São Paulo", "is_capital": false, "latitude": -23.3561, "longitude": -46.8769, "population": 71805}, {"name": "Cajapió", "country_iso2": "BR", "state": "Rio Grande do Norte", "is_capital": false, "latitude": -2.9667, "longitude": -44.8, "population": 10121}, {"name": "Cajari", "country_iso2": "BR", "state": "Maranhão", "is_capital": false, "latitude": -3.3208, "longitude": -45.0108, "population": 16412}, {"name": "Cajati", "country_iso2": "BR", "state": "São Paulo", "is_capital": false, "latitude": -24.7361, "longitude": -48.1228, "population": 28494}, {"name": "Cajazeiras", "country_iso2": "BR", "state": "Paraíba", "is_capital": false, "latitude": -6.89, "longitude": -38.5619, "population": 63239}, {"name": "Cajobi", "country_iso2": "BR", "state": "São Paulo", "is_capital": false, "latitude": -20.88, "longitude": -48.8089, "population": 9133}, {"name": "Cajueiro", "country_iso2": "BR", "state": "Alagoas", "is_capital": false, "latitude": -9.3967, "longitude": -36.1536, "population": 16024}, {"name": "Cajuru", "country_iso2": "BR", "state": "São Paulo", "is_capital": false, "latitude": -21.2753, "longitude": -47.3042, "population": 26393}, {"name": "Caldas", "country_iso2": "BR", "state": "Minas Gerais", "is_capital": false, "latitude": -21.9239, "longitude": -46.3858, "population": 14217}, {"name": "Caldas Novas", "country_iso2": "BR", "state": "Goiás", "is_capital": false, "latitude": -17.7439, "longitude": -48.6258, "population": 98622}, {"name": "Caldeirão Grande", "country_iso2": "BR", "state": "Bahia", "is_capital": false, "latitude": -11.02, "longitude": -40.3028, "population": 13080}, {"name": "Califórnia", "country_iso2": "BR", "state": "Paraná", "is_capital": false, "latitude": -23.65, "longitude": -51.355, "population": 8710}, {"name": "Calçado", "country_iso2": "BR", "state": "Pernambuco", "is_capital": false, "latitude": -8.7419, "longitude": -36.3339, "population": 11093}, {"name": "Calçoene", "country_iso2": "BR", "state": "Amapá", "is_capital": false, "latitude": 2.4978, "longitude": -50.9489, "population": 10612}, {"name": "Camacan", "country_iso2": "BR", "state": "Bahia", "is_capital": false, "latitude": -15.4189, "longitude": -39.4958, "population": 22579}, {"name": "Camamu", "country_iso2": "BR", "state": "Bahia", "is_capital": false, "latitude": -13.945, "longitude": -39.1039, "population": 35382}, {"name": "Camanducaia", "country_iso2": "BR", "state": "Minas Gerais", "is_capital": false, "latitude": -22.755, "longitude": -46.145, "population": 26097}, {"name": "Camapuã", "country_iso2": "BR", "state": "Mato Grosso do Sul", "is_capital": false, "latitude": -19.5308, "longitude": -54.0439, "population": 13583}, {"name": "Camaquã", "country_iso2": "BR", "state": "Rio Grande do Sul", "is_capital": false, "latitude": -30.8528, "longitude": -51.8153, "population": 62200}, {"name": "Camarajibe", "country_iso2": "BR", "state": "Pernambuco", "is_capital": false, "latitude": -8.0219, "longitude": -34.9808, "population": 155054}, {"name": "Camaçari", "country_iso2": "BR", "state": "Bahia", "is_capital": false, "latitude": -12.6978, "longitude": -38.3239, "population": 161727}, {"name": "Cambará", "country_iso2": "BR", "state": "Paraná", "is_capital": false, "latitude": -23.0458, "longitude": -50.0739, "population": 22740}, {"name": "Cambira", "country_iso2": "BR", "state": "Paraná", "is_capital": false, "latitude": -23.5828, "longitude": -51.5778, "population": 9460}, {"name": "Camboriú", "country_iso2": "BR", "state": "Santa Catarina", "is_capital": false, "latitude": -27.025, "longitude": -48.6539, "population": 103074}, {"name": "Cambuci", "country_iso2": "BR", "state": "Rio de Janeiro", "is_capital": false, "latitude": -21.575, "longitude": -41.9108, "population": 14616}, {"name": "Cambuquira", "country_iso2": "BR", "state": "Minas Gerais", "is_capital": false, "latitude": -21.8583, "longitude": -45.2911, "population": 12313}, {"name": "Cambuí", "country_iso2": "BR", "state": "Minas Gerais", "is_capital": false, "latitude": -22.6119, "longitude": -46.0578, "population": 29536}, {"name": "Cambé", "country_iso2": "BR", "state": "Paraná", "is_capital": false, "latitude": -23.2758, "longitude": -51.2778, "population": 107208}, {"name": "Cametá", "country_iso2": "BR", "state": "Pará", "is_capital": false, "latitude": -2.2439, "longitude": -49.4958, "population": 134184}, {"name": "Camocim", "country_iso2": "BR", "state": "Ceará", "is_capital": false, "latitude": -2.9008, "longitude": -40.8428, "population": 62326}, {"name": "Camocim de São Félix", "country_iso2": "BR", "state": "Pernambuco", "is_capital": false, "latitude": -8.3589, "longitude": -35.7619, "population": 17419}, {"name": "Campanha", "country_iso2": "BR", "state": "Minas Gerais", "is_capital": false, "latitude": -21.8389, "longitude": -45.3997, "population": 15935}, {"name": "Campestre", "country_iso2": "BR", "state": "Minas Gerais", "is_capital": false, "latitude": -21.7108, "longitude": -46.2458, "population": 20696}, {"name": "Campina Grande", "country_iso2": "BR", "state": "Paraíba", "is_capital": false, "latitude": -7.2306, "longitude": -35.8811, "population": 419379}, {"name": "Campina Grande do Sul", "country_iso2": "BR", "state": "Paraná", "is_capital": false, "latitude": -25.3056, "longitude": -49.0553, "population": 38769}, {"name": "Campina Verde", "country_iso2": "BR", "state": "Minas Gerais", "is_capital": false, "latitude": -19.5358, "longitude": -49.4858, "population": 18011}, {"name": "Campina da Lagoa", "country_iso2": "BR", "state": "Paraná", "is_capital": false, "latitude": -24.5919, "longitude": -52.7989, "population": 15723}, {"name": "Campinas", "country_iso2": "BR", "state": "São Paulo", "is_capital": false, "latitude": -22.9009, "longitude": -47.0573, "population": 1213792}, {"name": "Campinorte", "country_iso2": "BR", "state": "Goiás", "is_capital": false, "latitude": -14.3139, "longitude": -49.1519, "population": 12510}, {"name": "Campo Alegre", "country_iso2": "BR", "state": "Alagoas", "is_capital": false, "latitude": -9.7819, "longitude": -36.3508, "population": 32106}, {"name": "Campo Alegre", "country_iso2": "BR", "state": "Santa Catarina", "is_capital": false, "latitude": -26.1928, "longitude": -49.2658, "population": 12501}, {"name": "Campo Alegre de Lourdes", "country_iso2": "BR", "state": "Bahia", "is_capital": false, "latitude": -9.5158, "longitude": -43.0108, "population": 30671}, {"name": "Campo Belo", "country_iso2": "BR", "state": "Minas Gerais", "is_capital": false, "latitude": -20.8969, "longitude": -45.2769, "population": 52277}, {"name": "Campo Bom", "country_iso2": "BR", "state": "Rio Grande do Sul", "is_capital": false, "latitude": -29.6789, "longitude": -51.0528, "population": 62886}, {"name": "Campo Erê", "country_iso2": "BR", "state": "Santa Catarina", "is_capital": false, "latitude": -26.3939, "longitude": -53.0778, "population": 9623}, {"name": "Campo Formoso", "country_iso2": "BR", "state": "Bahia", "is_capital": false, "latitude": -10.5089, "longitude": -40.3208, "population": 71377}, {"name": "Campo Grande", "country_iso2": "BR", "state": "Mato Grosso do Sul", "is_capital": true, "latitude": -20.4686, "longitude": -54.6222, "population": 663621}, {"name": "Campo Largo", "country_iso2": "BR", "state": "Paraná", "is_capital": false, "latitude": -25.4589, "longitude": -49.5278, "population": 136327}, {"name": "Campo Limpo", "country_iso2": "BR", "state": "São Paulo", "is_capital": false, "latitude": -23.2064, "longitude": -46.7844, "population": 80847}, {"name": "Campo Magro", "country_iso2": "BR", "state": "Paraná", "is_capital": false, "latitude": -25.3689, "longitude": -49.4508, "population": 20409}, {"name": "Campo Maior", "country_iso2": "BR", "state": "Piauí", "is_capital": false, "latitude": -4.8278, "longitude": -42.1686, "population": 46893}, {"name": "Campo Mourão", "country_iso2": "BR", "state": "Paraná", "is_capital": false, "latitude": -24.0458, "longitude": -52.3828, "population": 99432}, {"name": "Campo Novo do Parecis", "country_iso2": "BR", "state": "Mato Grosso", "is_capital": false, "latitude": -13.675, "longitude": -57.8919, "population": 45899}, {"name": "Campo Redondo", "country_iso2": "BR", "state": "Rio Grande do Norte", "is_capital": false, "latitude": -6.2428, "longitude": -36.1828, "population": 10215}, {"name": "Campo do Brito", "country_iso2": "BR", "state": "Sergipe", "is_capital": false, "latitude": -10.7333, "longitude": -37.4933, "population": 16749}, {"name": "Campo do Meio", "country_iso2": "BR", "state": "Minas Gerais", "is_capital": false, "latitude": -21.1069, "longitude": -45.83, "population": 11377}, {"name": "Campos", "country_iso2": "BR", "state": "Rio de Janeiro", "is_capital": false, "latitude": -21.7523, "longitude": -41.3304, "population": 511168}, {"name": "Campos Altos", "country_iso2": "BR", "state": "Minas Gerais", "is_capital": false, "latitude": -19.6958, "longitude": -46.1708, "population": 12819}, {"name": "Campos Belos", "country_iso2": "BR", "state": "Goiás", "is_capital": false, "latitude": -13.0369, "longitude": -46.7719, "population": 18108}, {"name": "Campos Gerais", "country_iso2": "BR", "state": "Minas Gerais", "is_capital": false, "latitude": -21.235, "longitude": -45.7589, "population": 26105}, {"name": "Campos Lindos", "country_iso2": "BR", "state": "Tocantins", "is_capital": false, "latitude": -7.9939, "longitude": -46.8678, "population": 8653}, {"name": "Campos Novos", "country_iso2": "BR", "state": "Santa Catarina", "is_capital": false, "latitude": -27.4019, "longitude": -51.225, "population": 36932}, {"name": "Campos Sales", "country_iso2": "BR", "state": "Ceará", "is_capital": false, "latitude": -7.0739, "longitude": -40.3758, "population": 25135}, {"name": "Campos do Jordão", "country_iso2": "BR", "state": "São Paulo", "is_capital": false, "latitude": -22.7394, "longitude": -45.5914, "population": 50852}, {"name": "Cananéia", "country_iso2": "BR", "state": "São Paulo", "is_capital": false, "latitude": -25.015, "longitude": -47.9269, "population": 12289}, {"name": "Canapi", "country_iso2": "BR", "state": "Alagoas", "is_capital": false, "latitude": -9.1269, "longitude": -37.605, "population": 15559}, {"name": "Canarana", "country_iso2": "BR", "state": "Bahia", "is_capital": false, "latitude": -11.685, "longitude": -41.7689, "population": 24206}, {"name": "Canarana I", "country_iso2": "BR", "state": "Mato Grosso", "is_capital": false, "latitude": -13.55, "longitude": -52.1658, "population": 15408}, {"name": "Canavieiras", "country_iso2": "BR", "state": "Bahia", "is_capital": false, "latitude": -15.675, "longitude": -38.9472, "population": 30906}, {"name": "Candeias", "country_iso2": "BR", "state": "Bahia", "is_capital": false, "latitude": -12.6678, "longitude": -38.5508, "population": 72382}, {"name": "Candeias", "country_iso2": "BR", "state": "Minas Gerais", "is_capital": false, "latitude": -20.7669, "longitude": -45.2758, "population": 14001}, {"name": "Candelária", "country_iso2": "BR", "state": "Rio Grande do Sul", "is_capital": false, "latitude": -29.6689, "longitude": -52.7889, "population": 28906}, {"name": "Candiba", "country_iso2": "BR", "state": "Bahia", "is_capital": false, "latitude": -14.4108, "longitude": -42.8669, "population": 13016}, {"name": "Candiota", "country_iso2": "BR", "state": "Rio Grande do Sul", "is_capital": false, "latitude": -31.5578, "longitude": -53.6728, "population": 10710}, {"name": "Candói", "country_iso2": "BR", "state": "Paraná", "is_capital": false, "latitude": -25.6628, "longitude": -52.1258, "population": 14973}, {"name": "Canela", "country_iso2": "BR", "state": "Rio Grande do Sul", "is_capital": false, "latitude": -29.3562, "longitude": -50.8136, "population": 45488}, {"name": "Canelinha", "country_iso2": "BR", "state": "Santa Catarina", "is_capital": false, "latitude": -27.265, "longitude": -48.7678, "population": 12821}, {"name": "Canguaretama", "country_iso2": "BR", "state": "Rio Grande do Norte", "is_capital": false, "latitude": -6.38, "longitude": -35.1289, "population": 29668}, {"name": "Canguçu", "country_iso2": "BR", "state": "Rio Grande do Sul", "is_capital": false, "latitude": -31.395, "longitude": -52.6758, "population": 49680}, {"name": "Canhotinho", "country_iso2": "BR", "state": "Pernambuco", "is_capital": false, "latitude": -8.8819, "longitude": -36.1908, "population": 24329}, {"name": "Canindé", "country_iso2": "BR", "state": "Ceará", "is_capital": false, "latitude": -4.3589, "longitude": -39.3119, "population": 74174}, {"name": "Canindé de São Francisco", "country_iso2": "BR", "state": "Sergipe", "is_capital": false, "latitude": -9.6419, "longitude": -37.7878, "population": 26834}, {"name": "Canoas", "country_iso2": "BR", "state": "Rio Grande do Sul", "is_capital": false, "latitude": -29.92, "longitude": -51.18, "population": 347657}, {"name": "Canoinhas", "country_iso2": "BR", "state": "Santa Catarina", "is_capital": false, "latitude": -26.1769, "longitude": -50.39, "population": 55016}, {"name": "Cansanção", "country_iso2": "BR", "state": "Bahia", "is_capital": false, "latitude": -10.6708, "longitude": -39.4978, "population": 37439}, {"name": "Cantagalo", "country_iso2": "BR", "state": "Rio de Janeiro", "is_capital": false, "latitude": -21.9808, "longitude": -42.3678, "population": 19390}, {"name": "Cantagalo", "country_iso2": "BR", "state": "Paraná", "is_capital": false, "latitude": -25.3739, "longitude": -52.1258, "population": 10933}, {"name": "Cantanhede", "country_iso2": "BR", "state": "Maranhão", "is_capital": false, "latitude": -3.6328, "longitude": -44.3769, "population": 24303}, {"name": "Canto do Buriti", "country_iso2": "BR", "state": "Piauí", "is_capital": false, "latitude": -8.11, "longitude": -42.9439, "population": 19365}, {"name": "Canudos", "country_iso2": "BR", "state": "Bahia", "is_capital": false, "latitude": -9.9044, "longitude": -39.1415, "population": 16105}, {"name": "Canutama", "country_iso2": "BR", "state": "Amazonas", "is_capital": false, "latitude": -6.5339, "longitude": -64.3828, "population": 16869}, {"name": "Canápolis", "country_iso2": "BR", "state": "Minas Gerais", "is_capital": false, "latitude": -18.725, "longitude": -49.2039, "population": 10608}, {"name": "Capanema", "country_iso2": "BR", "state": "Pará", "is_capital": false, "latitude": -1.1958, "longitude": -47.1808, "population": 70394}, {"name": "Capanema", "country_iso2": "BR", "state": "Paraná", "is_capital": false, "latitude": -25.6719, "longitude": -53.8089, "population": 20481}, {"name": "Capela", "country_iso2": "BR", "state": "Sergipe", "is_capital": false, "latitude": -10.5028, "longitude": -37.0528, "population": 31645}, {"name": "Capela", "country_iso2": "BR", "state": "Alagoas", "is_capital": false, "latitude": -9.4075, "longitude": -36.0736, "population": 15032}, {"name": "Capela de Santana", "country_iso2": "BR", "state": "Rio Grande do Sul", "is_capital": false, "latitude": -29.7, "longitude": -51.325, "population": 11159}, {"name": "Capela do Alto", "country_iso2": "BR", "state": "São Paulo", "is_capital": false, "latitude": -23.4706, "longitude": -47.7347, "population": 20985}, {"name": "Capela do Alto Alegre", "country_iso2": "BR", "state": "Bahia", "is_capital": false, "latitude": -11.6678, "longitude": -39.8378, "population": 10744}, {"name": "Capelinha", "country_iso2": "BR", "state": "Minas Gerais", "is_capital": false, "latitude": -17.6908, "longitude": -42.5158, "population": 31231}, {"name": "Capim", "country_iso2": "BR", "state": "Pará", "is_capital": false, "latitude": -1.675, "longitude": -47.775, "population": 30599}, {"name": "Capim Branco", "country_iso2": "BR", "state": "Minas Gerais", "is_capital": false, "latitude": -19.5489, "longitude": -44.1169, "population": 10663}, {"name": "Capim Grosso", "country_iso2": "BR", "state": "Bahia", "is_capital": false, "latitude": -11.3808, "longitude": -40.0128, "population": 33235}, {"name": "Capinzal", "country_iso2": "BR", "state": "Santa Catarina", "is_capital": false, "latitude": -27.3439, "longitude": -51.6119, "population": 23314}, {"name": "Capinópolis", "country_iso2": "BR", "state": "Minas Gerais", "is_capital": false, "latitude": -18.6819, "longitude": -49.57, "population": 14655}, {"name": "Capistrano", "country_iso2": "BR", "state": "Ceará", "is_capital": false, "latitude": -4.47, "longitude": -38.9008, "population": 17254}, {"name": "Capitão Enéas", "country_iso2": "BR", "state": "Minas Gerais", "is_capital": false, "latitude": -16.3239, "longitude": -43.7108, "population": 14108}, {"name": "Capitão Poço", "country_iso2": "BR", "state": "Pará", "is_capital": false, "latitude": -1.7464, "longitude": -47.0594, "population": 54425}, {"name": "Capitão de Campos", "country_iso2": "BR", "state": "Piauí", "is_capital": false, "latitude": -4.4569, "longitude": -41.9439, "population": 11100}, {"name": "Capitólio", "country_iso2": "BR", "state": "Minas Gerais", "is_capital": false, "latitude": -20.615, "longitude": -46.05, "population": 10380}, {"name": "Capivari", "country_iso2": "BR", "state": "São Paulo", "is_capital": false, "latitude": -22.995, "longitude": -47.5078, "population": 53152}, {"name": "Capoeiras", "country_iso2": "BR", "state": "Pernambuco", "is_capital": false, "latitude": -8.735, "longitude": -36.6269, "population": 18338}, {"name": "Caputira", "country_iso2": "BR", "state": "Minas Gerais", "is_capital": false, "latitude": -20.1719, "longitude": -42.2708, "population": 8936}, {"name": "Capão Bonito", "country_iso2": "BR", "state": "São Paulo", "is_capital": false, "latitude": -24.0058, "longitude": -48.3494, "population": 47118}, {"name": "Capão da Canoa", "country_iso2": "BR", "state": "Rio Grande do Sul", "is_capital": false, "latitude": -29.7608, "longitude": -50.03, "population": 63594}, {"name": "Capão do Leão", "country_iso2": "BR", "state": "Rio Grande do Sul", "is_capital": false, "latitude": -31.7628, "longitude": -52.4839, "population": 26487}, {"name": "Caracaraí", "country_iso2": "BR", "state": "Roraima", "is_capital": false, "latitude": 1.8158, "longitude": -61.1278, "population": 20957}, {"name": "Caracol", "country_iso2": "BR", "state": "Piauí", "is_capital": false, "latitude": -9.2789, "longitude": -43.33, "population": 10318}, {"name": "Caraguatatuba", "country_iso2": "BR", "state": "São Paulo", "is_capital": false, "latitude": -23.62, "longitude": -45.4128, "population": 78921}, {"name": "Carambeí", "country_iso2": "BR", "state": "Paraná", "is_capital": false, "latitude": -24.9178, "longitude": -50.0969, "population": 23283}, {"name": "Carandaí", "country_iso2": "BR", "state": "Minas Gerais", "is_capital": false, "latitude": -20.9539, "longitude": -43.8058, "population": 23812}, {"name": "Carangola", "country_iso2": "BR", "state": "Minas Gerais", "is_capital": false, "latitude": -20.7328, "longitude": -42.0289, "population": 31240}, {"name": "Carapebus", "country_iso2": "BR", "state": "Rio de Janeiro", "is_capital": false, "latitude": -22.1869, "longitude": -41.6608, "population": 13847}, {"name": "Carapicuíba", "country_iso2": "BR", "state": "São Paulo", "is_capital": false, "latitude": -23.5228, "longitude": -46.8358, "population": 344596}, {"name": "Carapó", "country_iso2": "BR", "state": "Mato Grosso do Sul", "is_capital": false, "latitude": -22.6339, "longitude": -54.8219, "population": 30612}, {"name": "Caratinga", "country_iso2": "BR", "state": "Minas Gerais", "is_capital": false, "latitude": -19.79, "longitude": -42.1389, "population": 87360}, {"name": "Carauari", "country_iso2": "BR", "state": "Amazonas", "is_capital": false, "latitude": -4.8828, "longitude": -66.8958, "population": 28742}, {"name": "Caravelas", "country_iso2": "BR", "state": "Bahia", "is_capital": false, "latitude": -17.7319, "longitude": -39.2658, "population": 20103}, {"name": "Caraí", "country_iso2": "BR", "state": "Minas Gerais", "is_capital": false, "latitude": -17.1889, "longitude": -41.695, "population": 19548}, {"name": "Caraíbas", "country_iso2": "BR", "state": "Bahia", "is_capital": false, "latitude": -14.6, "longitude": -41.335, "population": 9940}, {"name": "Caraúbas", "country_iso2": "BR", "state": "Rio Grande do Norte", "is_capital": false, "latitude": -5.7928, "longitude": -37.5569, "population": 18810}, {"name": "Carbonita", "country_iso2": "BR", "state": "Minas Gerais", "is_capital": false, "latitude": -17.5269, "longitude": -43.0158, "population": 8512}, {"name": "Cardoso", "country_iso2": "BR", "state": "São Paulo", "is_capital": false, "latitude": -20.0819, "longitude": -49.9139, "population": 11345}, {"name": "Cardoso Moreira", "country_iso2": "BR", "state": "Rio de Janeiro", "is_capital": false, "latitude": -21.4878, "longitude": -41.6158, "population": 12958}, {"name": "Careiro", "country_iso2": "BR", "state": "Amazonas", "is_capital": false, "latitude": -3.7678, "longitude": -60.3689, "population": 30792}, {"name": "Careiro da Várzea", "country_iso2": "BR", "state": "Amazonas", "is_capital": false, "latitude": -3.197, "longitude": -59.8267, "population": 30846}, {"name": "Cariacica", "country_iso2": "BR", "state": "Espírito Santo", "is_capital": false, "latitude": -20.2639, "longitude": -40.42, "population": 324285}, {"name": "Caridade", "country_iso2": "BR", "state": "Ceará", "is_capital": false, "latitude": -4.2319, "longitude": -39.1928, "population": 16377}, {"name": "Carinhanha", "country_iso2": "BR", "state": "Bahia", "is_capital": false, "latitude": -14.305, "longitude": -43.765, "population": 28869}, {"name": "Carira", "country_iso2": "BR", "state": "Sergipe", "is_capital": false, "latitude": -10.3581, "longitude": -37.7008, "population": 19939}, {"name": "Caririaçu", "country_iso2": "BR", "state": "Ceará", "is_capital": false, "latitude": -7.0419, "longitude": -39.2839, "population": 26320}, {"name": "Cariré", "country_iso2": "BR", "state": "Ceará", "is_capital": false, "latitude": -3.9508, "longitude": -40.4728, "population": 17632}, {"name": "Cariús", "country_iso2": "BR", "state": "Ceará", "is_capital": false, "latitude": -6.5369, "longitude": -39.4969, "population": 17015}, {"name": "Carlos Barbosa", "country_iso2": "BR", "state": "Rio Grande do Sul", "is_capital": false, "latitude": -29.2978, "longitude": -51.5039, "population": 20519}, {"name": "Carlos Chagas", "country_iso2": "BR", "state": "Minas Gerais", "is_capital": false, "latitude": -17.7028, "longitude": -40.7658, "population": 18615}, {"name": "Carlópolis", "country_iso2": "BR", "state": "Paraná", "is_capital": false, "latitude": -23.425, "longitude": -49.7208, "population": 16905}, {"name": "Carmo", "country_iso2": "BR", "state": "Rio de Janeiro", "is_capital": false, "latitude": -21.9339, "longitude": -42.6089, "population": 17198}, {"name": "Carmo da Cachoeira", "country_iso2": "BR", "state": "Minas Gerais", "is_capital": false, "latitude": -21.4608, "longitude": -45.2239, "population": 11547}, {"name": "Carmo da Mata", "country_iso2": "BR", "state": "Minas Gerais", "is_capital": false, "latitude": -20.5578, "longitude": -44.8708, "population": 11019}, {"name": "Carmo de Minas", "country_iso2": "BR", "state": "Minas Gerais", "is_capital": false, "latitude": -22.1219, "longitude": -45.1289, "population": 13797}, {"name": "Carmo do Cajuru", "country_iso2": "BR", "state": "Minas Gerais", "is_capital": false, "latitude": -20.1839, "longitude": -44.7708, "population": 23479}, {"name": "Carmo do Paranaíba", "country_iso2": "BR", "state": "Minas Gerais", "is_capital": false, "latitude": -19.0008, "longitude": -46.3158, "population": 29011}, {"name": "Carmo do Rio Claro", "country_iso2": "BR", "state": "Minas Gerais", "is_capital": false, "latitude": -20.9731, "longitude": -46.1189, "population": 20954}, {"name": "Carmo do Rio Verde", "country_iso2": "BR", "state": "Goiás", "is_capital": false, "latitude": -15.3536, "longitude": -49.7075, "population": 10186}, {"name": "Carmópolis", "country_iso2": "BR", "state": "Sergipe", "is_capital": false, "latitude": -10.6478, "longitude": -36.9889, "population": 13853}, {"name": "Carmópolis de Minas", "country_iso2": "BR", "state": "Minas Gerais", "is_capital": false, "latitude": -20.5408, "longitude": -44.635, "population": 14348}, {"name": "Carnaubais", "country_iso2": "BR", "state": "Rio Grande do Norte", "is_capital": false, "latitude": -5.3408, "longitude": -36.8328, "population": 9714}, {"name": "Carnaubal", "country_iso2": "BR", "state": "Ceará", "is_capital": false, "latitude": -4.1669, "longitude": -40.9428, "population": 17210}, {"name": "Carnaubeira da Penha", "country_iso2": "BR", "state": "Pernambuco", "is_capital": false, "latitude": -8.3219, "longitude": -38.7439, "population": 12239}, {"name": "Carnaíba", "country_iso2": "BR", "state": "Pernambuco", "is_capital": false, "latitude": -7.805, "longitude": -37.7939, "population": 18644}, {"name": "Carneirinho", "country_iso2": "BR", "state": "Minas Gerais", "is_capital": false, "latitude": -19.6978, "longitude": -50.6878, "population": 9422}, {"name": "Carneiros", "country_iso2": "BR", "state": "Alagoas", "is_capital": false, "latitude": -9.4828, "longitude": -37.3769, "population": 8999}, {"name": "Carpina", "country_iso2": "BR", "state": "Pernambuco", "is_capital": false, "latitude": -7.8508, "longitude": -35.2547, "population": 84395}, {"name": "Caruaru", "country_iso2": "BR", "state": "Pernambuco", "is_capital": false, "latitude": -8.2828, "longitude": -35.9758, "population": 253634}, {"name": "Carutapera", "country_iso2": "BR", "state": "Maranhão", "is_capital": false, "latitude": -1.195, "longitude": -46.02, "population": 24238}, {"name": "Caràzinho", "country_iso2": "BR", "state": "Rio Grande do Sul", "is_capital": false, "latitude": -28.2839, "longitude": -52.7864, "population": 62265}, {"name": "Casa Branca", "country_iso2": "BR", "state": "São Paulo", "is_capital": false, "latitude": -21.7739, "longitude": -47.0858, "population": 28083}, {"name": "Casa Nova", "country_iso2": "BR", "state": "Bahia", "is_capital": false, "latitude": -9.1619, "longitude": -40.9708, "population": 55730}, {"name": "Casca", "country_iso2": "BR", "state": "Rio Grande do Sul", "is_capital": false, "latitude": -28.5608, "longitude": -51.9778, "population": 9465}, {"name": "Cascavel", "country_iso2": "BR", "state": "Paraná", "is_capital": false, "latitude": -24.9558, "longitude": -53.4553, "population": 348051}, {"name": "Cascavel", "country_iso2": "BR", "state": "Ceará", "is_capital": false, "latitude": -4.1308, "longitude": -38.2358, "population": 57129}, {"name": "Casimiro de Abreu", "country_iso2": "BR", "state": "Rio de Janeiro", "is_capital": false, "latitude": -22.4808, "longitude": -42.2039, "population": 46110}, {"name": "Casinhas", "country_iso2": "BR", "state": "Pernambuco", "is_capital": false, "latitude": -7.7411, "longitude": -35.7211, "population": 12967},