[{"name": "Ashmyany", "country_iso2": "BY", "state": "Hrodzyenskaya Voblasts’", "is_capital": false, "latitude": 54.425, "longitude": 25.9375, "population": 16787}, {"name": "Asipovichy", "country_iso2": "BY", "state": "Mahilyowskaya Voblasts’", "is_capital": false, "latitude": 53.2933, "longitude": 28.4756, "population": 29103}, {"name": "Astravyets", "country_iso2": "BY", "state": "Hrodzyenskaya Voblasts’", "is_capital": false, "latitude": 54.6136, "longitude": 25.9553, "population": 15116}, {"name": "Babruysk", "country_iso2": "BY", "state": "Mahilyowskaya Voblasts’", "is_capital": false, "latitude": 53.15, "longitude": 29.2333, "population": 207351}, {"name": "Baran", "country_iso2": "BY", "state": "Vitsyebskaya Voblasts’", "is_capital": false, "latitude": 54.4833, "longitude": 30.3333, "population": 10245}, {"name": "Baranavichy", "country_iso2": "BY", "state": "Brestskaya Voblasts’", "is_capital": false, "latitude": 53.1333, "longitude": 26.0167, "population": 171361}, {"name": "Braslaw", "country_iso2": "BY", "state": "Vitsyebskaya Voblasts’", "is_capital": false, "latitude": 55.6391, "longitude": 27.0318, "population": 9419}, {"name": "Brest", "country_iso2": "BY", "state": "Brestskaya Voblasts’", "is_capital": true, "latitude": 52.1347, "longitude": 23.6569, "population": 344470}, {"name": "Buda-Kashalyova", "country_iso2": "BY", "state": "Homyel’skaya Voblasts’", "is_capital": false, "latitude": 52.7167, "longitude": 30.5667, "population": 8581}, {"name": "Byalynichy", "country_iso2": "BY", "state": "Mahilyowskaya Voblasts’", "is_capital": false, "latitude": 53.9956, "longitude": 29.7094, "population": 9670}, {"name": "Byaroza", "country_iso2": "BY", "state": "Brestskaya Voblasts’", "is_capital": false, "latitude": 52.55, "longitude": 24.9667, "population": 28376}, {"name": "Byarozawka", "country_iso2": "BY", "state": "Hrodzyenskaya Voblasts’", "is_capital": false, "latitude": 53.7167, "longitude": 25.5, "population": 9521}, {"name": "Byelaazyorsk", "country_iso2": "BY", "state": "Brestskaya Voblasts’", "is_capital": false, "latitude": 52.45, "longitude": 25.1667, "population": 10984}, {"name": "Byerazino", "country_iso2": "BY", "state": "Minskaya Voblasts’", "is_capital": false, "latitude": 53.8333, "longitude": 28.9833, "population": 11366}, {"name": "Bykhaw", "country_iso2": "BY", "state": "Mahilyowskaya Voblasts’", "is_capital": false, "latitude": 53.5167, "longitude": 30.25, "population": 16349}, {"name": "Chachersk", "country_iso2": "BY", "state": "Homyel’skaya Voblasts’", "is_capital": false, "latitude": 52.9161, "longitude": 30.9161, "population": 8927}, {"name": "Chavusy", "country_iso2": "BY", "state": "Mahilyowskaya Voblasts’", "is_capital": false, "latitude": 53.8075, "longitude": 30.9714, "population": 9817}, {"name": "Chervyen", "country_iso2": "BY", "state": "Minskaya Voblasts’", "is_capital": false, "latitude": 53.7078, "longitude": 28.4322, "population": 10545}, {"name": "Dobrush", "country_iso2": "BY", "state": "Homyel’skaya Voblasts’", "is_capital": false, "latitude": 52.4167, "longitude": 31.3167, "population": 18083}, {"name": "Drahichyn", "country_iso2": "BY", "state": "Brestskaya Voblasts’", "is_capital": false, "latitude": 52.1833, "longitude": 25.15, "population": 14804}, {"name": "Dzyarzhynsk", "country_iso2": "BY", "state": "Minskaya Voblasts’", "is_capital": false, "latitude": 53.6833, "longitude": 27.1333, "population": 29796}, {"name": "Fanipal’", "country_iso2": "BY", "state": "Minskaya Voblasts’", "is_capital": false, "latitude": 53.75, "longitude": 27.3333, "population": 18252}, {"name": "Hantsavichy", "country_iso2": "BY", "state": "Brestskaya Voblasts’", "is_capital": false, "latitude": 52.75, "longitude": 26.4333, "population": 13355}, {"name": "Haradok", "country_iso2": "BY", "state": "Vitsyebskaya Voblasts’", "is_capital": false, "latitude": 55.4667, "longitude": 30.0, "population": 11533}, {"name": "Hlybokaye", "country_iso2": "BY", "state": "Vitsyebskaya Voblasts’", "is_capital": false, "latitude": 55.1333, "longitude": 27.6833, "population": 17746}, {"name": "Homyel’", "country_iso2": "BY", "state": "Homyel’skaya Voblasts’", "is_capital": true, "latitude": 52.4453, "longitude": 30.9842, "population": 501102}, {"name": "Horad Smalyavichy", "country_iso2": "BY", "state": "Minskaya Voblasts’", "is_capital": false, "latitude": 54.1, "longitude": 28.0667, "population": 22679}, {"name": "Horki", "country_iso2": "BY", "state": "Mahilyowskaya Voblasts’", "is_capital": false, "latitude": 54.2667, "longitude": 30.9833, "population": 28961}, {"name": "Hrodna", "country_iso2": "BY", "state": "Hrodzyenskaya Voblasts’", "is_capital": true, "latitude": 53.6667, "longitude": 23.8333, "population": 361115}, {"name": "Ivanava", "country_iso2": "BY", "state": "Brestskaya Voblasts’", "is_capital": false, "latitude": 52.1333, "longitude": 25.55, "population": 16172}, {"name": "Ivatsevichy", "country_iso2": "BY", "state": "Brestskaya Voblasts’", "is_capital": false, "latitude": 52.7167, "longitude": 25.3333, "population": 22377}, {"name": "Kalinkavichy", "country_iso2": "BY", "state": "Homyel’skaya Voblasts’", "is_capital": false, "latitude": 52.125, "longitude": 29.3333, "population": 36941}, {"name": "Kapyl", "country_iso2": "BY", "state": "Minskaya Voblasts’", "is_capital": false, "latitude": 53.15, "longitude": 27.0917, "population": 9985}, {"name": "Kastsyukovichy", "country_iso2": "BY", "state": "Mahilyowskaya Voblasts’", "is_capital": false, "latitude": 53.3333, "longitude": 32.05, "population": 14870}, {"name": "Khoyniki", "country_iso2": "BY", "state": "Homyel’skaya Voblasts’", "is_capital": false, "latitude": 51.8892, "longitude": 29.9644, "population": 13167}, {"name": "Klimavichy", "country_iso2": "BY", "state": "Mahilyowskaya Voblasts’", "is_capital": false, "latitude": 53.6167, "longitude": 31.95, "population": 15020}, {"name": "Klyetsk", "country_iso2": "BY", "state": "Minskaya Voblasts’", "is_capital": false, "latitude": 53.0636, "longitude": 26.6372, "population": 11248}, {"name": "Kobryn", "country_iso2": "BY", "state": "Brestskaya Voblasts’", "is_capital": false, "latitude": 52.2167, "longitude": 24.3667, "population": 52635}, {"name": "Krychaw", "country_iso2": "BY", "state": "Mahilyowskaya Voblasts’", "is_capital": false, "latitude": 53.7194, "longitude": 31.7139, "population": 23264}, {"name": "Lahoysk", "country_iso2": "BY", "state": "Minskaya Voblasts’", "is_capital": false, "latitude": 54.2, "longitude": 27.85, "population": 15565}, {"name": "Lida", "country_iso2": "BY", "state": "Hrodzyenskaya Voblasts’", "is_capital": false, "latitude": 53.8956, "longitude": 25.2958, "population": 103916}, {"name": "Luninyets", "country_iso2": "BY", "state": "Brestskaya Voblasts’", "is_capital": false, "latitude": 52.25, "longitude": 26.8, "population": 23592}, {"name": "Lyakhavichy", "country_iso2": "BY", "state": "Brestskaya Voblasts’", "is_capital": false, "latitude": 53.0333, "longitude": 26.2667, "population": 10605}, {"name": "Lyelchytsy", "country_iso2": "BY", "state": "Homyel’skaya Voblasts’", "is_capital": false, "latitude": 51.7894, "longitude": 28.3214, "population": 12334}, {"name": "Lyepyel", "country_iso2": "BY", "state": "Vitsyebskaya Voblasts’", "is_capital": false, "latitude": 54.875, "longitude": 28.6944, "population": 17106}, {"name": "Lyuban", "country_iso2": "BY", "state": "Minskaya Voblasts’", "is_capital": false, "latitude": 52.7819, "longitude": 28.0525, "population": 11339}, {"name": "Machulishchy", "country_iso2": "BY", "state": "Minskaya Voblasts’", "is_capital": false, "latitude": 53.7814, "longitude": 27.5958, "population": 10583}, {"name": "Mahilyow", "country_iso2": "BY", "state": "Mahilyowskaya Voblasts’", "is_capital": true, "latitude": 53.9167, "longitude": 30.35, "population": 353110}, {"name": "Maladzyechna", "country_iso2": "BY", "state": "Minskaya Voblasts’", "is_capital": false, "latitude": 54.3208, "longitude": 26.8572, "population": 89068}, {"name": "Malaryta", "country_iso2": "BY", "state": "Brestskaya Voblasts’", "is_capital": false, "latitude": 51.7833, "longitude": 24.0833, "population": 12735}, {"name": "Mar’’ina Horka", "country_iso2": "BY", "state": "Minskaya Voblasts’", "is_capital": false, "latitude": 53.5072, "longitude": 28.1522, "population": 20096}, {"name": "Masty", "country_iso2": "BY", "state": "Hrodzyenskaya Voblasts’", "is_capital": false, "latitude": 53.417, "longitude": 24.55, "population": 14447}, {"name": "Mazyr", "country_iso2": "BY", "state": "Homyel’skaya Voblasts’", "is_capital": false, "latitude": 52.05, "longitude": 29.25, "population": 105152}, {"name": "Mikashevichy", "country_iso2": "BY", "state": "Brestskaya Voblasts’", "is_capital": false, "latitude": 52.2203, "longitude": 27.4736, "population": 12222}, {"name": "Minsk", "country_iso2": "BY", "state": "Minsk", "is_capital": true, "latitude": 53.9006, "longitude": 27.5586, "population": 1992862}, {"name": "Mstsislaw", "country_iso2": "BY", "state": "Mahilyowskaya Voblasts’", "is_capital": false, "latitude": 54.0167, "longitude": 31.7167, "population": 10019}, {"name": "Navahrudak", "country_iso2": "BY", "state": "Hrodzyenskaya Voblasts’", "is_capital": false, "latitude": 53.5833, "longitude": 25.8167, "population": 27936}, {"name": "Navapolatsk", "country_iso2": "BY", "state": "Vitsyebskaya Voblasts’", "is_capital": false, "latitude": 55.5333, "longitude": 28.65, "population": 95717}, {"name": "Novalukoml’", "country_iso2": "BY", "state": "Vitsyebskaya Voblasts’", "is_capital": false, "latitude": 54.6569, "longitude": 29.15, "population": 11841}, {"name": "Nyasvizh", "country_iso2": "BY", "state": "Minskaya Voblasts’", "is_capital": false, "latitude": 53.2167, "longitude": 26.6667, "population": 15968}, {"name": "Orsha", "country_iso2": "BY", "state": "Vitsyebskaya Voblasts’", "is_capital": false, "latitude": 54.5092, "longitude": 30.4258, "population": 102759}, {"name": "Pastavy", "country_iso2": "BY", "state": "Vitsyebskaya Voblasts’", "is_capital": false, "latitude": 55.1167, "longitude": 26.8333, "population": 18618}, {"name": "Pinsk", "country_iso2": "BY", "state": "Brestskaya Voblasts’", "is_capital": false, "latitude": 52.1153, "longitude": 26.1031, "population": 124295}, {"name": "Polatsk", "country_iso2": "BY", "state": "Vitsyebskaya Voblasts’", "is_capital": false, "latitude": 55.4833, "longitude": 28.8, "population": 79579}, {"name": "Pruzhany", "country_iso2": "BY", "state": "Brestskaya Voblasts’", "is_capital": false, "latitude": 52.5567, "longitude": 24.4644, "population": 18994}, {"name": "Pyetrykaw", "country_iso2": "BY", "state": "Homyel’skaya Voblasts’", "is_capital": false, "latitude": 52.1333, "longitude": 28.5, "population": 10401}, {"name": "Rahachow", "country_iso2": "BY", "state": "Homyel’skaya Voblasts’", "is_capital": false, "latitude": 53.1, "longitude": 30.05, "population": 31821}, {"name": "Rechytsa", "country_iso2": "BY", "state": "Homyel’skaya Voblasts’", "is_capital": false, "latitude": 54.3667, "longitude": 30.4, "population": 65213}, {"name": "Salihorsk", "country_iso2": "BY", "state": "Minskaya Voblasts’", "is_capital": false, "latitude": 52.8, "longitude": 27.5333, "population": 97818}, {"name": "Shchuchyn", "country_iso2": "BY", "state": "Hrodzyenskaya Voblasts’", "is_capital": false, "latitude": 53.6167, "longitude": 24.7333, "population": 15371}, {"name": "Shklow", "country_iso2": "BY", "state": "Mahilyowskaya Voblasts’", "is_capital": false, "latitude": 54.2236, "longitude": 30.2864, "population": 14870}, {"name": "Skidal’", "country_iso2": "BY", "state": "Hrodzyenskaya Voblasts’", "is_capital": false, "latitude": 53.5833, "longitude": 24.25, "population": 9707}, {"name": "Slonim", "country_iso2": "BY", "state": "Hrodzyenskaya Voblasts’", "is_capital": false, "latitude": 53.0833, "longitude": 25.3167, "population": 48907}, {"name": "Slutsk", "country_iso2": "BY", "state": "Minskaya Voblasts’", "is_capital": false, "latitude": 53.0333, "longitude": 27.5667, "population": 60056}, {"name": "Smarhon", "country_iso2": "BY", "state": "Hrodzyenskaya Voblasts’", "is_capital": false, "latitude": 54.4836, "longitude": 26.4, "population": 35422}, {"name": "Staryya Darohi", "country_iso2": "BY", "state": "Minskaya Voblasts’", "is_capital": false, "latitude": 53.0394, "longitude": 28.265, "population": 10898}, {"name": "Stolin", "country_iso2": "BY", "state": "Brestskaya Voblasts’", "is_capital": false, "latitude": 51.8833, "longitude": 26.85, "population": 13785}, {"name": "Stowbtsy", "country_iso2": "BY", "state": "Minskaya Voblasts’", "is_capital": false, "latitude": 53.4833, "longitude": 26.7333, "population": 17737}, {"name": "Svyetlahorsk", "country_iso2": "BY", "state": "Homyel’skaya Voblasts’", "is_capital": false, "latitude": 52.6333, "longitude": 29.7333, "population": 62602}, {"name": "Talachyn", "country_iso2": "BY", "state": "Vitsyebskaya Voblasts’", "is_capital": false, "latitude": 54.4167, "longitude": 29.7, "population": 9666}, {"name": "Uzda", "country_iso2": "BY", "state": "Minskaya Voblasts’", "is_capital": false, "latitude": 53.4661, "longitude": 27.2244, "population": 10619}, {"name": "Valozhyn", "country_iso2": "BY", "state": "Minskaya Voblasts’", "is_capital": false, "latitude": 54.0833, "longitude": 26.5167, "population": 10015}, {"name": "Vawkavysk", "country_iso2": "BY", "state": "Hrodzyenskaya Voblasts’", "is_capital": false, "latitude": 53.1667, "longitude": 24.4667, "population": 41510}, {"name": "Vilyeyka", "country_iso2": "BY", "state": "Minskaya Voblasts’", "is_capital": false, "latitude": 54.4972, "longitude": 26.9111, "population": 26625}, {"name": "Vitsyebsk", "country_iso2": "BY", "state": "Vitsyebskaya Voblasts’", "is_capital": true, "latitude": 55.1917, "longitude": 30.2056, "population": 358395}, {"name": "Vyetka", "country_iso2": "BY", "state": "Homyel’skaya Voblasts’", "is_capital": false, "latitude": 52.5667, "longitude": 31.1833, "population": 8599}, {"name": "Yelsk", "country_iso2": "BY", "state": "Homyel’skaya Voblasts’", "is_capital": false, "latitude": 51.8167, "longitude": 29.15, "population": 8724}, {"name": "Zaslawye", "country_iso2": "BY", "state": "Minskaya Voblasts’", "is_capital": false, "latitude": 54.0083, "longitude": 27.2847, "population": 17404}, {"name": "Zhabinka", "country_iso2": "BY", "state": "Brestskaya Voblasts’", "is_capital": false, "latitude": 52.2006, "longitude": 24.0233, "population": 14418}, {"name": "Zhlobin", "country_iso2": "BY", "state": "Homyel’skaya Voblasts’", "is_capital": false, "latitude": 52.9, "longitude": 30.0333, "population": 76844}, {"name": "Zhytkavichy", "country_iso2": "BY", "state": "Homyel’skaya Voblasts’", "is_capital": false, "latitude": 52.2333, "longitude": 27.8667, "population": 15950}]