[{"name": "Belize City", "country_iso2": "BZ", "state": "Belize", "is_capital": true, "latitude": 17.4986, "longitude": -88.1886, "population": 38500}, {"name": "Belmopan", "country_iso2": "BZ", "state": "Cayo", "is_capital": true, "latitude": 17.2522, "longitude": -88.7639, "population": 4000}, {"name": "Corozal", "country_iso2": "BZ", "state": "Corozal", "is_capital": true, "latitude": 18.4, "longitude": -88.4, "population": 13502}, {"name": "Dangriga", "country_iso2": "BZ", "state": "Stann Creek", "is_capital": true, "latitude": 16.9667, "longitude": -88.2167, "population": 10217}, {"name": "Orange Walk", "country_iso2": "BZ", "state": "Orange Walk", "is_capital": true, "latitude": 18.075, "longitude": -88.5583, "population": 13750}, {"name": "Punta Gorda", "country_iso2": "BZ", "state": "Toledo", "is_capital": true, "latitude": 16.1, "longitude": -88.8, "population": 5026}, {"name": "San Ignacio", "country_iso2": "BZ", "state": "Cayo", "is_capital": true, "latitude": 17.1588, "longitude": -89.0696, "population": 26151}, {"name": "San Pedro", "country_iso2": "BZ", "state": "Belize", "is_capital": false, "latitude": 17.9214, "longitude": -87.9611, "population": 11767}]