[{"name": "Aketi", "country_iso2": "CD", "state": "Bas-Uélé", "is_capital": false, "latitude": 2.7333, "longitude": 23.75, "population": 38588}, {"name": "Aru", "country_iso2": "CD", "state": "Ituri", "is_capital": false, "latitude": 2.8617, "longitude": 30.8333, "population": 26290}, {"name": "Bafwasende", "country_iso2": "CD", "state": "Tshopo", "is_capital": false, "latitude": 1.0103, "longitude": 27.1617, "population": 149}, {"name": "Bakwa-Kalonji", "country_iso2": "CD", "state": "Kasaï", "is_capital": false, "latitude": -4.35, "longitude": 20.72, "population": 58092}, {"name": "Bandundu", "country_iso2": "CD", "state": "Kwilu", "is_capital": true, "latitude": -3.3167, "longitude": 17.3667, "population": 143435}, {"name": "Baraka", "country_iso2": "CD", "state": "Sud-Kivu", "is_capital": false, "latitude": -4.1041, "longitude": 29.094, "population": 120000}, {"name": "Basankusu", "country_iso2": "CD", "state": "Équateur", "is_capital": false, "latitude": 1.2222, "longitude": 19.8028, "population": 23764}, {"name": "Basoko", "country_iso2": "CD", "state": "Tshopo", "is_capital": false, "latitude": 1.2333, "longitude": 23.6, "population": 47970}, {"name": "Beni", "country_iso2": "CD", "state": "Nord-Kivu", "is_capital": false, "latitude": 0.5, "longitude": 29.4667, "population": 232000}, {"name": "Binga", "country_iso2": "CD", "state": "Mongala", "is_capital": false, "latitude": 2.4, "longitude": 20.42, "population": 64639}, {"name": "Boende", "country_iso2": "CD", "state": "Tshuapa", "is_capital": true, "latitude": -0.281, "longitude": 20.876, "population": 36158}, {"name": "Bolobo", "country_iso2": "CD", "state": "Mai-Ndombe", "is_capital": false, "latitude": -2.1667, "longitude": 16.2333, "population": 31366}, {"name": "Boma", "country_iso2": "CD", "state": "Kongo Central", "is_capital": false, "latitude": -5.85, "longitude": 13.05, "population": 162521}, {"name": "Bondo", "country_iso2": "CD", "state": "Bas-Uélé", "is_capital": false, "latitude": 3.8167, "longitude": 23.6833, "population": 19601}, {"name": "Bongandanga", "country_iso2": "CD", "state": "Mongala", "is_capital": false, "latitude": 1.51, "longitude": 21.05, "population": 4625}, {"name": "Bosobolo", "country_iso2": "CD", "state": "Nord-Ubangi", "is_capital": false, "latitude": 4.1833, "longitude": 19.9, "population": 16397}, {"name": "Bukama", "country_iso2": "CD", "state": "Haut-Lomami", "is_capital": false, "latitude": -9.2, "longitude": 25.8333, "population": 42718}, {"name": "Bukavu", "country_iso2": "CD", "state": "Sud-Kivu", "is_capital": true, "latitude": -2.5061, "longitude": 28.8608, "population": 1133000}, {"name": "Buluko", "country_iso2": "CD", "state": "Nord-Kivu", "is_capital": false, "latitude": -0.757, "longitude": 28.528, "population": 1192}, {"name": "Bulungu", "country_iso2": "CD", "state": "Kwilu", "is_capital": false, "latitude": -4.55, "longitude": 18.6, "population": 57168}, {"name": "Bumba", "country_iso2": "CD", "state": "Mongala", "is_capital": false, "latitude": 2.1844, "longitude": 22.4703, "population": 103328}, {"name": "Bunia", "country_iso2": "CD", "state": "Ituri", "is_capital": true, "latitude": 1.5667, "longitude": 30.25, "population": 900666}, {"name": "Businga", "country_iso2": "CD", "state": "Nord-Ubangi", "is_capital": false, "latitude": 3.3397, "longitude": 20.87, "population": 32584}, {"name": "Buta", "country_iso2": "CD", "state": "Bas-Uélé", "is_capital": true, "latitude": 2.8, "longitude": 24.7333, "population": 55313}, {"name": "Butembo", "country_iso2": "CD", "state": "Nord-Kivu", "is_capital": false, "latitude": 0.15, "longitude": 29.2833, "population": 154621}, {"name": "Demba", "country_iso2": "CD", "state": "Kasaï Central", "is_capital": false, "latitude": -5.5, "longitude": 22.2667, "population": 25384}, {"name": "Dibaya", "country_iso2": "CD", "state": "Kasaï Central", "is_capital": false, "latitude": -6.5095, "longitude": 22.87, "population": 603}, {"name": "Dibaya-Lubwe", "country_iso2": "CD", "state": "Kwilu", "is_capital": false, "latitude": -4.15, "longitude": 19.8667, "population": 38933}, {"name": "Dilolo", "country_iso2": "CD", "state": "Lualaba", "is_capital": false, "latitude": -10.4667, "longitude": 22.4667, "population": 7854}, {"name": "Djugu", "country_iso2": "CD", "state": "Ituri", "is_capital": false, "latitude": 1.9184, "longitude": 30.5019, "population": 28061}, {"name": "Doruma", "country_iso2": "CD", "state": "Haut-Uélé", "is_capital": false, "latitude": 4.7333, "longitude": 27.7, "population": 18000}, {"name": "Drodro", "country_iso2": "CD", "state": "Ituri", "is_capital": false, "latitude": 1.7667, "longitude": 30.5333, "population": 25000}, {"name": "Dungu", "country_iso2": "CD", "state": "Haut-Uélé", "is_capital": false, "latitude": 3.6167, "longitude": 28.5667, "population": 52000}, {"name": "Fungurume", "country_iso2": "CD", "state": "Lualaba", "is_capital": false, "latitude": -10.6167, "longitude": 26.3, "population": 34104}, {"name": "Gandajika", "country_iso2": "CD", "state": "Lomami", "is_capital": false, "latitude": -6.75, "longitude": 23.9667, "population": 146217}, {"name": "Gbadolite", "country_iso2": "CD", "state": "Nord-Ubangi", "is_capital": true, "latitude": 4.2833, "longitude": 21.0167, "population": 198839}, {"name": "Gemena", "country_iso2": "CD", "state": "Sud-Ubangi", "is_capital": true, "latitude": 3.25, "longitude": 19.7667, "population": 138527}, {"name": "Goma", "country_iso2": "CD", "state": "Nord-Kivu", "is_capital": true, "latitude": -1.6794, "longitude": 29.2336, "population": 249862}, {"name": "Gungu", "country_iso2": "CD", "state": "Kwilu", "is_capital": false, "latitude": -5.7333, "longitude": 19.3167, "population": 23893}, {"name": "Hyosha", "country_iso2": "CD", "state": "Nord-Kivu", "is_capital": false, "latitude": 0.6975, "longitude": 29.5197, "population": 52921}, {"name": "Idiofa", "country_iso2": "CD", "state": "Kwilu", "is_capital": false, "latitude": -4.9668, "longitude": 19.591, "population": 61056}, {"name": "Ikela", "country_iso2": "CD", "state": "Tshuapa", "is_capital": false, "latitude": -1.1833, "longitude": 23.2667, "population": 291}, {"name": "Ilebo", "country_iso2": "CD", "state": "Kasaï", "is_capital": false, "latitude": -4.3167, "longitude": 20.6, "population": 107093}, {"name": "Inongo", "country_iso2": "CD", "state": "Mai-Ndombe", "is_capital": true, "latitude": -1.95, "longitude": 18.2667, "population": 45159}, {"name": "Isiro", "country_iso2": "CD", "state": "Haut-Uélé", "is_capital": true, "latitude": 2.7833, "longitude": 27.6167, "population": 182900}, {"name": "Kabalo", "country_iso2": "CD", "state": "Tanganyika", "is_capital": false, "latitude": -6.05, "longitude": 26.9167, "population": 29833}, {"name": "Kabinda", "country_iso2": "CD", "state": "Lomami", "is_capital": true, "latitude": -6.13, "longitude": 24.48, "population": 572000}, {"name": "Kahemba", "country_iso2": "CD", "state": "Kwango", "is_capital": false, "latitude": -7.2829, "longitude": 19.0, "population": 50000}, {"name": "Kalemie", "country_iso2": "CD", "state": "Tanganyika", "is_capital": true, "latitude": -5.9128, "longitude": 29.1906, "population": 146974}, {"name": "Kalima", "country_iso2": "CD", "state": "Maniema", "is_capital": false, "latitude": -2.5667, "longitude": 26.6167, "population": 48337}, {"name": "Kambove", "country_iso2": "CD", "state": "Haut-Katanga", "is_capital": false, "latitude": -10.8764, "longitude": 26.5969, "population": 36702}, {"name": "Kamina", "country_iso2": "CD", "state": "Haut-Lomami", "is_capital": true, "latitude": -8.7386, "longitude": 24.9906, "population": 156761}, {"name": "Kamituga", "country_iso2": "CD", "state": "Sud-Kivu", "is_capital": false, "latitude": -3.06, "longitude": 28.18, "population": 13995}, {"name": "Kampene", "country_iso2": "CD", "state": "Maniema", "is_capital": false, "latitude": -3.5968, "longitude": 26.6658, "population": 37034}, {"name": "Kananga", "country_iso2": "CD", "state": "Kasaï Central", "is_capital": true, "latitude": -5.897, "longitude": 22.4488, "population": 1971704}, {"name": "Kaniama", "country_iso2": "CD", "state": "Haut-Lomami", "is_capital": false, "latitude": -7.5696, "longitude": 24.17, "population": 36481}, {"name": "Kanyobagonga", "country_iso2": "CD", "state": "Nord-Kivu", "is_capital": false, "latitude": -0.702, "longitude": 29.1726, "population": 65000}, {"name": "Kasaji", "country_iso2": "CD", "state": "Lualaba", "is_capital": false, "latitude": -10.3662, "longitude": 23.45, "population": 11969}, {"name": "Kasangulu", "country_iso2": "CD", "state": "Kongo Central", "is_capital": false, "latitude": -4.5911, "longitude": 15.1703, "population": 27961}, {"name": "Kasongo", "country_iso2": "CD", "state": "Maniema", "is_capital": false, "latitude": -4.45, "longitude": 26.65, "population": 63000}, {"name": "Kasongo-Lunda", "country_iso2": "CD", "state": "Kwango", "is_capital": false, "latitude": -6.4783, "longitude": 16.8166, "population": 23820}, {"name": "Kasumbalesa", "country_iso2": "CD", "state": "Haut-Katanga", "is_capital": false, "latitude": -12.2564, "longitude": 27.8028, "population": 47213}, {"name": "Kenge", "country_iso2": "CD", "state": "Kwango", "is_capital": true, "latitude": -4.8056, "longitude": 17.0417, "population": 44743}, {"name": "Kibanseke Première", "country_iso2": "CD", "state": "Kinshasa", "is_capital": false, "latitude": -4.4419, "longitude": 15.395, "population": 946372}, {"name": "Kikwit", "country_iso2": "CD", "state": "Kwilu", "is_capital": false, "latitude": -5.0386, "longitude": 18.8181, "population": 458000}, {"name": "Kimpese", "country_iso2": "CD", "state": "Kongo Central", "is_capital": false, "latitude": -5.5631, "longitude": 14.4458, "population": 10578}, {"name": "Kindu", "country_iso2": "CD", "state": "Maniema", "is_capital": true, "latitude": -2.95, "longitude": 25.95, "population": 172321}, {"name": "Kinshasa", "country_iso2": "CD", "state": "Kinshasa", "is_capital": true, "latitude": -4.3219, "longitude": 15.3119, "population": 12836000}, {"name": "Kinzau-Vuete", "country_iso2": "CD", "state": "Kongo Central", "is_capital": false, "latitude": -5.4967, "longitude": 13.2893, "population": 18676}, {"name": "Kipushi", "country_iso2": "CD", "state": "Haut-Katanga", "is_capital": false, "latitude": -11.7625, "longitude": 27.25, "population": 132861}, {"name": "Kiri", "country_iso2": "CD", "state": "Mai-Ndombe", "is_capital": false, "latitude": -1.4955, "longitude": 18.9277, "population": 14612}, {"name": "Kisangani", "country_iso2": "CD", "state": "Tshopo", "is_capital": true, "latitude": 0.5167, "longitude": 25.2, "population": 1081000}, {"name": "Kisenzi", "country_iso2": "CD", "state": "Kinshasa", "is_capital": false, "latitude": -4.4094, "longitude": 15.3425, "population": 386151}, {"name": "Kolwezi", "country_iso2": "CD", "state": "Lualaba", "is_capital": true, "latitude": -10.7167, "longitude": 25.4667, "population": 480000}, {"name": "Kongolo", "country_iso2": "CD", "state": "Tanganyika", "is_capital": false, "latitude": -5.4, "longitude": 27.0, "population": 105202}, {"name": "Libenge", "country_iso2": "CD", "state": "Sud-Ubangi", "is_capital": false, "latitude": 3.6508, "longitude": 18.6375, "population": 27053}, {"name": "Likasi", "country_iso2": "CD", "state": "Haut-Katanga", "is_capital": false, "latitude": -10.9833, "longitude": 26.7333, "population": 495000}, {"name": "Lingwala", "country_iso2": "CD", "state": "Kinshasa", "is_capital": false, "latitude": -4.3203, "longitude": 15.2983, "population": 94635}, {"name": "Lisala", "country_iso2": "CD", "state": "Mongala", "is_capital": true, "latitude": 2.1486, "longitude": 21.5136, "population": 79235}, {"name": "Lodja", "country_iso2": "CD", "state": "Sankuru", "is_capital": false, "latitude": -3.5242, "longitude": 23.5964, "population": 68244}, {"name": "Luanza", "country_iso2": "CD", "state": "Haut-Katanga", "is_capital": false, "latitude": -8.6996, "longitude": 28.7, "population": 861}, {"name": "Lubao", "country_iso2": "CD", "state": "Lomami", "is_capital": false, "latitude": -5.385, "longitude": 25.745, "population": 43068}, {"name": "Lubumbashi", "country_iso2": "CD", "state": "Haut-Katanga", "is_capital": true, "latitude": -11.6647, "longitude": 27.4794, "population": 1786397}, {"name": "Lubutu", "country_iso2": "CD", "state": "Maniema", "is_capital": false, "latitude": -0.7431, "longitude": 26.5833, "population": 1313}, {"name": "Luebo", "country_iso2": "CD", "state": "Kasaï", "is_capital": false, "latitude": -5.35, "longitude": 21.4167, "population": 40115}, {"name": "Lukula", "country_iso2": "CD", "state": "Kongo Central", "is_capital": false, "latitude": -5.4, "longitude": 12.9333, "population": 26878}, {"name": "Luozi", "country_iso2": "CD", "state": "Kongo Central", "is_capital": false, "latitude": -4.948, "longitude": 14.133, "population": 13855}, {"name": "Lusambo", "country_iso2": "CD", "state": "Sankuru", "is_capital": true, "latitude": -4.9729, "longitude": 23.4368, "population": 41416}, {"name": "Lusanga", "country_iso2": "CD", "state": "Kwango", "is_capital": false, "latitude": -5.5808, "longitude": 16.5143, "population": 177}, {"name": "Luvungi", "country_iso2": "CD", "state": "Sud-Kivu", "is_capital": false, "latitude": -2.86, "longitude": 29.03, "population": 85000}, {"name": "Mangai", "country_iso2": "CD", "state": "Kwilu", "is_capital": false, "latitude": -4.0499, "longitude": 19.5333, "population": 37188}, {"name": "Mangbwalu", "country_iso2": "CD", "state": "Ituri", "is_capital": false, "latitude": 1.9352, "longitude": 30.0462, "population": 2819}, {"name": "Manono", "country_iso2": "CD", "state": "Tanganyika", "is_capital": false, "latitude": -7.2947, "longitude": 27.4545, "population": 46111}, {"name": "Masi-Manimba", "country_iso2": "CD", "state": "Kwilu", "is_capital": false, "latitude": -4.779, "longitude": 17.9077, "population": 31802}, {"name": "Matadi", "country_iso2": "CD", "state": "Kongo Central", "is_capital": true, "latitude": -5.8167, "longitude": 13.4833, "population": 448000}, {"name": "Mbandaka", "country_iso2": "CD", "state": "Équateur", "is_capital": true, "latitude": 0.0478, "longitude": 18.2558, "population": 1187837}, {"name": "Mbanza-Ngungu", "country_iso2": "CD", "state": "Kongo Central", "is_capital": false, "latitude": -5.25, "longitude": 14.8667, "population": 100000}, {"name": "Mbuji-Mayi", "country_iso2": "CD", "state": "Kasaï Oriental", "is_capital": true, "latitude": -6.15, "longitude": 23.6, "population": 2892000}, {"name": "Mbulungu", "country_iso2": "CD", "state": "Kasaï Central", "is_capital": false, "latitude": -6.0667, "longitude": 21.9, "population": 54424}, {"name": "Moanda", "country_iso2": "CD", "state": "Kongo Central", "is_capital": false, "latitude": -5.9342, "longitude": 12.3494, "population": 153915}, {"name": "Moba", "country_iso2": "CD", "state": "Tanganyika", "is_capital": false, "latitude": -7.0398, "longitude": 29.7661, "population": 10006}, {"name": "Mulongo", "country_iso2": "CD", "state": "Haut-Lomami", "is_capital": false, "latitude": -7.8333, "longitude": 27.0, "population": 51603}, {"name": "Mushie", "country_iso2": "CD", "state": "Mai-Ndombe", "is_capital": false, "latitude": -3.0167, "longitude": 16.9167, "population": 33062}, {"name": "Mweka", "country_iso2": "CD", "state": "Kasaï", "is_capital": false, "latitude": -4.85, "longitude": 21.5667, "population": 50675}, {"name": "Mwene-Ditu", "country_iso2": "CD", "state": "Lomami", "is_capital": false, "latitude": -7.0, "longitude": 23.45, "population": 195622}, {"name": "Mwenga", "country_iso2": "CD", "state": "Sud-Kivu", "is_capital": false, "latitude": -3.0382, "longitude": 28.4325, "population": 2216}, {"name": "Ndjili", "country_iso2": "CD", "state": "Kinshasa", "is_capital": false, "latitude": -4.4089, "longitude": 15.3775, "population": 442138}, {"name": "Nsele", "country_iso2": "CD", "state": "Kinshasa", "is_capital": false, "latitude": -4.3744, "longitude": 15.4947, "population": 140929}, {"name": "Nyunzu", "country_iso2": "CD", "state": "Tanganyika", "is_capital": false, "latitude": -5.95, "longitude": 28.0333, "population": 42589}, {"name": "Oshwe", "country_iso2": "CD", "state": "Mai-Ndombe", "is_capital": false, "latitude": -3.4188, "longitude": 19.4334, "population": 22576}, {"name": "Pepa", "country_iso2": "CD", "state": "Tanganyika", "is_capital": false, "latitude": -7.7106, "longitude": 29.776, "population": 24767}, {"name": "Poko", "country_iso2": "CD", "state": "Bas-Uélé", "is_capital": false, "latitude": 3.15, "longitude": 26.8833, "population": 11253}, {"name": "Pweto", "country_iso2": "CD", "state": "Haut-Katanga", "is_capital": false, "latitude": -8.4667, "longitude": 28.9, "population": 24767}, {"name": "Sake", "country_iso2": "CD", "state": "Nord-Kivu", "is_capital": false, "latitude": -1.5741, "longitude": 29.0413, "population": 17151}, {"name": "Tshela", "country_iso2": "CD", "state": "Kongo Central", "is_capital": false, "latitude": -4.9667, "longitude": 12.9333, "population": 38845}, {"name": "Tshikapa", "country_iso2": "CD", "state": "Kasaï", "is_capital": true, "latitude": -6.4167, "longitude": 20.8, "population": 1006387}, {"name": "Tshilenge", "country_iso2": "CD", "state": "Kasaï Oriental", "is_capital": false, "latitude": -6.25, "longitude": 23.7667, "population": 84651}, {"name": "Uvira", "country_iso2": "CD", "state": "Sud-Kivu", "is_capital": false, "latitude": -3.4, "longitude": 29.15, "population": 726000}, {"name": "Wamba", "country_iso2": "CD", "state": "Haut-Uélé", "is_capital": false, "latitude": 2.1442, "longitude": 27.9929, "population": 146871}, {"name": "Watsa", "country_iso2": "CD", "state": "Haut-Uélé", "is_capital": false, "latitude": 3.0372, "longitude": 29.5355, "population": 24516}, {"name": "Yakoma", "country_iso2": "CD", "state": "Nord-Ubangi", "is_capital": false, "latitude": 4.0982, "longitude": 22.4432, "population": 12210}, {"name": "Yangambi", "country_iso2": "CD", "state": "Tshopo", "is_capital": false, "latitude": 0.7675, "longitude": 24.4414, "population": 35531}, {"name": "Zongo", "country_iso2": "CD", "state": "Sud-Ubangi", "is_capital": false, "latitude": 4.3433, "longitude": 18.5928, "population": 53743}]