[{"name": "Abengourou", "country_iso2": "CI", "state": "Comoé", "is_capital": true, "latitude": 6.7297, "longitude": -3.4964, "population": 164424}, {"name": "Abidjan", "country_iso2": "CI", "state": "Abidjan", "is_capital": true, "latitude": 5.3364, "longitude": -4.0267, "population": 4980000}, {"name": "Aboisso", "country_iso2": "CI", "state": "Comoé", "is_capital": false, "latitude": 5.4667, "longitude": -3.2, "population": 100903}, {"name": "Adzopé", "country_iso2": "CI", "state": "Lagunes", "is_capital": false, "latitude": 6.1035, "longitude": -3.8648, "population": 156488}, {"name": "Agboville", "country_iso2": "CI", "state": "Lagunes", "is_capital": false, "latitude": 5.9333, "longitude": -4.2167, "population": 135082}, {"name": "Ahigbé Koffikro", "country_iso2": "CI", "state": "Comoé", "is_capital": false, "latitude": 5.4075, "longitude": -3.3802, "population": 14928}, {"name": "Attiecoubé", "country_iso2": "CI", "state": "Abidjan", "is_capital": false, "latitude": 5.3453, "longitude": -4.035, "population": 313135}, {"name": "Biankouma", "country_iso2": "CI", "state": "Montagnes", "is_capital": false, "latitude": 7.7333, "longitude": -7.6167, "population": 71470}, {"name": "Bin-Houyé", "country_iso2": "CI", "state": "Montagnes", "is_capital": false, "latitude": 6.7825, "longitude": -8.3163, "population": 28499}, {"name": "Bingerville", "country_iso2": "CI", "state": "Abidjan", "is_capital": false, "latitude": 5.35, "longitude": -3.9, "population": 204656}, {"name": "Bondoukou", "country_iso2": "CI", "state": "Zanzan", "is_capital": true, "latitude": 8.0304, "longitude": -2.8, "population": 141568}, {"name": "Bongouanou", "country_iso2": "CI", "state": "Comoé", "is_capital": false, "latitude": 6.6517, "longitude": -4.2041, "population": 74281}, {"name": "Bonoufla", "country_iso2": "CI", "state": "Sassandra-Marahoué", "is_capital": false, "latitude": 7.1291, "longitude": -6.4742, "population": 23467}, {"name": "Bouaflé", "country_iso2": "CI", "state": "Sassandra-Marahoué", "is_capital": false, "latitude": 6.9903, "longitude": -5.7442, "population": 213967}, {"name": "Bouaké", "country_iso2": "CI", "state": "Vallée du Bandama", "is_capital": true, "latitude": 7.6833, "longitude": -5.0331, "population": 740000}, {"name": "Bouna", "country_iso2": "CI", "state": "Zanzan", "is_capital": false, "latitude": 9.2667, "longitude": -3.0, "population": 94883}, {"name": "Boundiali", "country_iso2": "CI", "state": "Savanes", "is_capital": false, "latitude": 9.5167, "longitude": -6.4833, "population": 92792}, {"name": "Brofodoumé", "country_iso2": "CI", "state": "Abidjan", "is_capital": false, "latitude": 5.5136, "longitude": -3.9307, "population": 15842}, {"name": "Bédigoazon", "country_iso2": "CI", "state": "Montagnes", "is_capital": false, "latitude": 6.5663, "longitude": -7.7204, "population": 16872}, {"name": "Cocody", "country_iso2": "CI", "state": "Abidjan", "is_capital": false, "latitude": 5.3351, "longitude": -4.0039, "population": 692583}, {"name": "Dabakala", "country_iso2": "CI", "state": "Vallée du Bandama", "is_capital": false, "latitude": 8.3667, "longitude": -4.4333, "population": 78634}, {"name": "Dabou", "country_iso2": "CI", "state": "Lagunes", "is_capital": true, "latitude": 5.3256, "longitude": -4.3767, "population": 138083}, {"name": "Daloa", "country_iso2": "CI", "state": "Sassandra-Marahoué", "is_capital": true, "latitude": 6.89, "longitude": -6.45, "population": 421871}, {"name": "Daoukro", "country_iso2": "CI", "state": "Lacs", "is_capital": false, "latitude": 7.0586, "longitude": -3.9646, "population": 101136}, {"name": "Dimbokro", "country_iso2": "CI", "state": "Lacs", "is_capital": true, "latitude": 6.6505, "longitude": -4.71, "population": 70198}, {"name": "Divo", "country_iso2": "CI", "state": "Gôh-Djiboua", "is_capital": false, "latitude": 5.8372, "longitude": -5.3572, "population": 294559}, {"name": "Doukouya", "country_iso2": "CI", "state": "Gôh-Djiboua", "is_capital": false, "latitude": 6.4262, "longitude": -5.5592, "population": 14881}, {"name": "Duekoué", "country_iso2": "CI", "state": "Montagnes", "is_capital": false, "latitude": 6.7419, "longitude": -7.3492, "population": 220953}, {"name": "Ferkessédougou", "country_iso2": "CI", "state": "Savanes", "is_capital": false, "latitude": 9.5928, "longitude": -5.1944, "population": 160267}, {"name": "Gagnoa", "country_iso2": "CI", "state": "Gôh-Djiboua", "is_capital": true, "latitude": 6.1333, "longitude": -5.9333, "population": 277044}, {"name": "Grand-Bassam", "country_iso2": "CI", "state": "Comoé", "is_capital": false, "latitude": 5.2, "longitude": -3.7333, "population": 124567}, {"name": "Grand-Lahou", "country_iso2": "CI", "state": "Lagunes", "is_capital": false, "latitude": 5.1333, "longitude": -5.0167, "population": 28470}, {"name": "Guiglo", "country_iso2": "CI", "state": "Montagnes", "is_capital": false, "latitude": 6.5436, "longitude": -7.4933, "population": 171454}, {"name": "Jacqueville", "country_iso2": "CI", "state": "Lagunes", "is_capital": false, "latitude": 5.2, "longitude": -4.4167, "population": 49694}, {"name": "Katiola", "country_iso2": "CI", "state": "Vallée du Bandama", "is_capital": false, "latitude": 8.1333, "longitude": -5.1, "population": 90641}, {"name": "Kong", "country_iso2": "CI", "state": "Savanes", "is_capital": false, "latitude": 9.1506, "longitude": -4.6103, "population": 33391}, {"name": "Korhogo", "country_iso2": "CI", "state": "Savanes", "is_capital": true, "latitude": 9.4578, "longitude": -5.6294, "population": 440926}, {"name": "Koumassi", "country_iso2": "CI", "state": "Abidjan", "is_capital": false, "latitude": 5.2972, "longitude": -3.9675, "population": 412282}, {"name": "Luénoufla", "country_iso2": "CI", "state": "Sassandra-Marahoué", "is_capital": false, "latitude": 7.0724, "longitude": -6.2413, "population": 19643}, {"name": "Mabéhiri", "country_iso2": "CI", "state": "Bas-Sassandra", "is_capital": false, "latitude": 5.6667, "longitude": -6.4167, "population": 17909}, {"name": "Man", "country_iso2": "CI", "state": "Montagnes", "is_capital": true, "latitude": 7.4004, "longitude": -7.55, "population": 241969}, {"name": "Mankono", "country_iso2": "CI", "state": "Woroba", "is_capital": false, "latitude": 8.0586, "longitude": -6.1897, "population": 74165}, {"name": "Marcory", "country_iso2": "CI", "state": "Abidjan", "is_capital": false, "latitude": 5.312, "longitude": -3.9936, "population": 214061}, {"name": "Mignouré", "country_iso2": "CI", "state": "Sassandra-Marahoué", "is_capital": false, "latitude": 7.4875, "longitude": -6.7882, "population": 14025}, {"name": "Minignan", "country_iso2": "CI", "state": "Denguélé", "is_capital": false, "latitude": 9.9974, "longitude": -7.8359, "population": 14521}, {"name": "Noé", "country_iso2": "CI", "state": "Comoé", "is_capital": false, "latitude": 5.2833, "longitude": -2.8, "population": 27938}, {"name": "Odienné", "country_iso2": "CI", "state": "Denguélé", "is_capital": true, "latitude": 9.5, "longitude": -7.5667, "population": 86279}, {"name": "Oumé", "country_iso2": "CI", "state": "Gôh-Djiboua", "is_capital": false, "latitude": 6.3833, "longitude": -5.4167, "population": 127153}, {"name": "Papara", "country_iso2": "CI", "state": "Savanes", "is_capital": false, "latitude": 10.6167, "longitude": -6.25, "population": 8866}, {"name": "Para", "country_iso2": "CI", "state": "Bas-Sassandra", "is_capital": false, "latitude": 5.5196, "longitude": -7.3275, "population": 17594}, {"name": "Port-Bouët", "country_iso2": "CI", "state": "Abidjan", "is_capital": false, "latitude": 5.2568, "longitude": -3.963, "population": 618795}, {"name": "Pélézi", "country_iso2": "CI", "state": "Sassandra-Marahoué", "is_capital": false, "latitude": 7.2817, "longitude": -6.8145, "population": 14100}, {"name": "Rubino", "country_iso2": "CI", "state": "Lagunes", "is_capital": false, "latitude": 6.0692, "longitude": -4.3086, "population": 32775}, {"name": "San-Pédro", "country_iso2": "CI", "state": "Bas-Sassandra", "is_capital": true, "latitude": 4.7704, "longitude": -6.64, "population": 390654}, {"name": "Sassandra", "country_iso2": "CI", "state": "Bas-Sassandra", "is_capital": false, "latitude": 4.9504, "longitude": -6.0833, "population": 87945}, {"name": "Sinfra", "country_iso2": "CI", "state": "Sassandra-Marahoué", "is_capital": false, "latitude": 6.621, "longitude": -5.9114, "population": 137210}, {"name": "Sipilou", "country_iso2": "CI", "state": "Montagnes", "is_capital": false, "latitude": 7.8667, "longitude": -8.1, "population": 22417}, {"name": "Soubré", "country_iso2": "CI", "state": "Bas-Sassandra", "is_capital": false, "latitude": 5.7836, "longitude": -6.5939, "population": 272773}, {"name": "Séguéla", "country_iso2": "CI", "state": "Woroba", "is_capital": true, "latitude": 7.9611, "longitude": -6.6731, "population": 103980}, {"name": "Touba", "country_iso2": "CI", "state": "Woroba", "is_capital": false, "latitude": 8.2833, "longitude": -7.6833, "population": 55013}, {"name": "Toumodi", "country_iso2": "CI", "state": "Lacs", "is_capital": false, "latitude": 6.552, "longitude": -5.019, "population": 39005}, {"name": "Toumoukro", "country_iso2": "CI", "state": "Savanes", "is_capital": false, "latitude": 10.3833, "longitude": -5.75, "population": 34200}, {"name": "Yabayo", "country_iso2": "CI", "state": "Bas-Sassandra", "is_capital": false, "latitude": 5.9388, "longitude": -6.5983, "population": 20086}, {"name": "Yamoussoukro", "country_iso2": "CI", "state": "Yamoussoukro", "is_capital": true, "latitude": 6.8161, "longitude": -5.2742, "population": 340234}, {"name": "Yopougon", "country_iso2": "CI", "state": "Abidjan", "is_capital": false, "latitude": 5.3748, "longitude": -4.0867, "population": 1571065}, {"name": "Zaliohouan", "country_iso2": "CI", "state": "Sassandra-Marahoué", "is_capital": false, "latitude": 6.7952, "longitude": -6.2355, "population": 20867}]