[{"name": "Aba", "country_iso2": "CN", "state": "Sichuan", "is_capital": false, "latitude": 32.9, "longitude": 101.7, "population": 11055}, {"name": "Agan", "country_iso2": "CN", "state": "Gansu", "is_capital": false, "latitude": 35.9176, "longitude": 103.8501, "population": 20985}, {"name": "Aheqi", "country_iso2": "CN", "state": "Xinjiang", "is_capital": false, "latitude": 40.9365, "longitude": 78.4023, "population": 11910}, {"name": "Aihua", "country_iso2": "CN", "state": "Yunnan", "is_capital": false, "latitude": 24.4167, "longitude": 100.1, "population": 115047}, {"name": "Ailan Mubage", "country_iso2": "CN", "state": "Xinjiang", "is_capital": false, "latitude": 43.908, "longitude": 81.2777, "population": 778047}, {"name": "Aketao", "country_iso2": "CN", "state": "Xinjiang", "is_capital": false, "latitude": 39.1349, "longitude": 75.9337, "population": 36270}, {"name": "Aksu", "country_iso2": "CN", "state": "Xinjiang", "is_capital": false, "latitude": 41.185, "longitude": 80.2904, "population": 535657}, {"name": "Alashankou", "country_iso2": "CN", "state": "Xinjiang", "is_capital": false, "latitude": 45.1733, "longitude": 82.5546, "population": 11097}, {"name": "Altay", "country_iso2": "CN", "state": "Xinjiang", "is_capital": false, "latitude": 47.8666, "longitude": 88.1166, "population": 142000}, {"name": "Anda", "country_iso2": "CN", "state": "Heilongjiang", "is_capital": false, "latitude": 46.424, "longitude": 125.352, "population": 357535}, {"name": "Andicun", "country_iso2": "CN", "state": "Zhejiang", "is_capital": false, "latitude": 28.9761, "longitude": 119.6403, "population": 15300}, {"name": "Andingcun", "country_iso2": "CN", "state": "Beijing", "is_capital": false, "latitude": 39.6172, "longitude": 116.4944, "population": 30764}, {"name": "Anguo", "country_iso2": "CN", "state": "Hebei", "is_capital": false, "latitude": 38.418, "longitude": 115.327, "population": 363091}, {"name": "Ankang", "country_iso2": "CN", "state": "Shaanxi", "is_capital": false, "latitude": 32.6854, "longitude": 109.029, "population": 2493436}, {"name": "Anlu", "country_iso2": "CN", "state": "Hubei", "is_capital": false, "latitude": 31.2667, "longitude": 113.6667, "population": 498356}, {"name": "Anqing", "country_iso2": "CN", "state": "Anhui", "is_capital": false, "latitude": 30.5318, "longitude": 117.1153, "population": 4165284}, {"name": "Anqiu", "country_iso2": "CN", "state": "Shandong", "is_capital": false, "latitude": 36.478, "longitude": 119.219, "population": 840553}, {"name": "Anshan", "country_iso2": "CN", "state": "Liaoning", "is_capital": false, "latitude": 41.108, "longitude": 122.994, "population": 3325372}, {"name": "Anshun", "country_iso2": "CN", "state": "Guizhou", "is_capital": false, "latitude": 26.2531, "longitude": 105.9476, "population": 2353100}, {"name": "Anyuan", "country_iso2": "CN", "state": "Gansu", "is_capital": false, "latitude": 34.8808, "longitude": 105.2764, "population": 40828}, {"name": "Aoshang", "country_iso2": "CN", "state": "Hunan", "is_capital": false, "latitude": 25.6842, "longitude": 113.0322, "population": 22000}, {"name": "Aral", "country_iso2": "CN", "state": "Xinjiang", "is_capital": false, "latitude": 40.548, "longitude": 81.281, "population": 158593}, {"name": "Atushi", "country_iso2": "CN", "state": "Xinjiang", "is_capital": false, "latitude": 39.7162, "longitude": 76.1684, "population": 240368}, {"name": "Aweitancun", "country_iso2": "CN", "state": "Xinjiang", "is_capital": false, "latitude": 47.7251, "longitude": 88.0499, "population": 9622}, {"name": "Baiceng", "country_iso2": "CN", "state": "Guizhou", "is_capital": false, "latitude": 25.4333, "longitude": 105.8, "population": 15464}, {"name": "Baicheng", "country_iso2": "CN", "state": "Guangxi", "is_capital": false, "latitude": 23.903, "longitude": 106.619, "population": 3571505}, {"name": "Baicheng", "country_iso2": "CN", "state": "Jilin", "is_capital": false, "latitude": 45.62, "longitude": 122.838, "population": 1551378}, {"name": "Baicheng", "country_iso2": "CN", "state": "Xinjiang", "is_capital": false, "latitude": 41.7957, "longitude": 81.8715, "population": 49207}, {"name": "Baichigan", "country_iso2": "CN", "state": "Hebei", "is_capital": false, "latitude": 39.5317, "longitude": 115.9117, "population": 40748}, {"name": "Baiheqiao", "country_iso2": "CN", "state": "Yunnan", "is_capital": false, "latitude": 22.9711, "longitude": 103.7964, "population": 20973}, {"name": "Baiji", "country_iso2": "CN", "state": "Guizhou", "is_capital": false, "latitude": 26.1041, "longitude": 106.99, "population": 45576}, {"name": "Bailin", "country_iso2": "CN", "state": "Gansu", "is_capital": false, "latitude": 33.485, "longitude": 105.0034, "population": 11144}, {"name": "Bailongqiaocun", "country_iso2": "CN", "state": "Zhejiang", "is_capital": false, "latitude": 29.0767, "longitude": 119.5517, "population": 72000}, {"name": "Baipingshan", "country_iso2": "CN", "state": "Guizhou", "is_capital": false, "latitude": 26.196, "longitude": 106.55, "population": 16330}, {"name": "Baiquan", "country_iso2": "CN", "state": "Heilongjiang", "is_capital": false, "latitude": 47.6018, "longitude": 126.0819, "population": 70472}, {"name": "Bairuo", "country_iso2": "CN", "state": "Hunan", "is_capital": false, "latitude": 28.4782, "longitude": 112.8048, "population": 42466}, {"name": "Baisha", "country_iso2": "CN", "state": "Zhejiang", "is_capital": false, "latitude": 29.4896, "longitude": 119.337, "population": 442709}, {"name": "Baishaling", "country_iso2": "CN", "state": "Guangdong", "is_capital": false, "latitude": 24.095, "longitude": 113.7592, "population": 28419}, {"name": "Baishan", "country_iso2": "CN", "state": "Jilin", "is_capital": false, "latitude": 41.944, "longitude": 126.4147, "population": 968373}, {"name": "Baishan", "country_iso2": "CN", "state": "Beijing", "is_capital": false, "latitude": 40.1656, "longitude": 116.3144, "population": 36546}, {"name": "Baishi Airikecun", "country_iso2": "CN", "state": "Xinjiang", "is_capital": false, "latitude": 40.8748, "longitude": 80.3616, "population": 36982}, {"name": "Baiyan", "country_iso2": "CN", "state": "Guizhou", "is_capital": false, "latitude": 26.3584, "longitude": 106.2347, "population": 32473}, {"name": "Baiyashi", "country_iso2": "CN", "state": "Hunan", "is_capital": false, "latitude": 26.4019, "longitude": 111.2864, "population": 130256}, {"name": "Baiyin", "country_iso2": "CN", "state": "Gansu", "is_capital": false, "latitude": 36.5451, "longitude": 104.1389, "population": 1512110}, {"name": "Bajiao", "country_iso2": "CN", "state": "Guizhou", "is_capital": false, "latitude": 27.6573, "longitude": 108.1937, "population": 11745}, {"name": "Bakeshiyingcun", "country_iso2": "CN", "state": "Hebei", "is_capital": false, "latitude": 40.7237, "longitude": 117.193, "population": 17216}, {"name": "Baluntaicun", "country_iso2": "CN", "state": "Xinjiang", "is_capital": false, "latitude": 42.7594, "longitude": 86.3231, "population": 9220}, {"name": "Bama", "country_iso2": "CN", "state": "Guangxi", "is_capital": false, "latitude": 24.1474, "longitude": 107.2593, "population": 87000}, {"name": "Bamei", "country_iso2": "CN", "state": "Yunnan", "is_capital": false, "latitude": 24.3166, "longitude": 105.038, "population": 52500}, {"name": "Bamiantong", "country_iso2": "CN", "state": "Heilongjiang", "is_capital": false, "latitude": 44.9167, "longitude": 130.5167, "population": 197065}, {"name": "Banbishancun", "country_iso2": "CN", "state": "Hebei", "is_capital": false, "latitude": 40.37, "longitude": 117.9317, "population": 22029}, {"name": "Bangshang", "country_iso2": "CN", "state": "Sichuan", "is_capital": false, "latitude": 32.2575, "longitude": 108.1119, "population": 10561}, {"name": "Bangzha", "country_iso2": "CN", "state": "Guizhou", "is_capital": false, "latitude": 24.8333, "longitude": 104.6667, "population": 26027}, {"name": "Banqiao", "country_iso2": "CN", "state": "Gansu", "is_capital": false, "latitude": 35.8914, "longitude": 107.9572, "population": 15486}, {"name": "Banzhuangcun", "country_iso2": "CN", "state": "Jiangsu", "is_capital": false, "latitude": 34.8504, "longitude": 118.851, "population": 100000}, {"name": "Baocheng", "country_iso2": "CN", "state": "Hainan", "is_capital": false, "latitude": 18.6431, "longitude": 109.6994, "population": 33138}, {"name": "Baoding", "country_iso2": "CN", "state": "Hebei", "is_capital": false, "latitude": 38.874, "longitude": 115.464, "population": 10546831}, {"name": "Baohe", "country_iso2": "CN", "state": "Shaanxi", "is_capital": false, "latitude": 33.2033, "longitude": 106.9606, "population": 11897}, {"name": "Baohezhuangcun", "country_iso2": "CN", "state": "Beijing", "is_capital": false, "latitude": 39.685, "longitude": 116.2967, "population": 35391}, {"name": "Baojishi", "country_iso2": "CN", "state": "Shaanxi", "is_capital": false, "latitude": 34.363, "longitude": 107.238, "population": 3321853}, {"name": "Baoshan", "country_iso2": "CN", "state": "Yunnan", "is_capital": false, "latitude": 25.112, "longitude": 99.161, "population": 2431211}, {"name": "Baotou", "country_iso2": "CN", "state": "Inner Mongolia", "is_capital": false, "latitude": 40.6213, "longitude": 109.9532, "population": 2650364}, {"name": "Basuo", "country_iso2": "CN", "state": "Hainan", "is_capital": false, "latitude": 19.092, "longitude": 108.671, "population": 167636}, {"name": "Baxiangshan", "country_iso2": "CN", "state": "Guangdong", "is_capital": false, "latitude": 23.7642, "longitude": 115.9696, "population": 12039}, {"name": "Bayan", "country_iso2": "CN", "state": "Qinghai", "is_capital": false, "latitude": 36.1064, "longitude": 102.2547, "population": 38315}, {"name": "Bayan Hot", "country_iso2": "CN", "state": "Inner Mongolia", "is_capital": false, "latitude": 38.8556, "longitude": 105.7001, "population": 94445}, {"name": "Bayi", "country_iso2": "CN", "state": "Tibet", "is_capital": false, "latitude": 29.6664, "longitude": 94.3628, "population": 21400}, {"name": "Bazhajiemicun", "country_iso2": "CN", "state": "Xinjiang", "is_capital": false, "latitude": 38.8944, "longitude": 77.6367, "population": 23308}, {"name": "Bazhou", "country_iso2": "CN", "state": "Sichuan", "is_capital": false, "latitude": 31.868, "longitude": 106.748, "population": 2712894}, {"name": "Bazhou", "country_iso2": "CN", "state": "Hebei", "is_capital": false, "latitude": 39.1333, "longitude": 116.3833, "population": 622975}, {"name": "Bazhou", "country_iso2": "CN", "state": "Qinghai", "is_capital": false, "latitude": 36.2137, "longitude": 102.7618, "population": 18110}, {"name": "Beian", "country_iso2": "CN", "state": "Heilongjiang", "is_capital": false, "latitude": 48.25, "longitude": 126.5167, "population": 308237}, {"name": "Beichengqu", "country_iso2": "CN", "state": "Inner Mongolia", "is_capital": false, "latitude": 40.437, "longitude": 113.11, "population": 195229}, {"name": "Beidao", "country_iso2": "CN", "state": "Gansu", "is_capital": false, "latitude": 34.602, "longitude": 105.918, "population": null}, {"name": "Beifan", "country_iso2": "CN", "state": "Hubei", "is_capital": false, "latitude": 31.3881, "longitude": 113.5269, "population": 24765}, {"name": "Beigangwa", "country_iso2": "CN", "state": "Beijing", "is_capital": false, "latitude": 39.84, "longitude": 116.2033, "population": 44358}, {"name": "Beihai", "country_iso2": "CN", "state": "Guangxi", "is_capital": false, "latitude": 21.481, "longitude": 109.12, "population": 1680000}, {"name": "Beihu", "country_iso2": "CN", "state": "Hebei", "is_capital": false, "latitude": 38.1559, "longitude": 114.809, "population": 52752}, {"name": "Beijing", "country_iso2": "CN", "state": "Beijing", "is_capital": true, "latitude": 39.9067, "longitude": 116.3975, "population": 18522000}, {"name": "Beining", "country_iso2": "CN", "state": "Liaoning", "is_capital": false, "latitude": 41.6, "longitude": 121.8, "population": 422289}, {"name": "Beipiao", "country_iso2": "CN", "state": "Liaoning", "is_capital": false, "latitude": 41.801, "longitude": 120.771, "population": 439998}, {"name": "Beiwusidui", "country_iso2": "CN", "state": "Hebei", "is_capital": false, "latitude": 40.0692, "longitude": 116.8228, "population": 13980}, {"name": "Beixingzhuang", "country_iso2": "CN", "state": "Shanxi", "is_capital": false, "latitude": 35.7054, "longitude": 111.1176, "population": 22682}, {"name": "Beiya", "country_iso2": "CN", "state": "Gansu", "is_capital": false, "latitude": 36.4393, "longitude": 104.394, "population": 36241}, {"name": "Beizhou", "country_iso2": "CN", "state": "Hunan", "is_capital": false, "latitude": 29.1636, "longitude": 112.6811, "population": 14900}, {"name": "Beizhuang", "country_iso2": "CN", "state": "Hebei", "is_capital": false, "latitude": 39.9686, "longitude": 119.5515, "population": 31139}, {"name": "Benbutucun", "country_iso2": "CN", "state": "Xinjiang", "is_capital": false, "latitude": 42.0253, "longitude": 86.7034, "population": 9408}, {"name": "Bengbu", "country_iso2": "CN", "state": "Anhui", "is_capital": false, "latitude": 32.917, "longitude": 117.389, "population": 3164467}, {"name": "Benhao", "country_iso2": "CN", "state": "Hainan", "is_capital": false, "latitude": 18.615, "longitude": 109.931, "population": 29295}, {"name": "Benxi", "country_iso2": "CN", "state": "Liaoning", "is_capital": false, "latitude": 41.3039, "longitude": 123.7649, "population": 1326018}, {"name": "Biandanshan", "country_iso2": "CN", "state": "Guizhou", "is_capital": false, "latitude": 26.0409, "longitude": 105.6351, "population": 10183}, {"name": "Bianyang", "country_iso2": "CN", "state": "Guizhou", "is_capital": false, "latitude": 25.6194, "longitude": 106.535, "population": 56451}, {"name": "Bifeng", "country_iso2": "CN", "state": "Sichuan", "is_capital": false, "latitude": 30.1067, "longitude": 103.0133, "population": 8538}, {"name": "Bijiao", "country_iso2": "CN", "state": "Guangdong", "is_capital": false, "latitude": 22.9253, "longitude": 113.2067, "population": 270310}, {"name": "Bijie", "country_iso2": "CN", "state": "Guizhou", "is_capital": false, "latitude": 27.284, "longitude": 105.292, "population": 6686100}, {"name": "Bikou", "country_iso2": "CN", "state": "Gansu", "is_capital": false, "latitude": 32.7489, "longitude": 105.2408, "population": 16247}, {"name": "Bingmei", "country_iso2": "CN", "state": "Guizhou", "is_capital": false, "latitude": 25.7408, "longitude": 108.9023, "population": 45094}, {"name": "Binxian", "country_iso2": "CN", "state": "Shaanxi", "is_capital": false, "latitude": 35.0542, "longitude": 108.0814, "population": 300226}, {"name": "Binzhou", "country_iso2": "CN", "state": "Shandong", "is_capital": false, "latitude": 37.383, "longitude": 117.971, "population": 3748474}, {"name": "Bole", "country_iso2": "CN", "state": "Xinjiang", "is_capital": false, "latitude": 44.8539, "longitude": 82.0514, "population": 235585}, {"name": "Boli", "country_iso2": "CN", "state": "Heilongjiang", "is_capital": false, "latitude": 45.7564, "longitude": 130.5759, "population": 95260}, {"name": "Botou", "country_iso2": "CN", "state": "Hebei", "is_capital": false, "latitude": 38.0833, "longitude": 116.5833, "population": 573842}, {"name": "Bozhou", "country_iso2": "CN", "state": "Anhui", "is_capital": false, "latitude": 33.8463, "longitude": 115.7786, "population": 4850657}, {"name": "Bo’ao", "country_iso2": "CN", "state": "Hainan", "is_capital": false, "latitude": 19.1606, "longitude": 110.5808, "population": 27155}, {"name": "Bugugoucun", "country_iso2": "CN", "state": "Hebei", "is_capital": false, "latitude": 41.6904, "longitude": 117.4483, "population": 13266}, {"name": "Bujie", "country_iso2": "CN", "state": "Yunnan", "is_capital": false, "latitude": 28.0269, "longitude": 105.0517, "population": 21827}, {"name": "Bulicun", "country_iso2": "CN", "state": "Guangdong", "is_capital": false, "latitude": 24.3657, "longitude": 116.2726, "population": 36526}, {"name": "Caiguantun", "country_iso2": "CN", "state": "Guizhou", "is_capital": false, "latitude": 26.3363, "longitude": 105.9841, "population": 45580}, {"name": "Cangxi", "country_iso2": "CN", "state": "Hunan", "is_capital": false, "latitude": 27.6481, "longitude": 111.1458, "population": 35000}, {"name": "Cangzhou", "country_iso2": "CN", "state": "Hebei", "is_capital": false, "latitude": 38.3047, "longitude": 116.8387, "population": 7300783}, {"name": "Caojia", "country_iso2": "CN", "state": "Hunan", "is_capital": false, "latitude": 27.8197, "longitude": 111.3364, "population": 54400}, {"name": "Caojiachuan", "country_iso2": "CN", "state": "Shanxi", "is_capital": false, "latitude": 34.9, "longitude": 111.5, "population": 22100}, {"name": "Caotan", "country_iso2": "CN", "state": "Gansu", "is_capital": false, "latitude": 36.2703, "longitude": 105.2033, "population": 11294}, {"name": "Caowotan", "country_iso2": "CN", "state": "Gansu", "is_capital": false, "latitude": 37.3044, "longitude": 104.172, "population": 19015}, {"name": "Cencheng", "country_iso2": "CN", "state": "Guangxi", "is_capital": false, "latitude": 22.9167, "longitude": 111.0, "population": 724364}, {"name": "Chahe", "country_iso2": "CN", "state": "Guizhou", "is_capital": false, "latitude": 27.1694, "longitude": 105.3792, "population": 28711}, {"name": "Chaigoubu", "country_iso2": "CN", "state": "Hebei", "is_capital": false, "latitude": 37.7868, "longitude": 114.6107, "population": 73028}, {"name": "Chaiwu", "country_iso2": "CN", "state": "Beijing", "is_capital": false, "latitude": 39.6556, "longitude": 116.6292, "population": 54690}, {"name": "Changbang", "country_iso2": "CN", "state": "Zhejiang", "is_capital": false, "latitude": 30.4555, "longitude": 120.4433, "population": 110352}, {"name": "Changchong", "country_iso2": "CN", "state": "Guizhou", "is_capital": false, "latitude": 26.3404, "longitude": 107.1866, "population": 45702}, {"name": "Changchun", "country_iso2": "CN", "state": "Jilin", "is_capital": true, "latitude": 43.897, "longitude": 125.326, "population": 4408154}, {"name": "Changchunpu", "country_iso2": "CN", "state": "Guizhou", "is_capital": false, "latitude": 27.2388, "longitude": 105.185, "population": 38896}, {"name": "Changde", "country_iso2": "CN", "state": "Hunan", "is_capital": false, "latitude": 29.031, "longitude": 111.699, "population": 5279102}, {"name": "Changji", "country_iso2": "CN", "state": "Guizhou", "is_capital": false, "latitude": 26.9631, "longitude": 108.7331, "population": 16308}, {"name": "Changling", "country_iso2": "CN", "state": "Jilin", "is_capital": false, "latitude": 44.27, "longitude": 123.99, "population": 55841}, {"name": "Changping", "country_iso2": "CN", "state": "Beijing", "is_capital": false, "latitude": 40.2248, "longitude": 116.1944, "population": 614821}, {"name": "Changsha", "country_iso2": "CN", "state": "Hunan", "is_capital": true, "latitude": 28.228, "longitude": 112.939, "population": 4766296}, {"name": "Changsha", "country_iso2": "CN", "state": "Guangdong", "is_capital": false, "latitude": 22.3773, "longitude": 112.6982, "population": 717700}, {"name": "Changshu", "country_iso2": "CN", "state": "Jiangsu", "is_capital": false, "latitude": 31.656, "longitude": 120.753, "population": 1510100}, {"name": "Changting", "country_iso2": "CN", "state": "Fujian", "is_capital": false, "latitude": 25.867, "longitude": 116.3167, "population": 87458}, {"name": "Changtoushang", "country_iso2": "CN", "state": "Hainan", "is_capital": false, "latitude": 19.3619, "longitude": 110.543, "population": 44326}, {"name": "Changzhi", "country_iso2": "CN", "state": "Shanxi", "is_capital": false, "latitude": 36.195, "longitude": 113.117, "population": 3180884}, {"name": "Changzhou", "country_iso2": "CN", "state": "Jiangsu", "is_capital": false, "latitude": 31.811, "longitude": 119.974, "population": 3601079}, {"name": "Chang’an", "country_iso2": "CN", "state": "Hunan", "is_capital": false, "latitude": 29.4768, "longitude": 113.4504, "population": 433200}, {"name": "Chankou", "country_iso2": "CN", "state": "Gansu", "is_capital": false, "latitude": 35.7122, "longitude": 104.5219, "population": 22273}, {"name": "Chaodongcun", "country_iso2": "CN", "state": "Guangxi", "is_capital": false, "latitude": 25.0183, "longitude": 111.1683, "population": 33850}, {"name": "Chaohucun", "country_iso2": "CN", "state": "Anhui", "is_capital": false, "latitude": 31.6244, "longitude": 117.8902, "population": 727162}, {"name": "Chaona", "country_iso2": "CN", "state": "Gansu", "is_capital": false, "latitude": 35.1, "longitude": 107.2167, "population": 16111}, {"name": "Chaoshan", "country_iso2": "CN", "state": "Guangdong", "is_capital": false, "latitude": 23.0768, "longitude": 113.8696, "population": 156522}, {"name": "Chaoyang", "country_iso2": "CN", "state": "Liaoning", "is_capital": false, "latitude": 41.571, "longitude": 120.453, "population": 2872857}, {"name": "Chaoyangdicun", "country_iso2": "CN", "state": "Hebei", "is_capital": false, "latitude": 42.0221, "longitude": 118.2178, "population": 13773}, {"name": "Chaozhou", "country_iso2": "CN", "state": "Guangdong", "is_capital": false, "latitude": 23.658, "longitude": 116.622, "population": 2656600}, {"name": "Chedaopo", "country_iso2": "CN", "state": "Gansu", "is_capital": false, "latitude": 36.4008, "longitude": 106.7351, "population": 17608}, {"name": "Chengbin", "country_iso2": "CN", "state": "Hainan", "is_capital": false, "latitude": 19.9969, "longitude": 110.3375, "population": 77904}, {"name": "Chengde", "country_iso2": "CN", "state": "Hebei", "is_capital": false, "latitude": 40.9604, "longitude": 117.93, "population": null}, {"name": "Chengdu", "country_iso2": "CN", "state": "Sichuan", "is_capital": true, "latitude": 30.66, "longitude": 104.0633, "population": 14645000}, {"name": "Chengguan", "country_iso2": "CN", "state": "Henan", "is_capital": false, "latitude": 35.4623, "longitude": 113.8054, "population": 740435}, {"name": "Chengjiao", "country_iso2": "CN", "state": "Henan", "is_capital": false, "latitude": 35.3984, "longitude": 114.0649, "population": 476867}, {"name": "Chengjiao Chengguanzhen", "country_iso2": "CN", "state": "Gansu", "is_capital": false, "latitude": 34.4362, "longitude": 104.0306, "population": 67826}, {"name": "Chengtangcun", "country_iso2": "CN", "state": "Shandong", "is_capital": false, "latitude": 35.0833, "longitude": 117.15, "population": 1574648}, {"name": "Chengxiang", "country_iso2": "CN", "state": "Jiangsu", "is_capital": false, "latitude": 31.564, "longitude": 121.174, "population": 709500}, {"name": "Chenlu", "country_iso2": "CN", "state": "Shaanxi", "is_capital": false, "latitude": 35.0286, "longitude": 109.1547, "population": 15642}, {"name": "Chenzhou", "country_iso2": "CN", "state": "Hunan", "is_capital": false, "latitude": 25.77, "longitude": 113.016, "population": 4667134}, {"name": "Chifeng", "country_iso2": "CN", "state": "Inner Mongolia", "is_capital": false, "latitude": 42.255, "longitude": 118.8825, "population": 4035967}, {"name": "Chinggil", "country_iso2": "CN", "state": "Xinjiang", "is_capital": false, "latitude": 46.6673, "longitude": 90.3786, "population": 16098}, {"name": "Chini", "country_iso2": "CN", "state": "Guangdong", "is_capital": false, "latitude": 23.3901, "longitude": 113.0736, "population": 56609}, {"name": "Chishui", "country_iso2": "CN", "state": "Guizhou", "is_capital": false, "latitude": 28.5904, "longitude": 105.6975, "population": 237052}, {"name": "Chizhou", "country_iso2": "CN", "state": "Anhui", "is_capital": false, "latitude": 30.6654, "longitude": 117.4916, "population": 1342764}, {"name": "Chongqing", "country_iso2": "CN", "state": "Chongqing", "is_capital": true, "latitude": 29.5637, "longitude": 106.5504, "population": 12135000}, {"name": "Chongshan", "country_iso2": "CN", "state": "Hainan", "is_capital": false, "latitude": 18.7751, "longitude": 109.5169, "population": 107100}, {"name": "Chongzuo", "country_iso2": "CN", "state": "Guangxi", "is_capital": false, "latitude": 22.377, "longitude": 107.365, "population": 2088692}, {"name": "Chuangjian", "country_iso2": "CN", "state": "Hunan", "is_capital": false, "latitude": 29.1558, "longitude": 112.2456, "population": 38300}, {"name": "Chuanliaocun", "country_iso2": "CN", "state": "Zhejiang", "is_capital": false, "latitude": 28.2582, "longitude": 120.2118, "population": 26602}, {"name": "Chuimatan", "country_iso2": "CN", "state": "Gansu", "is_capital": false, "latitude": 35.7166, "longitude": 102.8771, "population": 26044}, {"name": "Chumpak", "country_iso2": "CN", "state": "Xinjiang", "is_capital": false, "latitude": 41.8585, "longitude": 84.137, "population": 13983}, {"name": "Chuqung", "country_iso2": "CN", "state": "Qinghai", "is_capital": false, "latitude": 33.3667, "longitude": 97.1333, "population": 10659}, {"name": "Chuxiong", "country_iso2": "CN", "state": "Yunnan", "is_capital": false, "latitude": 25.033, "longitude": 101.5459, "population": 631530}, {"name": "Chuzhou", "country_iso2": "CN", "state": "Anhui", "is_capital": false, "latitude": 32.256, "longitude": 118.333, "population": 3937868}, {"name": "Cili", "country_iso2": "CN", "state": "Hunan", "is_capital": false, "latitude": 29.4225, "longitude": 111.1219, "population": 130000}, {"name": "Ciying", "country_iso2": "CN", "state": "Yunnan", "is_capital": false, "latitude": 25.3607, "longitude": 103.91, "population": 25497}, {"name": "Cuihua", "country_iso2": "CN", "state": "Yunnan", "is_capital": false, "latitude": 27.7377, "longitude": 103.8574, "population": 46324}, {"name": "Cuihuangkou", "country_iso2": "CN", "state": "Tianjin", "is_capital": false, "latitude": 39.5322, "longitude": 117.1917, "population": 51541}, {"name": "Cuizhuangzi", "country_iso2": "CN", "state": "Hebei", "is_capital": false, "latitude": 38.3237, "longitude": 116.446, "population": 56096}, {"name": "Dabaozi", "country_iso2": "CN", "state": "Hunan", "is_capital": false, "latitude": 26.7006, "longitude": 109.4634, "population": 21000}, {"name": "Dabutou", "country_iso2": "CN", "state": "Shanxi", "is_capital": false, "latitude": 36.0667, "longitude": 112.8667, "population": 36556}, {"name": "Dachen", "country_iso2": "CN", "state": "Hebei", "is_capital": false, "latitude": 38.2456, "longitude": 115.0218, "population": 30951}, {"name": "Dachengzicun", "country_iso2": "CN", "state": "Beijing", "is_capital": false, "latitude": 40.3919, "longitude": 117.1028, "population": 9443}, {"name": "Dacun", "country_iso2": "CN", "state": "Shaanxi", "is_capital": false, "latitude": 34.7201, "longitude": 109.0549, "population": 41763}, {"name": "Dadukou", "country_iso2": "CN", "state": "Sichuan", "is_capital": false, "latitude": 26.5824, "longitude": 101.7184, "population": 1212203}, {"name": "Daheba", "country_iso2": "CN", "state": "Guizhou", "is_capital": false, "latitude": 28.0258, "longitude": 106.4133, "population": 30197}, {"name": "Dahecun", "country_iso2": "CN", "state": "Shaanxi", "is_capital": false, "latitude": 32.8956, "longitude": 108.7584, "population": 24243}, {"name": "Dahuaishu", "country_iso2": "CN", "state": "Shanxi", "is_capital": false, "latitude": 36.2601, "longitude": 111.6743, "population": 151037}, {"name": "Dahutang", "country_iso2": "CN", "state": "Hunan", "is_capital": false, "latitude": 28.0694, "longitude": 112.5442, "population": 47000}, {"name": "Daijiazhuang", "country_iso2": "CN", "state": "Hebei", "is_capital": false, "latitude": 38.1344, "longitude": 114.3906, "population": 44111}, {"name": "Daiyue", "country_iso2": "CN", "state": "Shanxi", "is_capital": false, "latitude": 39.5284, "longitude": 112.8056, "population": 35894}, {"name": "Dajianchang", "country_iso2": "CN", "state": "Tianjin", "is_capital": false, "latitude": 39.4772, "longitude": 117.0842, "population": 22323}, {"name": "Dajiecun", "country_iso2": "CN", "state": "Hebei", "is_capital": false, "latitude": 36.296, "longitude": 115.2057, "population": 37290}, {"name": "Dalachi", "country_iso2": "CN", "state": "Gansu", "is_capital": false, "latitude": 36.6383, "longitude": 105.0122, "population": 16075}, {"name": "Dalain Hob", "country_iso2": "CN", "state": "Inner Mongolia", "is_capital": false, "latitude": 41.9645, "longitude": 101.0667, "population": 16927}, {"name": "Dalanping", "country_iso2": "CN", "state": "Hunan", "is_capital": false, "latitude": 28.0189, "longitude": 110.0025, "population": 15590}, {"name": "Dali", "country_iso2": "CN", "state": "Yunnan", "is_capital": false, "latitude": 25.6811, "longitude": 100.3003, "population": 660300}, {"name": "Dali", "country_iso2": "CN", "state": "Shaanxi", "is_capital": false, "latitude": 34.7953, "longitude": 109.9378, "population": 109696}, {"name": "Dalian", "country_iso2": "CN", "state": "Liaoning", "is_capital": false, "latitude": 38.9, "longitude": 121.6, "population": 5871474}, {"name": "Dalupo", "country_iso2": "CN", "state": "Hainan", "is_capital": false, "latitude": 19.4245, "longitude": 110.5387, "population": 24923}, {"name": "Dama", "country_iso2": "CN", "state": "Zhejiang", "is_capital": false, "latitude": 30.5009, "longitude": 120.3413, "population": 35357}, {"name": "Damaishan", "country_iso2": "CN", "state": "Guangdong", "is_capital": false, "latitude": 24.5006, "longitude": 112.2754, "population": 13230}, {"name": "Dandong", "country_iso2": "CN", "state": "Liaoning", "is_capital": false, "latitude": 40.1167, "longitude": 124.3833, "population": 2188436}, {"name": "Dangcheng", "country_iso2": "CN", "state": "Gansu", "is_capital": false, "latitude": 39.5034, "longitude": 94.8879, "population": 9792}, {"name": "Dangchengwan", "country_iso2": "CN", "state": "Gansu", "is_capital": false, "latitude": 39.5161, "longitude": 94.8728, "population": 9792}, {"name": "Dangyang", "country_iso2": "CN", "state": "Hubei", "is_capital": false, "latitude": 30.821, "longitude": 111.789, "population": 397465}, {"name": "Danihe", "country_iso2": "CN", "state": "Hebei", "is_capital": false, "latitude": 39.8707, "longitude": 119.33, "population": 36313}, {"name": "Danjiangkou", "country_iso2": "CN", "state": "Hubei", "is_capital": false, "latitude": 32.5401, "longitude": 111.5131, "population": 409940}, {"name": "Danyang", "country_iso2": "CN", "state": "Jiangsu", "is_capital": false, "latitude": 32.0, "longitude": 119.586, "population": 806300}, {"name": "Danzao", "country_iso2": "CN", "state": "Guangdong", "is_capital": false, "latitude": 23.0427, "longitude": 112.9145, "population": 154955}, {"name": "Daping", "country_iso2": "CN", "state": "Guangdong", "is_capital": false, "latitude": 24.6501, "longitude": 112.1693, "population": 8753}, {"name": "Daqiao", "country_iso2": "CN", "state": "Zhejiang", "is_capital": false, "latitude": 30.745, "longitude": 120.8564, "population": 57192}, {"name": "Daqing", "country_iso2": "CN", "state": "Heilongjiang", "is_capital": false, "latitude": 46.589, "longitude": 125.104, "population": 2781562}, {"name": "Dashao", "country_iso2": "CN", "state": "Hebei", "is_capital": false, "latitude": 39.5517, "longitude": 115.8206, "population": 31000}, {"name": "Dashiqiao", "country_iso2": "CN", "state": "Liaoning", "is_capital": false, "latitude": 40.6167, "longitude": 122.5167, "population": 607098}, {"name": "Dashouping", "country_iso2": "CN", "state": "Guangdong", "is_capital": false, "latitude": 23.6425, "longitude": 111.6978, "population": 8913}, {"name": "Dasungezhuang", "country_iso2": "CN", "state": "Beijing", "is_capital": false, "latitude": 40.0839, "longitude": 116.9219, "population": 23712}, {"name": "Datang", "country_iso2": "CN", "state": "Guangdong", "is_capital": false, "latitude": 22.9406, "longitude": 113.9436, "population": 310889}, {"name": "Datang", "country_iso2": "CN", "state": "Guizhou", "is_capital": false, "latitude": 26.3297, "longitude": 108.0639, "population": 34169}, {"name": "Daxiang", "country_iso2": "CN", "state": "Guangdong", "is_capital": false, "latitude": 22.3775, "longitude": 112.8008, "population": 46674}, {"name": "Daxin", "country_iso2": "CN", "state": "Guizhou", "is_capital": false, "latitude": 26.621, "longitude": 107.2398, "population": 22311}, {"name": "Daxincun", "country_iso2": "CN", "state": "Ningxia", "is_capital": false, "latitude": 38.4428, "longitude": 106.3111, "population": 76536}, {"name": "Daxing", "country_iso2": "CN", "state": "Yunnan", "is_capital": false, "latitude": 22.9968, "longitude": 102.395, "population": 54872}, {"name": "Dayan", "country_iso2": "CN", "state": "Yunnan", "is_capital": false, "latitude": 26.8552, "longitude": 100.2259, "population": 1253878}, {"name": "Daye", "country_iso2": "CN", "state": "Hubei", "is_capital": false, "latitude": 30.0961, "longitude": 114.9804, "population": 871214}, {"name": "Dayong", "country_iso2": "CN", "state": "Guangdong", "is_capital": false, "latitude": 22.4653, "longitude": 113.3004, "population": 74516}, {"name": "Dazhangzi", "country_iso2": "CN", "state": "Hebei", "is_capital": false, "latitude": 40.7463, "longitude": 118.1318, "population": 16896}, {"name": "Dazhangzicun", "country_iso2": "CN", "state": "Hebei", "is_capital": false, "latitude": 40.6239, "longitude": 118.1081, "population": 16896}, {"name": "Dazhou", "country_iso2": "CN", "state": "Sichuan", "is_capital": false, "latitude": 31.2093, "longitude": 107.4678, "population": 5385422}, {"name": "Dazhuangzi", "country_iso2": "CN", "state": "Gansu", "is_capital": false, "latitude": 40.2321, "longitude": 99.0558, "population": 9130}, {"name": "Da’an", "country_iso2": "CN", "state": "Jilin", "is_capital": false, "latitude": 45.5, "longitude": 124.2833, "population": 270911}, {"name": "Dehui", "country_iso2": "CN", "state": "Jilin", "is_capital": false, "latitude": 44.535, "longitude": 125.703, "population": 839786}, {"name": "Dengjiazhuang", "country_iso2": "CN", "state": "Hebei", "is_capital": false, "latitude": 37.7051, "longitude": 115.7883, "population": 26081}, {"name": "Dengshangcun", "country_iso2": "CN", "state": "Hebei", "is_capital": false, "latitude": 41.3442, "longitude": 118.1676, "population": 15245}, {"name": "Dengtacun", "country_iso2": "CN", "state": "Liaoning", "is_capital": false, "latitude": 41.4333, "longitude": 123.3333, "population": 359401}, {"name": "Dengtangcun", "country_iso2": "CN", "state": "Guangdong", "is_capital": false, "latitude": 23.6821, "longitude": 116.5259, "population": 37983}, {"name": "Dexing", "country_iso2": "CN", "state": "Jiangxi", "is_capital": false, "latitude": 28.9306, "longitude": 117.5947, "population": 293201}, {"name": "Deyang", "country_iso2": "CN", "state": "Sichuan", "is_capital": false, "latitude": 31.127, "longitude": 104.398, "population": 3456161}, {"name": "Dezhou", "country_iso2": "CN", "state": "Shandong", "is_capital": false, "latitude": 37.436, "longitude": 116.359, "population": 5568235}, {"name": "Dianbu", "country_iso2": "CN", "state": "Anhui", "is_capital": false, "latitude": 31.8883, "longitude": 117.4608, "population": 225808}, {"name": "Dianga", "country_iso2": "CN", "state": "Gansu", "is_capital": false, "latitude": 34.0636, "longitude": 103.2136, "population": 15993}, {"name": "Diaobingshancun", "country_iso2": "CN", "state": "Liaoning", "is_capital": false, "latitude": 42.4667, "longitude": 123.5667, "population": 206058}, {"name": "Diao’ecun", "country_iso2": "CN", "state": "Hebei", "is_capital": false, "latitude": 40.7, "longitude": 115.9, "population": 11631}, {"name": "Digar", "country_iso2": "CN", "state": "Xinjiang", "is_capital": false, "latitude": 42.685, "longitude": 89.7711, "population": 8634}, {"name": "Diguapo", "country_iso2": "CN", "state": "Guizhou", "is_capital": false, "latitude": 25.6988, "longitude": 104.9614, "population": 20049}, {"name": "Dijiasuoxiang", "country_iso2": "CN", "state": "Gansu", "is_capital": false, "latitude": 35.6871, "longitude": 105.2571, "population": 17320}, {"name": "Dingcheng", "country_iso2": "CN", "state": "Hainan", "is_capital": false, "latitude": 19.6803, "longitude": 110.3681, "population": 86367}, {"name": "Dingjiagouxiang", "country_iso2": "CN", "state": "Gansu", "is_capital": false, "latitude": 35.5307, "longitude": 105.0207, "population": 17639}, {"name": "Dingxi", "country_iso2": "CN", "state": "Gansu", "is_capital": false, "latitude": 35.608, "longitude": 104.592, "population": 2524097}, {"name": "Dingyuan", "country_iso2": "CN", "state": "Gansu", "is_capital": false, "latitude": 35.9624, "longitude": 104.0028, "population": 16499}, {"name": "Dingzhou", "country_iso2": "CN", "state": "Hebei", "is_capital": false, "latitude": 38.516, "longitude": 114.99, "population": 1095986}, {"name": "Dongcha", "country_iso2": "CN", "state": "Gansu", "is_capital": false, "latitude": 34.38, "longitude": 106.6623, "population": 9920}, {"name": "Dongchuan", "country_iso2": "CN", "state": "Yunnan", "is_capital": false, "latitude": 25.4765, "longitude": 101.2847, "population": 78611}, {"name": "Dongcun", "country_iso2": "CN", "state": "Shanxi", "is_capital": false, "latitude": 38.28, "longitude": 111.6751, "population": 59772}, {"name": "Dongfeng", "country_iso2": "CN", "state": "Guangdong", "is_capital": false, "latitude": 22.6904, "longitude": 113.246, "population": 123647}, {"name": "Dongfeng", "country_iso2": "CN", "state": "Guangdong", "is_capital": false, "latitude": 22.2479, "longitude": 112.3794, "population": 26129}, {"name": "Donggangli", "country_iso2": "CN", "state": "Hebei", "is_capital": false, "latitude": 39.9733, "longitude": 119.6406, "population": 24605}, {"name": "Donggou", "country_iso2": "CN", "state": "Shanxi", "is_capital": false, "latitude": 35.56, "longitude": 112.7028, "population": 31732}, {"name": "Donggou", "country_iso2": "CN", "state": "Hainan", "is_capital": false, "latitude": 19.5911, "longitude": 110.9239, "population": 20393}, {"name": "Dongguan", "country_iso2": "CN", "state": "Guangdong", "is_capital": false, "latitude": 23.021, "longitude": 113.752, "population": 10646000}, {"name": "Dongguan", "country_iso2": "CN", "state": "Shanxi", "is_capital": false, "latitude": 39.0173, "longitude": 111.1267, "population": 75135}, {"name": "Dongguazhen", "country_iso2": "CN", "state": "Yunnan", "is_capital": false, "latitude": 25.0911, "longitude": 101.5075, "population": 148210}, {"name": "Donghua", "country_iso2": "CN", "state": "Gansu", "is_capital": false, "latitude": 35.2167, "longitude": 106.6, "population": 182449}, {"name": "Dongjiangshui", "country_iso2": "CN", "state": "Gansu", "is_capital": false, "latitude": 33.3787, "longitude": 104.9516, "population": 16816}, {"name": "Dongluocun", "country_iso2": "CN", "state": "Guangxi", "is_capital": false, "latitude": 22.3994, "longitude": 107.685, "population": 41000}, {"name": "Dongnanyanfa", "country_iso2": "CN", "state": "Beijing", "is_capital": false, "latitude": 39.63, "longitude": 116.4083, "population": 46661}, {"name": "Dongning", "country_iso2": "CN", "state": "Heilongjiang", "is_capital": false, "latitude": 44.1167, "longitude": 130.8167, "population": 195489}, {"name": "Dongping", "country_iso2": "CN", "state": "Hunan", "is_capital": false, "latitude": 28.3817, "longitude": 111.2194, "population": 95000}, {"name": "Dongshan", "country_iso2": "CN", "state": "Guangdong", "is_capital": false, "latitude": 22.0597, "longitude": 112.8319, "population": 48229}, {"name": "Dongsheng", "country_iso2": "CN", "state": "Guangdong", "is_capital": false, "latitude": 22.8847, "longitude": 113.455, "population": 147228}, {"name": "Dongsheng", "country_iso2": "CN", "state": "Guangdong", "is_capital": false, "latitude": 22.4889, "longitude": 113.2069, "population": 128000}, {"name": "Dongsheng", "country_iso2": "CN", "state": "Guangdong", "is_capital": false, "latitude": 22.6228, "longitude": 113.2917, "population": 117976}, {"name": "Dongsheng", "country_iso2": "CN", "state": "Hubei", "is_capital": false, "latitude": 29.7139, "longitude": 112.53, "population": 53184}, {"name": "Dongsheng", "country_iso2": "CN", "state": "Gansu", "is_capital": false, "latitude": 36.9996, "longitude": 105.0029, "population": 23809}, {"name": "Dongsu", "country_iso2": "CN", "state": "Hebei", "is_capital": false, "latitude": 38.0153, "longitude": 115.1461, "population": 45748}, {"name": "Dongta", "country_iso2": "CN", "state": "Ningxia", "is_capital": false, "latitude": 38.0824, "longitude": 106.339, "population": 22040}, {"name": "Dongtai", "country_iso2": "CN", "state": "Jiangsu", "is_capital": false, "latitude": 32.795, "longitude": 120.519, "population": 888410}, {"name": "Dongxiaozhai", "country_iso2": "CN", "state": "Hebei", "is_capital": false, "latitude": 40.1672, "longitude": 118.0699, "population": 24495}, {"name": "Dongxing", "country_iso2": "CN", "state": "Guangxi", "is_capital": false, "latitude": 21.5478, "longitude": 107.9717, "population": 216053}, {"name": "Dongxishan", "country_iso2": "CN", "state": "Hunan", "is_capital": false, "latitude": 27.7056, "longitude": 111.8561, "population": 50000}, {"name": "Dongyang", "country_iso2": "CN", "state": "Zhejiang", "is_capital": false, "latitude": 29.2667, "longitude": 120.2167, "population": 804398}, {"name": "Dongyangshi", "country_iso2": "CN", "state": "Hunan", "is_capital": false, "latitude": 28.2133, "longitude": 113.3997, "population": 41000}, {"name": "Dongyuancun", "country_iso2": "CN", "state": "Zhejiang", "is_capital": false, "latitude": 28.319, "longitude": 120.2321, "population": 12572}, {"name": "Dongyuya", "country_iso2": "CN", "state": "Hunan", "is_capital": false, "latitude": 29.5619, "longitude": 111.035, "population": 29500}, {"name": "Dongzhang", "country_iso2": "CN", "state": "Hebei", "is_capital": false, "latitude": 37.935, "longitude": 115.0839, "population": 48686}, {"name": "Doudian", "country_iso2": "CN", "state": "Beijing", "is_capital": false, "latitude": 39.6503, "longitude": 116.0617, "population": 96184}, {"name": "Doujing", "country_iso2": "CN", "state": "Guizhou", "is_capital": false, "latitude": 26.4789, "longitude": 105.1253, "population": 19563}, {"name": "Douzhangzhuang", "country_iso2": "CN", "state": "Tianjin", "is_capital": false, "latitude": 39.3986, "longitude": 116.9417, "population": 23421}, {"name": "Duanshan", "country_iso2": "CN", "state": "Guizhou", "is_capital": false, "latitude": 25.7943, "longitude": 106.6983, "population": 31203}, {"name": "Duanzhuang", "country_iso2": "CN", "state": "Shanxi", "is_capital": false, "latitude": 36.5796, "longitude": 111.7577, "population": 29498}, {"name": "Ducheng", "country_iso2": "CN", "state": "Guangdong", "is_capital": false, "latitude": 23.2445, "longitude": 111.5342, "population": 85659}, {"name": "Duijiang", "country_iso2": "CN", "state": "Guizhou", "is_capital": false, "latitude": 27.0782, "longitude": 105.5256, "population": 17533}, {"name": "Dujiashigou", "country_iso2": "CN", "state": "Shaanxi", "is_capital": false, "latitude": 37.7667, "longitude": 110.0667, "population": 9966}, {"name": "Dunhua", "country_iso2": "CN", "state": "Jilin", "is_capital": false, "latitude": 43.3667, "longitude": 128.2333, "population": 392486}, {"name": "Dunhuang", "country_iso2": "CN", "state": "Gansu", "is_capital": false, "latitude": 40.1411, "longitude": 94.6639, "population": 185231}, {"name": "Duyun", "country_iso2": "CN", "state": "Guizhou", "is_capital": false, "latitude": 26.2594, "longitude": 107.5186, "population": 493574}, {"name": "Duzhuang", "country_iso2": "CN", "state": "Hebei", "is_capital": false, "latitude": 39.9867, "longitude": 119.5409, "population": 28831}, {"name": "Dêngka", "country_iso2": "CN", "state": "Gansu", "is_capital": false, "latitude": 34.0587, "longitude": 103.2074, "population": 15993}, {"name": "Elixku", "country_iso2": "CN", "state": "Xinjiang", "is_capital": false, "latitude": 38.7092, "longitude": 77.3706, "population": 36793}, {"name": "Encheng", "country_iso2": "CN", "state": "Guangdong", "is_capital": false, "latitude": 22.1833, "longitude": 112.3, "population": 483907}, {"name": "Erbaocun", "country_iso2": "CN", "state": "Xinjiang", "is_capital": false, "latitude": 42.9581, "longitude": 93.1153, "population": 11972}, {"name": "Erjie", "country_iso2": "CN", "state": "Yunnan", "is_capital": false, "latitude": 24.7285, "longitude": 102.372, "population": 17728}, {"name": "Ezhou", "country_iso2": "CN", "state": "Hubei", "is_capital": false, "latitude": 30.3914, "longitude": 114.8949, "population": 1079353}, {"name": "E’erguna", "country_iso2": "CN", "state": "Inner Mongolia", "is_capital": false, "latitude": 50.243, "longitude": 120.181, "population": 68482}, {"name": "Fancheng", "country_iso2": "CN", "state": "Shanxi", "is_capital": false, "latitude": 39.1891, "longitude": 113.2729, "population": 76088}, {"name": "Fangchenggang", "country_iso2": "CN", "state": "Guangxi", "is_capital": false, "latitude": 21.6867, "longitude": 108.3547, "population": 953300}, {"name": "Fangshan", "country_iso2": "CN", "state": "Hebei", "is_capital": false, "latitude": 38.0433, "longitude": 114.0425, "population": 12298}, {"name": "Fangting", "country_iso2": "CN", "state": "Sichuan", "is_capital": false, "latitude": 31.127, "longitude": 104.167, "population": 406775}, {"name": "Fanyang", "country_iso2": "CN", "state": "Anhui", "is_capital": false, "latitude": 31.1006, "longitude": 118.1876, "population": 97300}, {"name": "Fanzhao", "country_iso2": "CN", "state": "Guizhou", "is_capital": false, "latitude": 26.6615, "longitude": 108.3834, "population": 10165}, {"name": "Feicheng", "country_iso2": "CN", "state": "Shandong", "is_capital": false, "latitude": 36.1861, "longitude": 116.7719, "population": 894115}, {"name": "Fengang", "country_iso2": "CN", "state": "Zhejiang", "is_capital": false, "latitude": 30.891, "longitude": 121.013, "population": 63400}, {"name": "Fengcheng", "country_iso2": "CN", "state": "Liaoning", "is_capital": false, "latitude": 40.45, "longitude": 124.0667, "population": 469376}, {"name": "Fengcheng", "country_iso2": "CN", "state": "Shanxi", "is_capital": false, "latitude": 37.4328, "longitude": 112.0233, "population": 128571}, {"name": "Fengdeng", "country_iso2": "CN", "state": "Ningxia", "is_capital": false, "latitude": 38.5514, "longitude": 106.2464, "population": 12922}, {"name": "Fenggang", "country_iso2": "CN", "state": "Guangdong", "is_capital": false, "latitude": 23.6283, "longitude": 116.5718, "population": 93148}, {"name": "Fenggeling", "country_iso2": "CN", "state": "Shaanxi", "is_capital": false, "latitude": 34.5312, "longitude": 106.4437, "population": 10250}, {"name": "Fengguangcun", "country_iso2": "CN", "state": "Guangdong", "is_capital": false, "latitude": 23.9062, "longitude": 116.6984, "population": 37337}, {"name": "Fengjia", "country_iso2": "CN", "state": "Hunan", "is_capital": false, "latitude": 27.7969, "longitude": 110.8603, "population": 21000}, {"name": "Fenglu", "country_iso2": "CN", "state": "Yunnan", "is_capital": false, "latitude": 24.6506, "longitude": 102.935, "population": 173161}, {"name": "Fengning", "country_iso2": "CN", "state": "Hebei", "is_capital": false, "latitude": 41.2108, "longitude": 116.6404, "population": 99673}, {"name": "Fengrenxu", "country_iso2": "CN", "state": "Guangdong", "is_capital": false, "latitude": 24.1364, "longitude": 115.2836, "population": 30324}, {"name": "Fengruncun", "country_iso2": "CN", "state": "Shaanxi", "is_capital": false, "latitude": 34.7714, "longitude": 109.7123, "population": 25236}, {"name": "Fengyicun", "country_iso2": "CN", "state": "Guangdong", "is_capital": false, "latitude": 23.6636, "longitude": 116.6028, "population": 150138}, {"name": "Fenyang", "country_iso2": "CN", "state": "Shanxi", "is_capital": false, "latitude": 37.2616, "longitude": 111.7699, "population": 407647}, {"name": "Foshan", "country_iso2": "CN", "state": "Guangdong", "is_capital": false, "latitude": 23.0214, "longitude": 113.1216, "population": 9042500}, {"name": "Fucheng", "country_iso2": "CN", "state": "Gansu", "is_capital": false, "latitude": 35.3725, "longitude": 103.7056, "population": 32463}, {"name": "Fuding", "country_iso2": "CN", "state": "Fujian", "is_capital": false, "latitude": 27.2, "longitude": 120.2, "population": 542000}, {"name": "Fugangcun", "country_iso2": "CN", "state": "Guangdong", "is_capital": false, "latitude": 23.5873, "longitude": 116.5957, "population": 102012}, {"name": "Fugu", "country_iso2": "CN", "state": "Shaanxi", "is_capital": false, "latitude": 39.0259, "longitude": 111.0683, "population": 124002}, {"name": "Fujin", "country_iso2": "CN", "state": "Heilongjiang", "is_capital": false, "latitude": 47.25, "longitude": 132.0333, "population": 414090}, {"name": "Fukang", "country_iso2": "CN", "state": "Xinjiang", "is_capital": false, "latitude": 44.1646, "longitude": 87.9536, "population": 165006}, {"name": "Fulin", "country_iso2": "CN", "state": "Sichuan", "is_capital": false, "latitude": 29.35, "longitude": 102.7167, "population": 1049}, {"name": "Funing", "country_iso2": "CN", "state": "Hebei", "is_capital": false, "latitude": 39.8879, "longitude": 119.2314, "population": 76460}, {"name": "Fuqing", "country_iso2": "CN", "state": "Fujian", "is_capital": false, "latitude": 25.7167, "longitude": 119.3833, "population": 1316000}, {"name": "Fuquan", "country_iso2": "CN", "state": "Guizhou", "is_capital": false, "latitude": 26.6863, "longitude": 107.5204, "population": 283904}, {"name": "Fushun", "country_iso2": "CN", "state": "Liaoning", "is_capital": false, "latitude": 41.881, "longitude": 123.957, "population": 1861372}, {"name": "Fusui", "country_iso2": "CN", "state": "Guangxi", "is_capital": false, "latitude": 22.6325, "longitude": 107.9047, "population": 85512}, {"name": "Fuxin", "country_iso2": "CN", "state": "Liaoning", "is_capital": false, "latitude": 42.022, "longitude": 121.67, "population": 1647280}, {"name": "Fuyang", "country_iso2": "CN", "state": "Anhui", "is_capital": false, "latitude": 32.89, "longitude": 115.814, "population": 7599913}, {"name": "Fuyang", "country_iso2": "CN", "state": "Zhejiang", "is_capital": false, "latitude": 30.0553, "longitude": 119.95, "population": 771000}, {"name": "Fuying", "country_iso2": "CN", "state": "Hebei", "is_capital": false, "latitude": 41.0302, "longitude": 117.7205, "population": 16717}, {"name": "Fuyingzicun", "country_iso2": "CN", "state": "Hebei", "is_capital": false, "latitude": 40.8754, "longitude": 117.6978, "population": 16717}, {"name": "Fuyuan", "country_iso2": "CN", "state": "Heilongjiang", "is_capital": false, "latitude": 48.3647, "longitude": 134.3079, "population": 126694}, {"name": "Fuzhou", "country_iso2": "CN", "state": "Fujian", "is_capital": true, "latitude": 26.0743, "longitude": 119.2964, "population": 3671192}, {"name": "Fuzhou", "country_iso2": "CN", "state": "Jiangxi", "is_capital": false, "latitude": 27.949, "longitude": 116.358, "population": 3614866}, {"name": "Fu’an", "country_iso2": "CN", "state": "Fujian", "is_capital": false, "latitude": 27.1, "longitude": 119.6333, "population": 577000}, {"name": "Gabasumdo", "country_iso2": "CN", "state": "Qinghai", "is_capital": false, "latitude": 35.2481, "longitude": 100.5903, "population": 27742}, {"name": "Gaizhou", "country_iso2": "CN", "state": "Liaoning", "is_capital": false, "latitude": 40.4, "longitude": 122.35, "population": 559271}, {"name": "Gandujie", "country_iso2": "CN", "state": "Qinghai", "is_capital": false, "latitude": 35.8908, "longitude": 102.3272, "population": 25899}, {"name": "Gangshangcun", "country_iso2": "CN", "state": "Hebei", "is_capital": false, "latitude": 38.0469, "longitude": 114.6904, "population": 37244}, {"name": "Gangwuzhen", "country_iso2": "CN", "state": "Guizhou", "is_capital": false, "latitude": 25.9667, "longitude": 105.3333, "population": 18130}, {"name": "Ganjing", "country_iso2": "CN", "state": "Shaanxi", "is_capital": false, "latitude": 35.3338, "longitude": 110.0955, "population": 26224}, {"name": "Gannan", "country_iso2": "CN", "state": "Heilongjiang", "is_capital": false, "latitude": 47.9117, "longitude": 123.4978, "population": 59239}, {"name": "Ganxi", "country_iso2": "CN", "state": "Hunan", "is_capital": false, "latitude": 27.1274, "longitude": 109.1755, "population": 13492}, {"name": "Ganzhou", "country_iso2": "CN", "state": "Jiangxi", "is_capital": false, "latitude": 25.831, "longitude": 114.933, "population": 7396873}, {"name": "Ganzhu", "country_iso2": "CN", "state": "Jiangxi", "is_capital": false, "latitude": 26.9483, "longitude": 116.3714, "population": 24236}, {"name": "Gaobeidian", "country_iso2": "CN", "state": "Hebei", "is_capital": false, "latitude": 39.327, "longitude": 115.874, "population": 528903}, {"name": "Gaocheng", "country_iso2": "CN", "state": "Sichuan", "is_capital": false, "latitude": 30.0167, "longitude": 100.2667, "population": 47500}, {"name": "Gaocun", "country_iso2": "CN", "state": "Tianjin", "is_capital": false, "latitude": 39.6197, "longitude": 116.8861, "population": 18210}, {"name": "Gaohucun", "country_iso2": "CN", "state": "Zhejiang", "is_capital": false, "latitude": 28.3367, "longitude": 120.2178, "population": 10725}, {"name": "Gaojiayingcun", "country_iso2": "CN", "state": "Hebei", "is_capital": false, "latitude": 40.8814, "longitude": 114.9662, "population": 23784}, {"name": "Gaolingcun", "country_iso2": "CN", "state": "Beijing", "is_capital": false, "latitude": 40.6003, "longitude": 117.1072, "population": 9967}, {"name": "Gaoliying Ercun", "country_iso2": "CN", "state": "Beijing", "is_capital": false, "latitude": 40.1578, "longitude": 116.4933, "population": 80840}, {"name": "Gaomi", "country_iso2": "CN", "state": "Shandong", "is_capital": false, "latitude": 36.3833, "longitude": 119.75, "population": 868715}, {"name": "Gaoniang", "country_iso2": "CN", "state": "Guizhou", "is_capital": false, "latitude": 26.8425, "longitude": 109.1789, "population": 17878}, {"name": "Gaoping", "country_iso2": "CN", "state": "Sichuan", "is_capital": false, "latitude": 30.7824, "longitude": 106.1281, "population": 2174000}, {"name": "Gaoping", "country_iso2": "CN", "state": "Shanxi", "is_capital": false, "latitude": 35.798, "longitude": 112.924, "population": 453054}, {"name": "Gaotan", "country_iso2": "CN", "state": "Shaanxi", "is_capital": false, "latitude": 32.4078, "longitude": 108.3225, "population": 28149}, {"name": "Gaoya", "country_iso2": "CN", "state": "Gansu", "is_capital": false, "latitude": 36.5049, "longitude": 104.992, "population": 25993}, {"name": "Gaoyi", "country_iso2": "CN", "state": "Hebei", "is_capital": false, "latitude": 37.6069, "longitude": 114.6088, "population": 52129}, {"name": "Gaoyou", "country_iso2": "CN", "state": "Jiangsu", "is_capital": false, "latitude": 32.845, "longitude": 119.508, "population": 709572}, {"name": "Gaozhou", "country_iso2": "CN", "state": "Guangdong", "is_capital": false, "latitude": 21.9244, "longitude": 110.8422, "population": 1328657}, {"name": "Gar", "country_iso2": "CN", "state": "Tibet", "is_capital": false, "latitude": 32.1166, "longitude": 80.0583, "population": 10000}, {"name": "Geliping", "country_iso2": "CN", "state": "Sichuan", "is_capital": false, "latitude": 26.5986, "longitude": 101.5483, "population": 30310}, {"name": "Gengqing", "country_iso2": "CN", "state": "Sichuan", "is_capital": false, "latitude": 31.8081, "longitude": 98.5786, "population": 10221}, {"name": "Gengzhuangqiaocun", "country_iso2": "CN", "state": "Hebei", "is_capital": false, "latitude": 37.4453, "longitude": 114.9804, "population": 57617}, {"name": "Genhe", "country_iso2": "CN", "state": "Inner Mongolia", "is_capital": false, "latitude": 50.7833, "longitude": 121.5167, "population": 120942}, {"name": "Gexianzhuang", "country_iso2": "CN", "state": "Hebei", "is_capital": false, "latitude": 37.0694, "longitude": 115.6591, "population": 122917}, {"name": "Ghulja", "country_iso2": "CN", "state": "Xinjiang", "is_capital": false, "latitude": 43.9, "longitude": 81.35, "population": 542507}, {"name": "Golmud", "country_iso2": "CN", "state": "Qinghai", "is_capital": false, "latitude": 36.4072, "longitude": 94.9283, "population": 215214}, {"name": "Gonghe", "country_iso2": "CN", "state": "Gansu", "is_capital": false, "latitude": 35.3333, "longitude": 108.0856, "population": 22375}, {"name": "Gonglang", "country_iso2": "CN", "state": "Yunnan", "is_capital": false, "latitude": 24.8392, "longitude": 100.3122, "population": 32719}, {"name": "Gongyefu", "country_iso2": "CN", "state": "Inner Mongolia", "is_capital": false, "latitude": 41.8378, "longitude": 118.5011, "population": 30000}, {"name": "Gongzhuling", "country_iso2": "CN", "state": "Jilin", "is_capital": false, "latitude": 43.5053, "longitude": 124.8224, "population": 862313}, {"name": "Guanduqiao", "country_iso2": "CN", "state": "Hunan", "is_capital": false, "latitude": 29.4792, "longitude": 111.2975, "population": 14500}, {"name": "Guangming", "country_iso2": "CN", "state": "Jilin", "is_capital": false, "latitude": 45.3333, "longitude": 122.7833, "population": 307215}, {"name": "Guangping", "country_iso2": "CN", "state": "Hebei", "is_capital": false, "latitude": 36.4778, "longitude": 114.9333, "population": 66384}, {"name": "Guangshui", "country_iso2": "CN", "state": "Hubei", "is_capital": false, "latitude": 31.617, "longitude": 113.826, "population": 710900}, {"name": "Guangyuan", "country_iso2": "CN", "state": "Sichuan", "is_capital": false, "latitude": 32.436, "longitude": 105.844, "population": 2305657}, {"name": "Guangzhou", "country_iso2": "CN", "state": "Guangdong", "is_capital": true, "latitude": 23.13, "longitude": 113.26, "population": 26940000}, {"name": "Guang’an", "country_iso2": "CN", "state": "Sichuan", "is_capital": false, "latitude": 30.4564, "longitude": 106.6326, "population": 3205476}, {"name": "Guankou", "country_iso2": "CN", "state": "Hunan", "is_capital": false, "latitude": 28.1637, "longitude": 113.6433, "population": 1168056}, {"name": "Guankou", "country_iso2": "CN", "state": "Sichuan", "is_capital": false, "latitude": 30.988, "longitude": 103.647, "population": 671200}, {"name": "Guantiankan", "country_iso2": "CN", "state": "Guizhou", "is_capital": false, "latitude": 28.2727, "longitude": 106.632, "population": 19665}, {"name": "Guantingzhan", "country_iso2": "CN", "state": "Hebei", "is_capital": false, "latitude": 40.2492, "longitude": 115.578, "population": 10863}, {"name": "Guanzhai", "country_iso2": "CN", "state": "Guizhou", "is_capital": false, "latitude": 26.2697, "longitude": 105.3089, "population": 18514}, {"name": "Gucheng", "country_iso2": "CN", "state": "Gansu", "is_capital": false, "latitude": 34.4545, "longitude": 105.2064, "population": 11096}, {"name": "Guding", "country_iso2": "CN", "state": "Guizhou", "is_capital": false, "latitude": 26.4876, "longitude": 107.446, "population": 20051}, {"name": "Guigang", "country_iso2": "CN", "state": "Guangxi", "is_capital": false, "latitude": 23.112, "longitude": 109.599, "population": 4316262}, {"name": "Guilin", "country_iso2": "CN", "state": "Guangxi", "is_capital": false, "latitude": 25.275, "longitude": 110.296, "population": 4931137}, {"name": "Guiping", "country_iso2": "CN", "state": "Guangxi", "is_capital": false, "latitude": 23.4, "longitude": 110.0833, "population": 1511011}, {"name": "Guixi", "country_iso2": "CN", "state": "Jiangxi", "is_capital": false, "latitude": 28.2925, "longitude": 117.2454, "population": 540572}, {"name": "Guiyang", "country_iso2": "CN", "state": "Guizhou", "is_capital": true, "latitude": 26.647, "longitude": 106.63, "population": 3299724}, {"name": "Gujiao", "country_iso2": "CN", "state": "Shanxi", "is_capital": false, "latitude": 37.907, "longitude": 112.176, "population": 210757}, {"name": "Guli", "country_iso2": "CN", "state": "Zhejiang", "is_capital": false, "latitude": 28.9, "longitude": 120.0333, "population": 723490}, {"name": "Gulou", "country_iso2": "CN", "state": "Fujian", "is_capital": false, "latitude": 26.0865, "longitude": 119.298, "population": 2606000}, {"name": "Guma", "country_iso2": "CN", "state": "Xinjiang", "is_capital": false, "latitude": 37.6168, "longitude": 78.2809, "population": 28163}, {"name": "Guotang", "country_iso2": "CN", "state": "Guangdong", "is_capital": false, "latitude": 23.8384, "longitude": 115.9201, "population": 29315}, {"name": "Guozhen", "country_iso2": "CN", "state": "Shaanxi", "is_capital": false, "latitude": 34.3609, "longitude": 107.1751, "population": 3321853}, {"name": "Gusang", "country_iso2": "CN", "state": "Hunan", "is_capital": false, "latitude": 28.2864, "longitude": 113.7424, "population": 62700}, {"name": "Gutao", "country_iso2": "CN", "state": "Shanxi", "is_capital": false, "latitude": 37.2, "longitude": 112.15, "population": 50000}, {"name": "Guying", "country_iso2": "CN", "state": "Hebei", "is_capital": false, "latitude": 38.0887, "longitude": 114.556, "population": 33884}, {"name": "Guyuan", "country_iso2": "CN", "state": "Ningxia", "is_capital": false, "latitude": 36.01, "longitude": 106.257, "population": 1142142}, {"name": "Guzhou", "country_iso2": "CN", "state": "Guizhou", "is_capital": false, "latitude": 25.9278, "longitude": 108.5186, "population": 70098}, {"name": "Gyangzê", "country_iso2": "CN", "state": "Tibet", "is_capital": false, "latitude": 28.9148, "longitude": 89.6045, "population": 11039}, {"name": "Gyêgu", "country_iso2": "CN", "state": "Qinghai", "is_capital": false, "latitude": 33.0166, "longitude": 96.7333, "population": 23000}, {"name": "Gyümai", "country_iso2": "CN", "state": "Qinghai", "is_capital": false, "latitude": 33.756, "longitude": 99.65, "population": 8706}, {"name": "Haicheng", "country_iso2": "CN", "state": "Liaoning", "is_capital": false, "latitude": 40.8824, "longitude": 122.6852, "population": 1067905}, {"name": "Haicheng", "country_iso2": "CN", "state": "Guangdong", "is_capital": false, "latitude": 22.9658, "longitude": 115.3187, "population": 168227}, {"name": "Haigangli", "country_iso2": "CN", "state": "Hebei", "is_capital": false, "latitude": 39.9534, "longitude": 119.5431, "population": 27105}, {"name": "Haikou", "country_iso2": "CN", "state": "Hainan", "is_capital": true, "latitude": 20.0186, "longitude": 110.3488, "population": 2250000}, {"name": "Haikoucun", "country_iso2": "CN", "state": "Zhejiang", "is_capital": false, "latitude": 28.3237, "longitude": 120.0853, "population": 10368}, {"name": "Hailin", "country_iso2": "CN", "state": "Heilongjiang", "is_capital": false, "latitude": 44.594, "longitude": 129.38, "population": 292755}, {"name": "Hailun", "country_iso2": "CN", "state": "Heilongjiang", "is_capital": false, "latitude": 47.4667, "longitude": 126.9667, "population": 480216}, {"name": "Haiwei", "country_iso2": "CN", "state": "Hainan", "is_capital": false, "latitude": 19.4261, "longitude": 108.8145, "population": 25568}, {"name": "Hai’an", "country_iso2": "CN", "state": "Jiangsu", "is_capital": false, "latitude": 32.535, "longitude": 120.563, "population": 874334}, {"name": "Hala", "country_iso2": "CN", "state": "Guizhou", "is_capital": false, "latitude": 26.8167, "longitude": 103.9833, "population": 18797}, {"name": "Hancha", "country_iso2": "CN", "state": "Shaanxi", "is_capital": false, "latitude": 37.8822, "longitude": 109.4947, "population": 21149}, {"name": "Hancheng", "country_iso2": "CN", "state": "Shaanxi", "is_capital": false, "latitude": 35.4667, "longitude": 110.4333, "population": 383097}, {"name": "Hanchuan", "country_iso2": "CN", "state": "Hubei", "is_capital": false, "latitude": 30.6667, "longitude": 113.8333, "population": 903296}, {"name": "Handan", "country_iso2": "CN", "state": "Hebei", "is_capital": false, "latitude": 36.601, "longitude": 114.487, "population": 2708015}, {"name": "Hanerik", "country_iso2": "CN", "state": "Xinjiang", "is_capital": false, "latitude": 39.2627, "longitude": 76.419, "population": 24481}, {"name": "Hangu", "country_iso2": "CN", "state": "Tianjin", "is_capital": false, "latitude": 39.232, "longitude": 117.777, "population": null}, {"name": "Hangzhou", "country_iso2": "CN", "state": "Zhejiang", "is_capital": true, "latitude": 30.267, "longitude": 120.153, "population": 9523000}, {"name": "Hanmayingcun", "country_iso2": "CN", "state": "Hebei", "is_capital": false, "latitude": 41.2636, "longitude": 117.8596, "population": 20713}, {"name": "Hanzhong", "country_iso2": "CN", "state": "Shaanxi", "is_capital": false, "latitude": 33.0664, "longitude": 107.0232, "population": 3211462}, {"name": "Haomen", "country_iso2": "CN", "state": "Qinghai", "is_capital": false, "latitude": 37.3619, "longitude": 101.5871, "population": 36515}, {"name": "Haoping", "country_iso2": "CN", "state": "Shaanxi", "is_capital": false, "latitude": 32.5933, "longitude": 108.6117, "population": 25903}, {"name": "Harbin", "country_iso2": "CN", "state": "Heilongjiang", "is_capital": true, "latitude": 45.7576, "longitude": 126.6409, "population": 3830000}, {"name": "Hebi", "country_iso2": "CN", "state": "Henan", "is_capital": false, "latitude": 35.748, "longitude": 114.297, "population": 1565973}, {"name": "Hechi", "country_iso2": "CN", "state": "Guangxi", "is_capital": false, "latitude": 24.693, "longitude": 108.085, "population": 3417945}, {"name": "Hedongcun", "country_iso2": "CN", "state": "Gansu", "is_capital": false, "latitude": 37.7544, "longitude": 102.7906, "population": 15667}, {"name": "Hefei", "country_iso2": "CN", "state": "Anhui", "is_capital": true, "latitude": 31.8206, "longitude": 117.2273, "population": 4216940}, {"name": "Hegang", "country_iso2": "CN", "state": "Heilongjiang", "is_capital": false, "latitude": 47.3501, "longitude": 130.298, "population": 891271}, {"name": "Heishanzuicun", "country_iso2": "CN", "state": "Hebei", "is_capital": false, "latitude": 41.0354, "longitude": 116.9304, "population": 19370}, {"name": "Heishuikeng", "country_iso2": "CN", "state": "Shaanxi", "is_capital": false, "latitude": 37.7905, "longitude": 110.5711, "population": 19357}, {"name": "Hejiaji", "country_iso2": "CN", "state": "Shaanxi", "is_capital": false, "latitude": 37.3569, "longitude": 109.8514, "population": 11382}, {"name": "Hejian", "country_iso2": "CN", "state": "Hebei", "is_capital": false, "latitude": 38.4466, "longitude": 116.0995, "population": 795198}, {"name": "Hejin", "country_iso2": "CN", "state": "Shanxi", "is_capital": false, "latitude": 35.596, "longitude": 110.712, "population": 392561}, {"name": "Hekou", "country_iso2": "CN", "state": "Yunnan", "is_capital": false, "latitude": 22.5385, "longitude": 104.0111, "population": 44998}, {"name": "Hele", "country_iso2": "CN", "state": "Hainan", "is_capital": false, "latitude": 18.9058, "longitude": 110.4737, "population": 57165}, {"name": "Helixi", "country_iso2": "CN", "state": "Anhui", "is_capital": false, "latitude": 30.6267, "longitude": 118.9861, "population": 376857}, {"name": "Helong", "country_iso2": "CN", "state": "Jilin", "is_capital": false, "latitude": 42.5436, "longitude": 129.0028, "population": 117087}, {"name": "Hengbei", "country_iso2": "CN", "state": "Guangdong", "is_capital": false, "latitude": 23.8787, "longitude": 115.7309, "population": 78575}, {"name": "Hengkou", "country_iso2": "CN", "state": "Shaanxi", "is_capital": false, "latitude": 32.7378, "longitude": 108.7695, "population": 81086}, {"name": "Hengnan", "country_iso2": "CN", "state": "Guangdong", "is_capital": false, "latitude": 22.5348, "longitude": 113.2491, "population": 101415}, {"name": "Hengshui", "country_iso2": "CN", "state": "Hebei", "is_capital": false, "latitude": 37.739, "longitude": 115.669, "population": 4212933}, {"name": "Hengshuicun", "country_iso2": "CN", "state": "Guangdong", "is_capital": false, "latitude": 22.3611, "longitude": 111.4199, "population": 29777}, {"name": "Hengyang", "country_iso2": "CN", "state": "Hunan", "is_capital": false, "latitude": 26.894, "longitude": 112.572, "population": 6645243}, {"name": "Hengzhou", "country_iso2": "CN", "state": "Guangxi", "is_capital": false, "latitude": 22.6799, "longitude": 109.2614, "population": 896099}, {"name": "Heshan", "country_iso2": "CN", "state": "Guangdong", "is_capital": false, "latitude": 22.7667, "longitude": 112.95, "population": 516500}, {"name": "Heshan", "country_iso2": "CN", "state": "Guangxi", "is_capital": false, "latitude": 23.8, "longitude": 108.8833, "population": 98938}, {"name": "Heshancun", "country_iso2": "CN", "state": "Zhejiang", "is_capital": false, "latitude": 30.6455, "longitude": 120.3483, "population": 28191}, {"name": "Hexiang", "country_iso2": "CN", "state": "Hainan", "is_capital": false, "latitude": 19.5286, "longitude": 109.6353, "population": 20729}, {"name": "Hexiwu", "country_iso2": "CN", "state": "Tianjin", "is_capital": false, "latitude": 39.6225, "longitude": 116.9539, "population": 45814}, {"name": "Heyin", "country_iso2": "CN", "state": "Qinghai", "is_capital": false, "latitude": 36.0451, "longitude": 101.4242, "population": 7642}, {"name": "Heyuan", "country_iso2": "CN", "state": "Guangdong", "is_capital": false, "latitude": 23.7443, "longitude": 114.7002, "population": 2837686}, {"name": "Heyunkeng", "country_iso2": "CN", "state": "Guangdong", "is_capital": false, "latitude": 23.9533, "longitude": 112.9808, "population": 86951}, {"name": "Heze", "country_iso2": "CN", "state": "Shandong", "is_capital": false, "latitude": 35.2343, "longitude": 115.4796, "population": 8287693}, {"name": "Hezhou", "country_iso2": "CN", "state": "Guangxi", "is_capital": false, "latitude": 24.4042, "longitude": 111.5672, "population": 2007858}, {"name": "Hezuo", "country_iso2": "CN", "state": "Gansu", "is_capital": false, "latitude": 35.0002, "longitude": 102.9103, "population": 112173}, {"name": "Hoh Ereg", "country_iso2": "CN", "state": "Inner Mongolia", "is_capital": false, "latitude": 41.0955, "longitude": 111.4408, "population": 23776}, {"name": "Hohhot", "country_iso2": "CN", "state": "Inner Mongolia", "is_capital": true, "latitude": 40.842, "longitude": 111.749, "population": 2866615}, {"name": "Hongfengcun", "country_iso2": "CN", "state": "Guangdong", "is_capital": false, "latitude": 21.9231, "longitude": 111.9329, "population": 40985}, {"name": "Honggu", "country_iso2": "CN", "state": "Gansu", "is_capital": false, "latitude": 36.293, "longitude": 102.9575, "population": 12700}, {"name": "Hongjiang", "country_iso2": "CN", "state": "Hunan", "is_capital": false, "latitude": 27.191, "longitude": 109.819, "population": 341706}, {"name": "Hongliuwan", "country_iso2": "CN", "state": "Gansu", "is_capital": false, "latitude": 39.6348, "longitude": 94.3386, "population": 10079}, {"name": "Hongshandian", "country_iso2": "CN", "state": "Hunan", "is_capital": false, "latitude": 27.5736, "longitude": 112.0158, "population": 53475}, {"name": "Hongshui", "country_iso2": "CN", "state": "Gansu", "is_capital": false, "latitude": 38.4246, "longitude": 100.7926, "population": 19718}, {"name": "Hongsi", "country_iso2": "CN", "state": "Gansu", "is_capital": false, "latitude": 35.5107, "longitude": 105.5108, "population": 15938}, {"name": "Hongtuliang", "country_iso2": "CN", "state": "Hebei", "is_capital": false, "latitude": 40.9986, "longitude": 114.155, "population": 8527}, {"name": "Hong’an", "country_iso2": "CN", "state": "Heilongjiang", "is_capital": false, "latitude": 47.21, "longitude": 123.61, "population": 289999}, {"name": "Hotan", "country_iso2": "CN", "state": "Xinjiang", "is_capital": false, "latitude": 37.1167, "longitude": 79.9167, "population": 322300}, {"name": "Houbu", "country_iso2": "CN", "state": "Shanxi", "is_capital": false, "latitude": 36.4167, "longitude": 112.9833, "population": 44360}, {"name": "Hoxut", "country_iso2": "CN", "state": "Xinjiang", "is_capital": false, "latitude": 42.2552, "longitude": 86.8607, "population": 19520}, {"name": "Huadian", "country_iso2": "CN", "state": "Jilin", "is_capital": false, "latitude": 42.972, "longitude": 126.746, "population": 341308}, {"name": "Huadong", "country_iso2": "CN", "state": "Guangdong", "is_capital": false, "latitude": 23.6173, "longitude": 115.4856, "population": 38904}, {"name": "Huaibaijie", "country_iso2": "CN", "state": "Shaanxi", "is_capital": false, "latitude": 35.705, "longitude": 109.5828, "population": 22935}, {"name": "Huaibei", "country_iso2": "CN", "state": "Anhui", "is_capital": false, "latitude": 33.956, "longitude": 116.798, "population": 1970265}, {"name": "Huaihua", "country_iso2": "CN", "state": "Hunan", "is_capital": false, "latitude": 27.5698, "longitude": 110.0016, "population": 4587594}, {"name": "Huainan", "country_iso2": "CN", "state": "Anhui", "is_capital": false, "latitude": 32.6314, "longitude": 117.0194, "population": 2333896}, {"name": "Huaixiangcun", "country_iso2": "CN", "state": "Guangdong", "is_capital": false, "latitude": 22.4817, "longitude": 111.0542, "population": 56936}, {"name": "Huaiyang", "country_iso2": "CN", "state": "Hebei", "is_capital": false, "latitude": 37.7701, "longitude": 114.5312, "population": 50859}, {"name": "Huaiyin", "country_iso2": "CN", "state": "Jiangsu", "is_capital": false, "latitude": 33.5819, "longitude": 119.028, "population": 1264000}, {"name": "Huai’an", "country_iso2": "CN", "state": "Jiangsu", "is_capital": false, "latitude": 33.551, "longitude": 119.113, "population": 2632788}, {"name": "Huajiang", "country_iso2": "CN", "state": "Guizhou", "is_capital": false, "latitude": 25.6969, "longitude": 105.592, "population": 59657}, {"name": "Huajing", "country_iso2": "CN", "state": "Shanghai", "is_capital": false, "latitude": 31.1194, "longitude": 121.4519, "population": 67415}, {"name": "Huanggang", "country_iso2": "CN", "state": "Hubei", "is_capital": false, "latitude": 30.4537, "longitude": 114.8724, "population": 5882719}, {"name": "Huanghua", "country_iso2": "CN", "state": "Hebei", "is_capital": false, "latitude": 38.372, "longitude": 117.33, "population": 484313}, {"name": "Huanghuajie", "country_iso2": "CN", "state": "Yunnan", "is_capital": false, "latitude": 27.9945, "longitude": 103.552, "population": 39600}, {"name": "Huanghuajing", "country_iso2": "CN", "state": "Guangdong", "is_capital": false, "latitude": 24.1989, "longitude": 112.9104, "population": 28282}, {"name": "Huangjingkeng", "country_iso2": "CN", "state": "Guangdong", "is_capital": false, "latitude": 22.9173, "longitude": 113.9958, "population": 231399}, {"name": "Huanglongsi", "country_iso2": "CN", "state": "Henan", "is_capital": false, "latitude": 34.795, "longitude": 114.345, "population": 4564900}, {"name": "Huangshan", "country_iso2": "CN", "state": "Anhui", "is_capital": false, "latitude": 29.7149, "longitude": 118.3376, "population": 1330565}, {"name": "Huangshi", "country_iso2": "CN", "state": "Hubei", "is_capital": false, "latitude": 30.2011, "longitude": 115.039, "population": 2469079}, {"name": "Huangtong", "country_iso2": "CN", "state": "Hainan", "is_capital": false, "latitude": 19.835, "longitude": 109.8455, "population": 19753}, {"name": "Huangxicun", "country_iso2": "CN", "state": "Guangdong", "is_capital": false, "latitude": 24.4672, "longitude": 115.7773, "population": 31087}, {"name": "Huangyadong", "country_iso2": "CN", "state": "Shanxi", "is_capital": false, "latitude": 36.8039, "longitude": 113.4446, "population": 13857}, {"name": "Huangyan", "country_iso2": "CN", "state": "Zhejiang", "is_capital": false, "latitude": 28.65, "longitude": 121.25, "population": null}, {"name": "Huangyoutang", "country_iso2": "CN", "state": "Guangdong", "is_capital": false, "latitude": 23.5968, "longitude": 115.5153, "population": 38904}, {"name": "Huangzhai", "country_iso2": "CN", "state": "Shanxi", "is_capital": false, "latitude": 38.0751, "longitude": 112.6595, "population": 22233}, {"name": "Huanian", "country_iso2": "CN", "state": "Yunnan", "is_capital": false, "latitude": 24.0664, "longitude": 102.1914, "population": 11909}, {"name": "Huaniu", "country_iso2": "CN", "state": "Gansu", "is_capital": false, "latitude": 34.5478, "longitude": 105.865, "population": 57360}, {"name": "Huanren", "country_iso2": "CN", "state": "Liaoning", "is_capital": false, "latitude": 41.2672, "longitude": 125.3611, "population": 39052}, {"name": "Huasuo", "country_iso2": "CN", "state": "Gansu", "is_capital": false, "latitude": 35.4043, "longitude": 107.0869, "population": 14610}, {"name": "Huayin", "country_iso2": "CN", "state": "Shaanxi", "is_capital": false, "latitude": 34.5833, "longitude": 110.1, "population": 205119}, {"name": "Huazangsi", "country_iso2": "CN", "state": "Gansu", "is_capital": false, "latitude": 36.9836, "longitude": 103.1265, "population": 51603}, {"name": "Huazhou", "country_iso2": "CN", "state": "Guangdong", "is_capital": false, "latitude": 21.664, "longitude": 110.6396, "population": 1291668}, {"name": "Huazhou", "country_iso2": "CN", "state": "Henan", "is_capital": false, "latitude": 32.688, "longitude": 112.087, "population": 1247807}, {"name": "Huchuan", "country_iso2": "CN", "state": "Gansu", "is_capital": false, "latitude": 34.9249, "longitude": 106.1409, "population": 14993}, {"name": "Huguan Nongchang", "country_iso2": "CN", "state": "Guangdong", "is_capital": false, "latitude": 21.2015, "longitude": 110.2459, "population": 13074}, {"name": "Huichang", "country_iso2": "CN", "state": "Henan", "is_capital": false, "latitude": 34.9073, "longitude": 112.7914, "population": 334213}, {"name": "Huili Chengguanzhen", "country_iso2": "CN", "state": "Sichuan", "is_capital": false, "latitude": 26.6333, "longitude": 102.25, "population": 390531}, {"name": "Huilong", "country_iso2": "CN", "state": "Jiangsu", "is_capital": false, "latitude": 31.87, "longitude": 121.703, "population": 967313}, {"name": "Huilong", "country_iso2": "CN", "state": "Sichuan", "is_capital": false, "latitude": 30.3866, "longitude": 106.7756, "population": 272332}, {"name": "Huilong", "country_iso2": "CN", "state": "Sichuan", "is_capital": false, "latitude": 28.1887, "longitude": 106.2086, "population": 23976}, {"name": "Huilongcun", "country_iso2": "CN", "state": "Anhui", "is_capital": false, "latitude": 32.7028, "longitude": 115.4742, "population": 46000}, {"name": "Huilongping", "country_iso2": "CN", "state": "Guizhou", "is_capital": false, "latitude": 28.1889, "longitude": 106.2086, "population": 23976}, {"name": "Huinan", "country_iso2": "CN", "state": "Jilin", "is_capital": false, "latitude": 42.6229, "longitude": 126.2614, "population": null}, {"name": "Huishi", "country_iso2": "CN", "state": "Gansu", "is_capital": false, "latitude": 35.6918, "longitude": 105.0531, "population": 68958}, {"name": "Huizhou", "country_iso2": "CN", "state": "Guangdong", "is_capital": false, "latitude": 23.112, "longitude": 114.416, "population": 2509243}, {"name": "Hulin", "country_iso2": "CN", "state": "Heilongjiang", "is_capital": false, "latitude": 45.7667, "longitude": 132.9333, "population": 267870}, {"name": "Huludao", "country_iso2": "CN", "state": "Liaoning", "is_capital": false, "latitude": 40.711, "longitude": 120.837, "population": 2434194}, {"name": "Humayingcun", "country_iso2": "CN", "state": "Hebei", "is_capital": false, "latitude": 41.1145, "longitude": 116.8985, "population": 15207}, {"name": "Hunchun", "country_iso2": "CN", "state": "Jilin", "is_capital": false, "latitude": 42.863, "longitude": 130.366, "population": 225454}, {"name": "Huodoushancun", "country_iso2": "CN", "state": "Hebei", "is_capital": false, "latitude": 40.7797, "longitude": 117.204, "population": 12410}, {"name": "Huolu", "country_iso2": "CN", "state": "Hebei", "is_capital": false, "latitude": 38.0874, "longitude": 114.3159, "population": 78250}, {"name": "Huozhou", "country_iso2": "CN", "state": "Shanxi", "is_capital": false, "latitude": 36.569, "longitude": 111.7551, "population": 272987}, {"name": "Huquan", "country_iso2": "CN", "state": "Shanxi", "is_capital": false, "latitude": 39.7603, "longitude": 114.2834, "population": 66271}, {"name": "Hushihacun", "country_iso2": "CN", "state": "Hebei", "is_capital": false, "latitude": 40.8899, "longitude": 116.987, "population": 19495}, {"name": "Huzhou", "country_iso2": "CN", "state": "Zhejiang", "is_capital": false, "latitude": 30.8925, "longitude": 120.0875, "population": 1558826}, {"name": "Jelilyüzi", "country_iso2": "CN", "state": "Xinjiang", "is_capital": false, "latitude": 43.9749, "longitude": 81.5328, "population": 37238}, {"name": "Jiaji", "country_iso2": "CN", "state": "Hainan", "is_capital": false, "latitude": 19.2431, "longitude": 110.4642, "population": 515700}, {"name": "Jiajin", "country_iso2": "CN", "state": "Guizhou", "is_capital": false, "latitude": 25.6743, "longitude": 108.4228, "population": 11954}, {"name": "Jiamusi", "country_iso2": "CN", "state": "Heilongjiang", "is_capital": false, "latitude": 46.8, "longitude": 130.319, "population": 2156505}, {"name": "Jiancheng", "country_iso2": "CN", "state": "Sichuan", "is_capital": false, "latitude": 30.38, "longitude": 104.53, "population": 1045900}, {"name": "Jiangguanchi", "country_iso2": "CN", "state": "Henan", "is_capital": false, "latitude": 34.037, "longitude": 113.852, "population": 4307488}, {"name": "Jiangjiadong", "country_iso2": "CN", "state": "Guangdong", "is_capital": false, "latitude": 24.5811, "longitude": 112.8994, "population": 21204}, {"name": "Jiangjiehe", "country_iso2": "CN", "state": "Guizhou", "is_capital": false, "latitude": 27.2618, "longitude": 107.3886, "population": 20015}, {"name": "Jiangmen", "country_iso2": "CN", "state": "Guangdong", "is_capital": false, "latitude": 22.5789, "longitude": 113.0815, "population": 4630300}, {"name": "Jiangna", "country_iso2": "CN", "state": "Yunnan", "is_capital": false, "latitude": 23.6092, "longitude": 104.3731, "population": 119665}, {"name": "Jiangshan", "country_iso2": "CN", "state": "Zhejiang", "is_capital": false, "latitude": 28.7361, "longitude": 118.625, "population": 494412}, {"name": "Jiangshandicun", "country_iso2": "CN", "state": "Zhejiang", "is_capital": false, "latitude": 28.7412, "longitude": 118.6225, "population": 467862}, {"name": "Jianguang", "country_iso2": "CN", "state": "Jiangxi", "is_capital": false, "latitude": 28.1958, "longitude": 115.7833, "population": 1065641}, {"name": "Jiangyin", "country_iso2": "CN", "state": "Jiangsu", "is_capital": false, "latitude": 31.839, "longitude": 120.295, "population": 1595138}, {"name": "Jiannan", "country_iso2": "CN", "state": "Sichuan", "is_capital": false, "latitude": 31.3333, "longitude": 104.2, "population": 439958}, {"name": "Jianshe", "country_iso2": "CN", "state": "Henan", "is_capital": false, "latitude": 34.2137, "longitude": 113.7629, "population": 687130}, {"name": "Jiantang", "country_iso2": "CN", "state": "Yunnan", "is_capital": false, "latitude": 27.8333, "longitude": 99.7, "population": 95163}, {"name": "Jian’ou", "country_iso2": "CN", "state": "Fujian", "is_capital": false, "latitude": 27.0333, "longitude": 118.3167, "population": 434451}, {"name": "Jiaojiangcun", "country_iso2": "CN", "state": "Zhejiang", "is_capital": false, "latitude": 28.6804, "longitude": 121.45, "population": null}, {"name": "Jiaojiazhuang", "country_iso2": "CN", "state": "Gansu", "is_capital": false, "latitude": 38.2636, "longitude": 101.8328, "population": 15635}, {"name": "Jiaoxiling", "country_iso2": "CN", "state": "Hunan", "is_capital": false, "latitude": 28.219, "longitude": 113.4764, "population": 28000}, {"name": "Jiaoxiyakou", "country_iso2": "CN", "state": "Yunnan", "is_capital": false, "latitude": 26.1283, "longitude": 102.45, "population": 14342}, {"name": "Jiaozhou", "country_iso2": "CN", "state": "Shandong", "is_capital": false, "latitude": 36.2647, "longitude": 120.0334, "population": 907500}, {"name": "Jiaozishan", "country_iso2": "CN", "state": "Guizhou", "is_capital": false, "latitude": 26.3342, "longitude": 105.9324, "population": 39551}, {"name": "Jiaozuo", "country_iso2": "CN", "state": "Henan", "is_capital": false, "latitude": 35.2157, "longitude": 113.2419, "population": 3521078}, {"name": "Jiashizhuangcun", "country_iso2": "CN", "state": "Hebei", "is_capital": false, "latitude": 37.8683, "longitude": 114.9478, "population": 48274}, {"name": "Jiaxing", "country_iso2": "CN", "state": "Zhejiang", "is_capital": false, "latitude": 30.747, "longitude": 120.756, "population": 1518654}, {"name": "Jiayuguan", "country_iso2": "CN", "state": "Gansu", "is_capital": false, "latitude": 39.7732, "longitude": 98.2882, "population": 312663}, {"name": "Jieshang", "country_iso2": "CN", "state": "Guizhou", "is_capital": false, "latitude": 25.6989, "longitude": 107.6481, "population": 35238}, {"name": "Jieshang", "country_iso2": "CN", "state": "Guizhou", "is_capital": false, "latitude": 26.2663, "longitude": 104.6671, "population": 23311}, {"name": "Jieshangya", "country_iso2": "CN", "state": "Hunan", "is_capital": false, "latitude": 29.505, "longitude": 110.7653, "population": 50000}, {"name": "Jieshou", "country_iso2": "CN", "state": "Anhui", "is_capital": false, "latitude": 33.257, "longitude": 115.3746, "population": 561956}, {"name": "Jiexiu", "country_iso2": "CN", "state": "Shanxi", "is_capital": false, "latitude": 37.027, "longitude": 111.917, "population": 406517}, {"name": "Jieyang", "country_iso2": "CN", "state": "Guangdong", "is_capital": false, "latitude": 23.551, "longitude": 116.3727, "population": 5577814}, {"name": "Jihong", "country_iso2": "CN", "state": "Hubei", "is_capital": false, "latitude": 32.6972, "longitude": 111.7928, "population": 54000}, {"name": "Jilin", "country_iso2": "CN", "state": "Jilin", "is_capital": false, "latitude": 43.8519, "longitude": 126.5481, "population": null}, {"name": "Jinan", "country_iso2": "CN", "state": "Shandong", "is_capital": true, "latitude": 36.6702, "longitude": 117.0207, "population": 5606374}, {"name": "Jinbi", "country_iso2": "CN", "state": "Yunnan", "is_capital": false, "latitude": 25.7086, "longitude": 101.3368, "population": 93281}, {"name": "Jinchang", "country_iso2": "CN", "state": "Gansu", "is_capital": false, "latitude": 38.5214, "longitude": 102.188, "population": 438026}, {"name": "Jinchang", "country_iso2": "CN", "state": "Shanxi", "is_capital": false, "latitude": 38.4858, "longitude": 112.9643, "population": 54533}, {"name": "Jincheng", "country_iso2": "CN", "state": "Shanxi", "is_capital": false, "latitude": 35.491, "longitude": 112.852, "population": 2194545}, {"name": "Jincheng", "country_iso2": "CN", "state": "Shanxi", "is_capital": false, "latitude": 39.5591, "longitude": 113.1855, "population": 105038}, {"name": "Jingcheng", "country_iso2": "CN", "state": "Jiangsu", "is_capital": false, "latitude": 32.009, "longitude": 120.263, "population": 663408}, {"name": "Jingdezhen", "country_iso2": "CN", "state": "Jiangxi", "is_capital": false, "latitude": 29.2917, "longitude": 117.1986, "population": 1618979}, {"name": "Jinggang", "country_iso2": "CN", "state": "Guangdong", "is_capital": false, "latitude": 23.2722, "longitude": 113.2183, "population": 161343}, {"name": "Jinghai", "country_iso2": "CN", "state": "Tianjin", "is_capital": false, "latitude": 38.9294, "longitude": 116.9169, "population": 154325}, {"name": "Jinghong", "country_iso2": "CN", "state": "Yunnan", "is_capital": false, "latitude": 22.009, "longitude": 100.797, "population": 642737}, {"name": "Jingjiazhuang", "country_iso2": "CN", "state": "Beijing", "is_capital": false, "latitude": 40.4703, "longitude": 116.0869, "population": 9500}, {"name": "Jingling", "country_iso2": "CN", "state": "Hubei", "is_capital": false, "latitude": 30.664, "longitude": 113.167, "population": 1158640}, {"name": "Jingping", "country_iso2": "CN", "state": "Shanxi", "is_capital": false, "latitude": 39.5189, "longitude": 112.2837, "population": 101297}, {"name": "Jingzhou", "country_iso2": "CN", "state": "Hebei", "is_capital": false, "latitude": 37.6911, "longitude": 116.2672, "population": 72806}, {"name": "Jinhe", "country_iso2": "CN", "state": "Yunnan", "is_capital": false, "latitude": 22.7667, "longitude": 103.25, "population": 85350}, {"name": "Jinhua", "country_iso2": "CN", "state": "Zhejiang", "is_capital": false, "latitude": 29.079, "longitude": 119.647, "population": 1463990}, {"name": "Jining", "country_iso2": "CN", "state": "Shandong", "is_capital": false, "latitude": 35.4151, "longitude": 116.5871, "population": 8081905}, {"name": "Jining", "country_iso2": "CN", "state": "Inner Mongolia", "is_capital": false, "latitude": 41.03, "longitude": 113.08, "population": 281716}, {"name": "Jinji", "country_iso2": "CN", "state": "Guangdong", "is_capital": false, "latitude": 22.165, "longitude": 112.4848, "population": 16493}, {"name": "Jinjiang", "country_iso2": "CN", "state": "Hainan", "is_capital": false, "latitude": 19.7288, "longitude": 110.0085, "population": 142948}, {"name": "Jinjicun", "country_iso2": "CN", "state": "Guangdong", "is_capital": false, "latitude": 22.1696, "longitude": 112.4812, "population": 16493}, {"name": "Jinju", "country_iso2": "CN", "state": "Guangdong", "is_capital": false, "latitude": 22.7073, "longitude": 111.8223, "population": 26393}, {"name": "Jinku", "country_iso2": "CN", "state": "Guangdong", "is_capital": false, "latitude": 23.0372, "longitude": 112.5151, "population": 43623}, {"name": "Jinmingsi", "country_iso2": "CN", "state": "Shaanxi", "is_capital": false, "latitude": 38.0512, "longitude": 110.2869, "population": 13780}, {"name": "Jinsha", "country_iso2": "CN", "state": "Guangdong", "is_capital": false, "latitude": 23.5286, "longitude": 116.615, "population": 71240}, {"name": "Jinshan", "country_iso2": "CN", "state": "Yunnan", "is_capital": false, "latitude": 25.1475, "longitude": 101.9764, "population": 366512}, {"name": "Jinshi", "country_iso2": "CN", "state": "Hunan", "is_capital": false, "latitude": 29.5, "longitude": 111.908, "population": 212739}, {"name": "Jinta", "country_iso2": "CN", "state": "Gansu", "is_capital": false, "latitude": 37.8366, "longitude": 102.556, "population": 14830}, {"name": "Jinxing", "country_iso2": "CN", "state": "Ningxia", "is_capital": false, "latitude": 37.9869, "longitude": 106.2027, "population": 60086}, {"name": "Jinzecun", "country_iso2": "CN", "state": "Shanghai", "is_capital": false, "latitude": 31.0397, "longitude": 120.9164, "population": 60800}, {"name": "Jinzhong", "country_iso2": "CN", "state": "Yunnan", "is_capital": false, "latitude": 26.3504, "longitude": 103.4167, "population": 5170}, {"name": "Jinzhou", "country_iso2": "CN", "state": "Liaoning", "is_capital": false, "latitude": 41.129, "longitude": 121.148, "population": 2703853}, {"name": "Jin’an", "country_iso2": "CN", "state": "Sichuan", "is_capital": false, "latitude": 32.6394, "longitude": 103.5806, "population": 12361}, {"name": "Jin’e", "country_iso2": "CN", "state": "Sichuan", "is_capital": false, "latitude": 29.3394, "longitude": 105.2875, "population": 568900}, {"name": "Jishi", "country_iso2": "CN", "state": "Qinghai", "is_capital": false, "latitude": 35.8461, "longitude": 102.4817, "population": 33022}, {"name": "Jitaicun", "country_iso2": "CN", "state": "Hebei", "is_capital": false, "latitude": 36.386, "longitude": 115.2442, "population": 46974}, {"name": "Jiuduhe", "country_iso2": "CN", "state": "Beijing", "is_capital": false, "latitude": 40.3594, "longitude": 116.4539, "population": 12533}, {"name": "Jiujiang", "country_iso2": "CN", "state": "Jiangxi", "is_capital": false, "latitude": 29.661, "longitude": 115.954, "population": 4600276}, {"name": "Jiutai", "country_iso2": "CN", "state": "Jilin", "is_capital": false, "latitude": 44.1447, "longitude": 125.8443, "population": 205399}, {"name": "Jixi", "country_iso2": "CN", "state": "Heilongjiang", "is_capital": false, "latitude": 45.295, "longitude": 130.969, "population": 1502060}, {"name": "Jixian", "country_iso2": "CN", "state": "Gansu", "is_capital": false, "latitude": 35.7321, "longitude": 107.9731, "population": 9822}, {"name": "Jizhou", "country_iso2": "CN", "state": "Hebei", "is_capital": false, "latitude": 37.5455, "longitude": 115.5663, "population": 124716}, {"name": "Jizhuang", "country_iso2": "CN", "state": "Beijing", "is_capital": false, "latitude": 40.3614, "longitude": 116.9858, "population": 22032}, {"name": "Ji’an", "country_iso2": "CN", "state": "Jiangxi", "is_capital": false, "latitude": 27.0912, "longitude": 114.9668, "population": 4469176}, {"name": "Ji’an Shi", "country_iso2": "CN", "state": "Jilin", "is_capital": false, "latitude": 41.1253, "longitude": 126.194, "population": 169220}, {"name": "Julu", "country_iso2": "CN", "state": "Hebei", "is_capital": false, "latitude": 37.2075, "longitude": 115.0233, "population": 90311}, {"name": "Jun Bel", "country_iso2": "CN", "state": "Inner Mongolia", "is_capital": false, "latitude": 39.2428, "longitude": 106.1922, "population": 14538}, {"name": "Jun’an", "country_iso2": "CN", "state": "Guangdong", "is_capital": false, "latitude": 22.7057, "longitude": 113.1526, "population": 141736}, {"name": "Jurh", "country_iso2": "CN", "state": "Inner Mongolia", "is_capital": false, "latitude": 44.6833, "longitude": 120.5167, "population": 23842}, {"name": "Jurong", "country_iso2": "CN", "state": "Jiangsu", "is_capital": false, "latitude": 31.946, "longitude": 119.164, "population": 617706}, {"name": "Kaifeng Chengguanzhen", "country_iso2": "CN", "state": "Henan", "is_capital": false, "latitude": 34.8519, "longitude": 114.3481, "population": null}, {"name": "Kaihua", "country_iso2": "CN", "state": "Yunnan", "is_capital": false, "latitude": 23.387, "longitude": 104.233, "population": 623772}, {"name": "Kaiwen", "country_iso2": "CN", "state": "Yunnan", "is_capital": false, "latitude": 27.1548, "longitude": 99.8371, "population": 13400}, {"name": "Kaiyuan", "country_iso2": "CN", "state": "Henan", "is_capital": false, "latitude": 36.0193, "longitude": 113.86, "population": 950939}, {"name": "Kaiyuan", "country_iso2": "CN", "state": "Liaoning", "is_capital": false, "latitude": 42.546, "longitude": 124.038, "population": 460927}, {"name": "Kaiyuan", "country_iso2": "CN", "state": "Yunnan", "is_capital": false, "latitude": 23.7111, "longitude": 103.2461, "population": 323031}, {"name": "Kaiyun", "country_iso2": "CN", "state": "Hunan", "is_capital": false, "latitude": 27.2399, "longitude": 112.8639, "population": 110964}, {"name": "Kaji", "country_iso2": "CN", "state": "Yunnan", "is_capital": false, "latitude": 26.0285, "longitude": 102.7888, "population": 13005}, {"name": "Kangbao", "country_iso2": "CN", "state": "Hebei", "is_capital": false, "latitude": 41.8511, "longitude": 114.6176, "population": 63779}, {"name": "Kangning", "country_iso2": "CN", "state": "Gansu", "is_capital": false, "latitude": 38.0176, "longitude": 102.352, "population": 10300}, {"name": "Kangqiao", "country_iso2": "CN", "state": "Sichuan", "is_capital": false, "latitude": 31.35, "longitude": 105.0667, "population": 174672}, {"name": "Karakax", "country_iso2": "CN", "state": "Xinjiang", "is_capital": false, "latitude": 37.2714, "longitude": 79.7267, "population": 66541}, {"name": "Karamay", "country_iso2": "CN", "state": "Xinjiang", "is_capital": false, "latitude": 45.5799, "longitude": 84.8892, "population": 487000}, {"name": "Kargilik", "country_iso2": "CN", "state": "Xinjiang", "is_capital": false, "latitude": 37.885, "longitude": 77.4131, "population": 75730}, {"name": "Kashgar", "country_iso2": "CN", "state": "Xinjiang", "is_capital": false, "latitude": 39.4681, "longitude": 75.9938, "population": 920000}, {"name": "Kedu", "country_iso2": "CN", "state": "Guizhou", "is_capital": false, "latitude": 25.7103, "longitude": 106.846, "population": 27363}, {"name": "Keshan", "country_iso2": "CN", "state": "Heilongjiang", "is_capital": false, "latitude": 48.0263, "longitude": 125.8659, "population": 72403}, {"name": "Khutubi", "country_iso2": "CN", "state": "Xinjiang", "is_capital": false, "latitude": 44.1874, "longitude": 86.8946, "population": 43127}, {"name": "Koktokay", "country_iso2": "CN", "state": "Xinjiang", "is_capital": false, "latitude": 47.0004, "longitude": 89.4666, "population": 80000}, {"name": "Kongjiazhuangcun", "country_iso2": "CN", "state": "Hebei", "is_capital": false, "latitude": 40.7536, "longitude": 114.7237, "population": 81909}, {"name": "Korgas", "country_iso2": "CN", "state": "Xinjiang", "is_capital": false, "latitude": 44.2125, "longitude": 80.4097, "population": 71466}, {"name": "Korla", "country_iso2": "CN", "state": "Xinjiang", "is_capital": false, "latitude": 41.7259, "longitude": 86.1746, "population": 770000}, {"name": "Kuaidamao", "country_iso2": "CN", "state": "Jilin", "is_capital": false, "latitude": 41.7283, "longitude": 125.9397, "population": 1302778}, {"name": "Kuiju", "country_iso2": "CN", "state": "Shandong", "is_capital": false, "latitude": 36.8667, "longitude": 119.4, "population": 564501}, {"name": "Kuiyibagecun", "country_iso2": "CN", "state": "Xinjiang", "is_capital": false, "latitude": 38.1023, "longitude": 77.1539, "population": 10553}, {"name": "Kumul", "country_iso2": "CN", "state": "Xinjiang", "is_capital": false, "latitude": 42.8193, "longitude": 93.5151, "population": 492096}, {"name": "Kunming", "country_iso2": "CN", "state": "Yunnan", "is_capital": true, "latitude": 25.0464, "longitude": 102.7094, "population": 4422686}, {"name": "Kuqa", "country_iso2": "CN", "state": "Xinjiang", "is_capital": false, "latitude": 41.7156, "longitude": 82.9322, "population": 462588}, {"name": "Kuytun", "country_iso2": "CN", "state": "Xinjiang", "is_capital": false, "latitude": 44.4264, "longitude": 84.9032, "population": 166261}, {"name": "Labuleng", "country_iso2": "CN", "state": "Gansu", "is_capital": false, "latitude": 35.1973, "longitude": 102.5187, "population": 22970}, {"name": "Laibin", "country_iso2": "CN", "state": "Guangxi", "is_capital": false, "latitude": 23.7501, "longitude": 109.2212, "population": 2074611}, {"name": "Laiwu", "country_iso2": "CN", "state": "Shandong", "is_capital": false, "latitude": 36.1833, "longitude": 117.6667, "population": 1248636}, {"name": "Laixi", "country_iso2": "CN", "state": "Shandong", "is_capital": false, "latitude": 36.8667, "longitude": 120.5333, "population": 720103}, {"name": "Laiyang", "country_iso2": "CN", "state": "Shandong", "is_capital": false, "latitude": 36.9758, "longitude": 120.7136, "population": 794986}, {"name": "Laiyuan", "country_iso2": "CN", "state": "Hebei", "is_capital": false, "latitude": 39.3478, "longitude": 114.6808, "population": 75701}, {"name": "Lajia", "country_iso2": "CN", "state": "Qinghai", "is_capital": false, "latitude": 34.6797, "longitude": 100.6406, "population": 12045}, {"name": "Lakoucun", "country_iso2": "CN", "state": "Zhejiang", "is_capital": false, "latitude": 28.3431, "longitude": 119.9521, "population": 14016}, {"name": "Langdu", "country_iso2": "CN", "state": "Yunnan", "is_capital": false, "latitude": 23.325, "longitude": 102.205, "population": 26467}, {"name": "Langfang", "country_iso2": "CN", "state": "Hebei", "is_capital": false, "latitude": 39.5383, "longitude": 116.6835, "population": 4358839}, {"name": "Langrucun", "country_iso2": "CN", "state": "Xinjiang", "is_capital": false, "latitude": 36.9014, "longitude": 79.6261, "population": 16505}, {"name": "Langtang", "country_iso2": "CN", "state": "Hunan", "is_capital": false, "latitude": 27.9636, "longitude": 111.11, "population": 56000}, {"name": "Langzhong", "country_iso2": "CN", "state": "Sichuan", "is_capital": false, "latitude": 31.558, "longitude": 106.005, "population": 622667}, {"name": "Lanling", "country_iso2": "CN", "state": "Guangdong", "is_capital": false, "latitude": 23.0033, "longitude": 114.5671, "population": 25043}, {"name": "Lanxi", "country_iso2": "CN", "state": "Zhejiang", "is_capital": false, "latitude": 29.208, "longitude": 119.458, "population": 560514}, {"name": "Lanxi", "country_iso2": "CN", "state": "Heilongjiang", "is_capital": false, "latitude": 46.2664, "longitude": 126.276, "population": 72528}, {"name": "Lanyi", "country_iso2": "CN", "state": "Shanxi", "is_capital": false, "latitude": 38.7048, "longitude": 111.5601, "population": 38431},