[{"name": "Abejorral", "country_iso2": "CO", "state": "Antioquia", "is_capital": false, "latitude": 5.7894, "longitude": -75.4281, "population": 20287}, {"name": "Acacías", "country_iso2": "CO", "state": "Meta", "is_capital": false, "latitude": 3.9878, "longitude": -73.7597, "population": 75252}, {"name": "Acandí", "country_iso2": "CO", "state": "Chocó", "is_capital": false, "latitude": 8.5333, "longitude": -77.2333, "population": 12095}, {"name": "Acevedo", "country_iso2": "CO", "state": "Huila", "is_capital": false, "latitude": 1.8192, "longitude": -75.8964, "population": 39877}, {"name": "Achí", "country_iso2": "CO", "state": "Bolívar", "is_capital": false, "latitude": 8.5667, "longitude": -74.55, "population": 23051}, {"name": "Agua de Dios", "country_iso2": "CO", "state": "Cundinamarca", "is_capital": false, "latitude": 4.3781, "longitude": -74.6739, "population": 13182}, {"name": "Aguachica", "country_iso2": "CO", "state": "Cesar", "is_capital": false, "latitude": 8.3167, "longitude": -73.6333, "population": 109621}, {"name": "Aguadas", "country_iso2": "CO", "state": "Caldas", "is_capital": false, "latitude": 5.6167, "longitude": -75.4667, "population": 21237}, {"name": "Aguazul", "country_iso2": "CO", "state": "Casanare", "is_capital": false, "latitude": 5.1731, "longitude": -72.5547, "population": 43183}, {"name": "Agustín Codazzi", "country_iso2": "CO", "state": "Cesar", "is_capital": false, "latitude": 10.0367, "longitude": -73.2369, "population": 49233}, {"name": "Aipe", "country_iso2": "CO", "state": "Huila", "is_capital": false, "latitude": 3.2167, "longitude": -75.2333, "population": 29177}, {"name": "Albania", "country_iso2": "CO", "state": "La Guajira", "is_capital": false, "latitude": 11.1597, "longitude": -72.5856, "population": 19429}, {"name": "Alcalá", "country_iso2": "CO", "state": "Valle del Cauca", "is_capital": false, "latitude": 4.6667, "longitude": -75.75, "population": 12716}, {"name": "Algarrobo", "country_iso2": "CO", "state": "Magdalena", "is_capital": false, "latitude": 10.1, "longitude": -74.2667, "population": 14294}, {"name": "Algarrobo", "country_iso2": "CO", "state": "Magdalena", "is_capital": false, "latitude": 10.1, "longitude": -74.2667, "population": 14294}, {"name": "Algeciras", "country_iso2": "CO", "state": "Huila", "is_capital": false, "latitude": 2.5333, "longitude": -75.3167, "population": 24708}, {"name": "Almaguer", "country_iso2": "CO", "state": "Cauca", "is_capital": false, "latitude": 1.9167, "longitude": -76.8667, "population": 21374}, {"name": "Altos del Rosario", "country_iso2": "CO", "state": "Bolívar", "is_capital": false, "latitude": 8.8, "longitude": -74.1667, "population": 13669}, {"name": "Alvarado", "country_iso2": "CO", "state": "Tolima", "is_capital": false, "latitude": 4.5667, "longitude": -74.95, "population": 8873}, {"name": "Amagá", "country_iso2": "CO", "state": "Antioquia", "is_capital": false, "latitude": 6.05, "longitude": -75.7, "population": 30376}, {"name": "Amalfi", "country_iso2": "CO", "state": "Antioquia", "is_capital": false, "latitude": 6.9167, "longitude": -75.0833, "population": 22714}, {"name": "Anapoima", "country_iso2": "CO", "state": "Cundinamarca", "is_capital": false, "latitude": 4.5503, "longitude": -74.5361, "population": 14519}, {"name": "Andalucía", "country_iso2": "CO", "state": "Valle del Cauca", "is_capital": false, "latitude": 4.1667, "longitude": -76.1667, "population": 25467}, {"name": "Andes", "country_iso2": "CO", "state": "Antioquia", "is_capital": false, "latitude": 5.5833, "longitude": -75.9167, "population": 43269}, {"name": "Angelópolis", "country_iso2": "CO", "state": "Antioquia", "is_capital": false, "latitude": 6.1333, "longitude": -75.7, "population": 8946}, {"name": "Angostura", "country_iso2": "CO", "state": "Antioquia", "is_capital": false, "latitude": 6.8667, "longitude": -75.3333, "population": 10500}, {"name": "Anolaima", "country_iso2": "CO", "state": "Cundinamarca", "is_capital": false, "latitude": 4.7617, "longitude": -74.464, "population": 12911}, {"name": "Anorí", "country_iso2": "CO", "state": "Antioquia", "is_capital": false, "latitude": 7.0736, "longitude": -75.1458, "population": 16447}, {"name": "Anserma", "country_iso2": "CO", "state": "Caldas", "is_capital": false, "latitude": 5.2381, "longitude": -75.784, "population": 33674}, {"name": "Ansermanuevo", "country_iso2": "CO", "state": "Valle del Cauca", "is_capital": false, "latitude": 4.8, "longitude": -76.0, "population": 19557}, {"name": "Anzoátegui", "country_iso2": "CO", "state": "Tolima", "is_capital": false, "latitude": 4.6339, "longitude": -75.0972, "population": 18849}, {"name": "Apartadó", "country_iso2": "CO", "state": "Antioquia", "is_capital": false, "latitude": 7.8833, "longitude": -76.6333, "population": 121003}, {"name": "Apía", "country_iso2": "CO", "state": "Risaralda", "is_capital": false, "latitude": 5.1, "longitude": -75.95, "population": 12613}, {"name": "Aquitania", "country_iso2": "CO", "state": "Boyacá", "is_capital": false, "latitude": 5.5833, "longitude": -72.8333, "population": 16087}, {"name": "Aracataca", "country_iso2": "CO", "state": "Magdalena", "is_capital": false, "latitude": 10.5937, "longitude": -74.1928, "population": 40400}, {"name": "Aranzazu", "country_iso2": "CO", "state": "Caldas", "is_capital": false, "latitude": 5.3, "longitude": -75.45, "population": 9854}, {"name": "Arauca", "country_iso2": "CO", "state": "Arauca", "is_capital": true, "latitude": 7.0903, "longitude": -70.7617, "population": 96814}, {"name": "Arauquita", "country_iso2": "CO", "state": "Arauca", "is_capital": false, "latitude": 7.0303, "longitude": -71.4356, "population": 41309}, {"name": "Arbeláez", "country_iso2": "CO", "state": "Cundinamarca", "is_capital": false, "latitude": 4.2725, "longitude": -74.4151, "population": 12292}, {"name": "Arboledas", "country_iso2": "CO", "state": "Norte de Santander", "is_capital": false, "latitude": 7.6667, "longitude": -72.75, "population": 8984}, {"name": "Arboletes", "country_iso2": "CO", "state": "Antioquia", "is_capital": false, "latitude": 8.8517, "longitude": -76.4283, "population": 44560}, {"name": "Argelia", "country_iso2": "CO", "state": "Cauca", "is_capital": false, "latitude": 2.2431, "longitude": -77.2786, "population": 27670}, {"name": "Argelia", "country_iso2": "CO", "state": "Antioquia", "is_capital": false, "latitude": 5.7425, "longitude": -75.1464, "population": 8911}, {"name": "Arjona", "country_iso2": "CO", "state": "Bolívar", "is_capital": false, "latitude": 10.2586, "longitude": -75.3461, "population": 75615}, {"name": "Armenia", "country_iso2": "CO", "state": "Quindío", "is_capital": true, "latitude": 4.53, "longitude": -75.68, "population": 301226}, {"name": "Arroyohondo", "country_iso2": "CO", "state": "Bolívar", "is_capital": false, "latitude": 10.1333, "longitude": -75.5667, "population": 9907}, {"name": "Astrea", "country_iso2": "CO", "state": "Cesar", "is_capital": false, "latitude": 9.5, "longitude": -73.9833, "population": 18434}, {"name": "Ataco", "country_iso2": "CO", "state": "Tolima", "is_capital": false, "latitude": 3.6, "longitude": -75.3833, "population": 13470}, {"name": "Ayapel", "country_iso2": "CO", "state": "Córdoba", "is_capital": false, "latitude": 8.3167, "longitude": -75.15, "population": 47247}, {"name": "Bagadó", "country_iso2": "CO", "state": "Chocó", "is_capital": false, "latitude": 5.4167, "longitude": -76.4167, "population": 13174}, {"name": "Balboa", "country_iso2": "CO", "state": "Cauca", "is_capital": false, "latitude": 2.0436, "longitude": -77.2197, "population": 26384}, {"name": "Baranoa", "country_iso2": "CO", "state": "Atlántico", "is_capital": false, "latitude": 10.8, "longitude": -74.9167, "population": 51730}, {"name": "Barbacoas", "country_iso2": "CO", "state": "Nariño", "is_capital": false, "latitude": 1.6717, "longitude": -78.1397, "population": 38708}, {"name": "Barbosa", "country_iso2": "CO", "state": "Antioquia", "is_capital": false, "latitude": 6.439, "longitude": -75.333, "population": 53167}, {"name": "Barbosa", "country_iso2": "CO", "state": "Santander", "is_capital": false, "latitude": 5.933, "longitude": -73.621, "population": 29581}, {"name": "Barrancabermeja", "country_iso2": "CO", "state": "Santander", "is_capital": false, "latitude": 7.0667, "longitude": -73.85, "population": 300000}, {"name": "Barrancas", "country_iso2": "CO", "state": "La Guajira", "is_capital": false, "latitude": 11.0, "longitude": -72.75, "population": 37554}, {"name": "Barranco de Loba", "country_iso2": "CO", "state": "Bolívar", "is_capital": false, "latitude": 8.95, "longitude": -74.1167, "population": 14435}, {"name": "Barranquilla", "country_iso2": "CO", "state": "Atlántico", "is_capital": true, "latitude": 10.9833, "longitude": -74.8019, "population": 1326588}, {"name": "Becerril", "country_iso2": "CO", "state": "Cesar", "is_capital": false, "latitude": 9.7, "longitude": -73.2833, "population": 20477}, {"name": "Belalcázar", "country_iso2": "CO", "state": "Cauca", "is_capital": false, "latitude": 2.6547, "longitude": -75.9928, "population": 36628}, {"name": "Belalcázar", "country_iso2": "CO", "state": "Caldas", "is_capital": false, "latitude": 5.0, "longitude": -75.8167, "population": 9690}, {"name": "Bellavista", "country_iso2": "CO", "state": "Chocó", "is_capital": false, "latitude": 6.5236, "longitude": -76.9744, "population": 9941}, {"name": "Bello", "country_iso2": "CO", "state": "Antioquia", "is_capital": false, "latitude": 6.3333, "longitude": -75.5667, "population": 561955}, {"name": "Belén de Umbría", "country_iso2": "CO", "state": "Risaralda", "is_capital": false, "latitude": 5.2, "longitude": -75.8667, "population": 25276}, {"name": "Belén de los Andaquíes", "country_iso2": "CO", "state": "Caquetá", "is_capital": false, "latitude": 1.4161, "longitude": -75.8725, "population": 11081}, {"name": "Betania", "country_iso2": "CO", "state": "Antioquia", "is_capital": false, "latitude": 5.75, "longitude": -75.9667, "population": 9286}, {"name": "Betulia", "country_iso2": "CO", "state": "Antioquia", "is_capital": false, "latitude": 6.1122, "longitude": -75.9839, "population": 17317}, {"name": "Bocas de Satinga", "country_iso2": "CO", "state": "Nariño", "is_capital": false, "latitude": 2.3469, "longitude": -78.3256, "population": 32759}, {"name": "Bogotá", "country_iso2": "CO", "state": "Bogotá", "is_capital": true, "latitude": 4.7111, "longitude": -74.0722, "population": 8034649}, {"name": "Bojacá", "country_iso2": "CO", "state": "Cundinamarca", "is_capital": false, "latitude": 4.7336, "longitude": -74.3422, "population": 9256}, {"name": "Bolívar", "country_iso2": "CO", "state": "Cauca", "is_capital": false, "latitude": 1.9708, "longitude": -76.9694, "population": 44868}, {"name": "Bolívar", "country_iso2": "CO", "state": "Valle del Cauca", "is_capital": false, "latitude": 4.3386, "longitude": -76.1847, "population": 13954}, {"name": "Bolívar", "country_iso2": "CO", "state": "Santander", "is_capital": false, "latitude": 5.9911, "longitude": -73.7739, "population": 11778}, {"name": "Bosconia", "country_iso2": "CO", "state": "Cesar", "is_capital": false, "latitude": 9.9761, "longitude": -73.8903, "population": 40562}, {"name": "Briceño", "country_iso2": "CO", "state": "Antioquia", "is_capital": false, "latitude": 7.1111, "longitude": -75.55, "population": 8673}, {"name": "Bucaramanga", "country_iso2": "CO", "state": "Santander", "is_capital": true, "latitude": 7.1333, "longitude": -73.0, "population": 893040}, {"name": "Buenaventura", "country_iso2": "CO", "state": "Valle del Cauca", "is_capital": false, "latitude": 3.8772, "longitude": -77.0267, "population": 423927}, {"name": "Buenavista", "country_iso2": "CO", "state": "Córdoba", "is_capital": false, "latitude": 8.6833, "longitude": -75.25, "population": 22711}, {"name": "Buenavista", "country_iso2": "CO", "state": "Córdoba", "is_capital": false, "latitude": 8.6805, "longitude": -75.2554, "population": 18344}, {"name": "Buenavista", "country_iso2": "CO", "state": "Sucre", "is_capital": false, "latitude": 9.3222, "longitude": -74.9772, "population": 10829}, {"name": "Buenavista", "country_iso2": "CO", "state": "Magdalena", "is_capital": false, "latitude": 9.3333, "longitude": -74.3, "population": 8749}, {"name": "Buenos Aires", "country_iso2": "CO", "state": "Cauca", "is_capital": false, "latitude": 2.9167, "longitude": -76.6667, "population": 35197}, {"name": "Buesaco", "country_iso2": "CO", "state": "Nariño", "is_capital": false, "latitude": 1.3833, "longitude": -77.1667, "population": 26229}, {"name": "Bugalagrande", "country_iso2": "CO", "state": "Valle del Cauca", "is_capital": false, "latitude": 4.2167, "longitude": -76.1667, "population": 20970}, {"name": "Cachipay", "country_iso2": "CO", "state": "Cundinamarca", "is_capital": false, "latitude": 4.7308, "longitude": -74.4375, "population": 9833}, {"name": "Caicedonia", "country_iso2": "CO", "state": "Valle del Cauca", "is_capital": false, "latitude": 4.3333, "longitude": -75.8333, "population": 28825}, {"name": "Caimito", "country_iso2": "CO", "state": "Sucre", "is_capital": false, "latitude": 8.8333, "longitude": -75.1667, "population": 12077}, {"name": "Cajamarca", "country_iso2": "CO", "state": "Tolima", "is_capital": false, "latitude": 4.4167, "longitude": -75.5, "population": 17309}, {"name": "Cajibío", "country_iso2": "CO", "state": "Cauca", "is_capital": false, "latitude": 2.6333, "longitude": -76.6333, "population": 38703}, {"name": "Cajicá", "country_iso2": "CO", "state": "Cundinamarca", "is_capital": false, "latitude": 4.9167, "longitude": -74.0333, "population": 82244}, {"name": "Calamar", "country_iso2": "CO", "state": "Bolívar", "is_capital": false, "latitude": 10.25, "longitude": -74.9158, "population": 24573}, {"name": "Calamar", "country_iso2": "CO", "state": "Guaviare", "is_capital": false, "latitude": 1.9206, "longitude": -72.5542, "population": 9091}, {"name": "Calarcá", "country_iso2": "CO", "state": "Quindío", "is_capital": false, "latitude": 4.5333, "longitude": -75.65, "population": 71605}, {"name": "Caldas", "country_iso2": "CO", "state": "Antioquia", "is_capital": false, "latitude": 6.09, "longitude": -75.638, "population": 85385}, {"name": "Caldono", "country_iso2": "CO", "state": "Cauca", "is_capital": false, "latitude": 2.8, "longitude": -76.5333, "population": 34132}, {"name": "Cali", "country_iso2": "CO", "state": "Valle del Cauca", "is_capital": true, "latitude": 3.4206, "longitude": -76.5222, "population": 2838333}, {"name": "Caloto", "country_iso2": "CO", "state": "Cauca", "is_capital": false, "latitude": 3.0333, "longitude": -76.4167, "population": 25416}, {"name": "Campamento", "country_iso2": "CO", "state": "Antioquia", "is_capital": false, "latitude": 6.9789, "longitude": -75.2964, "population": 9091}, {"name": "Campo de la Cruz", "country_iso2": "CO", "state": "Atlántico", "is_capital": false, "latitude": 10.3778, "longitude": -74.8814, "population": 18354}, {"name": "Campoalegre", "country_iso2": "CO", "state": "Huila", "is_capital": false, "latitude": 2.6867, "longitude": -75.3256, "population": 34923}, {"name": "Canalete", "country_iso2": "CO", "state": "Córdoba", "is_capital": false, "latitude": 8.79, "longitude": -76.2411, "population": 23520}, {"name": "Candelaria", "country_iso2": "CO", "state": "Valle del Cauca", "is_capital": false, "latitude": 3.4, "longitude": -76.3833, "population": 95413}, {"name": "Candelaria", "country_iso2": "CO", "state": "Atlántico", "is_capital": false, "latitude": 10.4592, "longitude": -74.8806, "population": 11635}, {"name": "Caparrapí", "country_iso2": "CO", "state": "Cundinamarca", "is_capital": false, "latitude": 5.3442, "longitude": -74.4917, "population": 10301}, {"name": "Carepa", "country_iso2": "CO", "state": "Antioquia", "is_capital": false, "latitude": 7.7578, "longitude": -76.6553, "population": 47932}, {"name": "Carlosama", "country_iso2": "CO", "state": "Nariño", "is_capital": false, "latitude": 0.8658, "longitude": -77.7294, "population": 8727}, {"name": "Carmen de Apicalá", "country_iso2": "CO", "state": "Tolima", "is_capital": false, "latitude": 4.15, "longitude": -74.7333, "population": 8880}, {"name": "Carmen de Carupa", "country_iso2": "CO", "state": "Cundinamarca", "is_capital": false, "latitude": 5.3503, "longitude": -73.9053, "population": 9109}, {"name": "Carmen de Viboral", "country_iso2": "CO", "state": "Antioquia", "is_capital": false, "latitude": 6.0833, "longitude": -75.3333, "population": 62581}, {"name": "Cartagena", "country_iso2": "CO", "state": "Bolívar", "is_capital": true, "latitude": 10.4, "longitude": -75.5, "population": 914552}, {"name": "Cartagena del Chairá", "country_iso2": "CO", "state": "Caquetá", "is_capital": false, "latitude": 1.35, "longitude": -74.8333, "population": 35473}, {"name": "Cartago", "country_iso2": "CO", "state": "Valle del Cauca", "is_capital": false, "latitude": 4.7, "longitude": -75.9167, "population": 142902}, {"name": "Castilla La Nueva", "country_iso2": "CO", "state": "Meta", "is_capital": false, "latitude": 3.8333, "longitude": -73.6833, "population": 13611}, {"name": "Caucasia", "country_iso2": "CO", "state": "Antioquia", "is_capital": false, "latitude": 7.9833, "longitude": -75.2, "population": 90213}, {"name": "Cañasgordas", "country_iso2": "CO", "state": "Antioquia", "is_capital": false, "latitude": 6.7497, "longitude": -76.0258, "population": 13595}, {"name": "Cereté", "country_iso2": "CO", "state": "Córdoba", "is_capital": false, "latitude": 8.8833, "longitude": -75.8, "population": 94935}, {"name": "Chachagüí", "country_iso2": "CO", "state": "Nariño", "is_capital": false, "latitude": 1.3605, "longitude": -77.2835, "population": 12419}, {"name": "Chaparral", "country_iso2": "CO", "state": "Tolima", "is_capital": false, "latitude": 3.75, "longitude": -75.5833, "population": 50367}, {"name": "Charalá", "country_iso2": "CO", "state": "Santander", "is_capital": false, "latitude": 6.25, "longitude": -73.0833, "population": 10211}, {"name": "Chigorodó", "country_iso2": "CO", "state": "Antioquia", "is_capital": false, "latitude": 7.6675, "longitude": -76.6808, "population": 84183}, {"name": "Chimichagua", "country_iso2": "CO", "state": "Cesar", "is_capital": false, "latitude": 9.25, "longitude": -73.8167, "population": 30303}, {"name": "Chimá", "country_iso2": "CO", "state": "Córdoba", "is_capital": false, "latitude": 9.15, "longitude": -75.6333, "population": 13492}, {"name": "Chinchiná", "country_iso2": "CO", "state": "Caldas", "is_capital": false, "latitude": 4.9825, "longitude": -75.6036, "population": 50673}, {"name": "Chinácota", "country_iso2": "CO", "state": "Norte de Santander", "is_capital": false, "latitude": 7.6167, "longitude": -72.6, "population": 16348}, {"name": "Chinú", "country_iso2": "CO", "state": "Córdoba", "is_capital": false, "latitude": 9.0833, "longitude": -75.3333, "population": 50313}, {"name": "Chiquinquirá", "country_iso2": "CO", "state": "Boyacá", "is_capital": false, "latitude": 5.6333, "longitude": -73.75, "population": 85274}, {"name": "Chiriguaná", "country_iso2": "CO", "state": "Cesar", "is_capital": false, "latitude": 9.3667, "longitude": -73.6, "population": 27006}, {"name": "Chita", "country_iso2": "CO", "state": "Boyacá", "is_capital": false, "latitude": 6.1667, "longitude": -72.4167, "population": 9542}, {"name": "Chitagá", "country_iso2": "CO", "state": "Norte de Santander", "is_capital": false, "latitude": 7.1333, "longitude": -72.6667, "population": 10554}, {"name": "Chivolo", "country_iso2": "CO", "state": "Magdalena", "is_capital": false, "latitude": 10.0261, "longitude": -74.6211, "population": 24932}, {"name": "Choachí", "country_iso2": "CO", "state": "Cundinamarca", "is_capital": false, "latitude": 4.5297, "longitude": -73.9236, "population": 10729}, {"name": "Chocontá", "country_iso2": "CO", "state": "Cundinamarca", "is_capital": false, "latitude": 5.1467, "longitude": -73.6825, "population": 25257}, {"name": "Chía", "country_iso2": "CO", "state": "Cundinamarca", "is_capital": false, "latitude": 4.85, "longitude": -74.05, "population": 124309}, {"name": "Cicuco", "country_iso2": "CO", "state": "Bolívar", "is_capital": false, "latitude": 9.2667, "longitude": -74.65, "population": 13120}, {"name": "Cimitarra", "country_iso2": "CO", "state": "Santander", "is_capital": false, "latitude": 6.3167, "longitude": -73.95, "population": 49593}, {"name": "Circasia", "country_iso2": "CO", "state": "Quindío", "is_capital": false, "latitude": 4.6167, "longitude": -75.6333, "population": 26705}, {"name": "Cisneros", "country_iso2": "CO", "state": "Antioquia", "is_capital": false, "latitude": 6.5383, "longitude": -75.0886, "population": 11555}, {"name": "Ciudad Bolívar", "country_iso2": "CO", "state": "Antioquia", "is_capital": false, "latitude": 5.85, "longitude": -76.0333, "population": 27458}, {"name": "Ciénaga", "country_iso2": "CO", "state": "Magdalena", "is_capital": false, "latitude": 11.0069, "longitude": -74.25, "population": 129414}, {"name": "Ciénaga de Oro", "country_iso2": "CO", "state": "Córdoba", "is_capital": false, "latitude": 8.8833, "longitude": -75.6167, "population": 64226}, {"name": "Clemencia", "country_iso2": "CO", "state": "Bolívar", "is_capital": false, "latitude": 10.5833, "longitude": -75.3333, "population": 13821}, {"name": "Coconuco", "country_iso2": "CO", "state": "Cauca", "is_capital": false, "latitude": 2.25, "longitude": -76.4167, "population": 14952}, {"name": "Cocorná", "country_iso2": "CO", "state": "Antioquia", "is_capital": false, "latitude": 6.0569, "longitude": -75.1853, "population": 14743}, {"name": "Coello", "country_iso2": "CO", "state": "Tolima", "is_capital": false, "latitude": 4.3333, "longitude": -74.9167, "population": 9887}, {"name": "Cogua", "country_iso2": "CO", "state": "Cundinamarca", "is_capital": false, "latitude": 5.0667, "longitude": -73.9833, "population": 24092}, {"name": "Concordia", "country_iso2": "CO", "state": "Antioquia", "is_capital": false, "latitude": 6.049, "longitude": -75.909, "population": 20271}, {"name": "Concordia", "country_iso2": "CO", "state": "Magdalena", "is_capital": false, "latitude": 10.2667, "longitude": -74.8333, "population": 9681}, {"name": "Condoto", "country_iso2": "CO", "state": "Chocó", "is_capital": false, "latitude": 5.1, "longitude": -76.65, "population": 14660}, {"name": "Consacá", "country_iso2": "CO", "state": "Nariño", "is_capital": false, "latitude": 1.2, "longitude": -77.4667, "population": 9099}, {"name": "Convención", "country_iso2": "CO", "state": "Norte de Santander", "is_capital": false, "latitude": 8.8333, "longitude": -73.2, "population": 18112}, {"name": "Copacabana", "country_iso2": "CO", "state": "Antioquia", "is_capital": false, "latitude": 6.3333, "longitude": -75.5, "population": 73574}, {"name": "Corinto", "country_iso2": "CO", "state": "Cauca", "is_capital": false, "latitude": 3.1739, "longitude": -76.2594, "population": 33489}, {"name": "Corozal", "country_iso2": "CO", "state": "Sucre", "is_capital": false, "latitude": 9.3333, "longitude": -75.25, "population": 70853}, {"name": "Cota", "country_iso2": "CO", "state": "Cundinamarca", "is_capital": false, "latitude": 4.8167, "longitude": -74.1, "population": 32691}, {"name": "Cotorra", "country_iso2": "CO", "state": "Córdoba", "is_capital": false, "latitude": 9.05, "longitude": -75.8, "population": 16215}, {"name": "Coveñas", "country_iso2": "CO", "state": "Sucre", "is_capital": false, "latitude": 9.4167, "longitude": -75.7, "population": 11270}, {"name": "Coyaima", "country_iso2": "CO", "state": "Tolima", "is_capital": false, "latitude": 3.8333, "longitude": -75.0833, "population": 28443}, {"name": "Cumaral", "country_iso2": "CO", "state": "Meta", "is_capital": false, "latitude": 4.2694, "longitude": -73.4864, "population": 21397}, {"name": "Cumaribo", "country_iso2": "CO", "state": "Vichada", "is_capital": false, "latitude": 4.4333, "longitude": -69.8, "population": 43138}, {"name": "Cumbal", "country_iso2": "CO", "state": "Nariño", "is_capital": false, "latitude": 0.9078, "longitude": -77.7908, "population": 40492}, {"name": "Cunday", "country_iso2": "CO", "state": "Tolima", "is_capital": false, "latitude": 4.0833, "longitude": -74.6667, "population": 9544}, {"name": "Curití", "country_iso2": "CO", "state": "Santander", "is_capital": false, "latitude": 6.6667, "longitude": -73.0, "population": 12065}, {"name": "Curumaní", "country_iso2": "CO", "state": "Cesar", "is_capital": false, "latitude": 9.2, "longitude": -73.55, "population": 23018}, {"name": "Cáceres", "country_iso2": "CO", "state": "Antioquia", "is_capital": false, "latitude": 7.6667, "longitude": -75.3333, "population": 42112}, {"name": "Cáchira", "country_iso2": "CO", "state": "Norte de Santander", "is_capital": false, "latitude": 7.75, "longitude": -73.1667, "population": 10970}, {"name": "Cáqueza", "country_iso2": "CO", "state": "Cundinamarca", "is_capital": false, "latitude": 4.4053, "longitude": -73.9478, "population": 17048}, {"name": "Cómbita", "country_iso2": "CO", "state": "Boyacá", "is_capital": false, "latitude": 5.75, "longitude": -73.25, "population": 14632}, {"name": "Córdoba", "country_iso2": "CO", "state": "Nariño", "is_capital": false, "latitude": 0.855, "longitude": -77.5211, "population": 14006}, {"name": "Córdoba", "country_iso2": "CO", "state": "Bolívar", "is_capital": false, "latitude": 9.5867, "longitude": -74.8272, "population": 12266}, {"name": "Cúcuta", "country_iso2": "CO", "state": "Norte de Santander", "is_capital": true, "latitude": 7.8942, "longitude": -72.5039, "population": 806378}, {"name": "Dabeiba", "country_iso2": "CO", "state": "Antioquia", "is_capital": false, "latitude": 7.0, "longitude": -76.25, "population": 22954}, {"name": "Dagua", "country_iso2": "CO", "state": "Valle del Cauca", "is_capital": false, "latitude": 3.6667, "longitude": -76.7, "population": 36891}, {"name": "Darién", "country_iso2": "CO", "state": "Valle del Cauca", "is_capital": false, "latitude": 3.9167, "longitude": -76.6667, "population": 16054}, {"name": "Dibulla", "country_iso2": "CO", "state": "La Guajira", "is_capital": false, "latitude": 11.2667, "longitude": -73.3, "population": 37854}, {"name": "Distracción", "country_iso2": "CO", "state": "La Guajira", "is_capital": false, "latitude": 10.9, "longitude": -72.8833, "population": 17112}, {"name": "Donmatías", "country_iso2": "CO", "state": "Antioquia", "is_capital": false, "latitude": 6.4833, "longitude": -75.4333, "population": 24201}, {"name": "Dosquebradas", "country_iso2": "CO", "state": "Risaralda", "is_capital": false, "latitude": 4.8333, "longitude": -75.6833, "population": 179301}, {"name": "Duitama", "country_iso2": "CO", "state": "Boyacá", "is_capital": false, "latitude": 5.8333, "longitude": -73.0167, "population": 132894}, {"name": "Ebéjico", "country_iso2": "CO", "state": "Antioquia", "is_capital": false, "latitude": 6.3333, "longitude": -75.7667, "population": 12158}, {"name": "El Bagre", "country_iso2": "CO", "state": "Antioquia", "is_capital": false, "latitude": 7.5942, "longitude": -74.8119, "population": 51862}, {"name": "El Banco", "country_iso2": "CO", "state": "Magdalena", "is_capital": false, "latitude": 8.9983, "longitude": -73.9747, "population": 72131}, {"name": "El Bordo", "country_iso2": "CO", "state": "Cauca", "is_capital": false, "latitude": 2.1667, "longitude": -77.0833, "population": 37504}, {"name": "El Cairo", "country_iso2": "CO", "state": "Valle del Cauca", "is_capital": false, "latitude": 4.75, "longitude": -76.25, "population": 9976}, {"name": "El Carmen", "country_iso2": "CO", "state": "Norte de Santander", "is_capital": false, "latitude": 8.5128, "longitude": -73.4508, "population": 12001}, {"name": "El Carmen de Atrato", "country_iso2": "CO", "state": "Chocó", "is_capital": false, "latitude": 5.8878, "longitude": -75.1642, "population": 14049}, {"name": "El Carmen de Bolívar", "country_iso2": "CO", "state": "Bolívar", "is_capital": false, "latitude": 9.7167, "longitude": -75.1333, "population": 66001}, {"name": "El Carmen de Chucurí", "country_iso2": "CO", "state": "Santander", "is_capital": false, "latitude": 6.6981, "longitude": -73.5111, "population": 20858}, {"name": "El Cerrito", "country_iso2": "CO", "state": "Valle del Cauca", "is_capital": false, "latitude": 3.6667, "longitude": -76.1667, "population": 56470}, {"name": "El Charco", "country_iso2": "CO", "state": "Nariño", "is_capital": false, "latitude": 2.4775, "longitude": -78.1111, "population": 42525}, {"name": "El Colegio", "country_iso2": "CO", "state": "Cundinamarca", "is_capital": false, "latitude": 4.5808, "longitude": -74.4425, "population": 22247}, {"name": "El Copey", "country_iso2": "CO", "state": "Cesar", "is_capital": false, "latitude": 10.15, "longitude": -73.9667, "population": 28550}, {"name": "El Difícil", "country_iso2": "CO", "state": "Magdalena", "is_capital": false, "latitude": 9.85, "longitude": -74.2386, "population": 32637}, {"name": "El Doncello", "country_iso2": "CO", "state": "Caquetá", "is_capital": false, "latitude": 1.6833, "longitude": -75.2833, "population": 22306}, {"name": "El Dovio", "country_iso2": "CO", "state": "Valle del Cauca", "is_capital": false, "latitude": 4.5167, "longitude": -76.2333, "population": 8508}, {"name": "El Molino", "country_iso2": "CO", "state": "La Guajira", "is_capital": false, "latitude": 10.6533, "longitude": -72.9242, "population": 9121}, {"name": "El Paso", "country_iso2": "CO", "state": "Cesar", "is_capital": false, "latitude": 9.6622, "longitude": -73.7519, "population": 23534}, {"name": "El Paujíl", "country_iso2": "CO", "state": "Caquetá", "is_capital": false, "latitude": 1.5644, "longitude": -75.3319, "population": 21462}, {"name": "El Peñol", "country_iso2": "CO", "state": "Nariño", "is_capital": false, "latitude": 6.2186, "longitude": -75.2433, "population": 16223}, {"name": "El Piñón", "country_iso2": "CO", "state": "Magdalena", "is_capital": false, "latitude": 10.3333, "longitude": -74.6667, "population": 16752}, {"name": "El Playón", "country_iso2": "CO", "state": "Santander", "is_capital": false, "latitude": 7.4767, "longitude": -73.2081, "population": 11252}, {"name": "El Retorno", "country_iso2": "CO", "state": "Guaviare", "is_capital": false, "latitude": 2.3306, "longitude": -72.6278, "population": 24562}, {"name": "El Retén", "country_iso2": "CO", "state": "Magdalena", "is_capital": false, "latitude": 10.6167, "longitude": -74.2667, "population": 20981}, {"name": "El Roble", "country_iso2": "CO", "state": "Sucre", "is_capital": false, "latitude": 9.1, "longitude": -75.2, "population": 9786}, {"name": "El Rosal", "country_iso2": "CO", "state": "Cundinamarca", "is_capital": false, "latitude": 4.8519, "longitude": -74.2628, "population": 18958}, {"name": "El Tablón", "country_iso2": "CO", "state": "Nariño", "is_capital": false, "latitude": 1.4269, "longitude": -77.0969, "population": 13255}, {"name": "El Tambo", "country_iso2": "CO", "state": "Cauca", "is_capital": false, "latitude": 2.4514, "longitude": -76.8108, "population": 48094}, {"name": "El Tambo", "country_iso2": "CO", "state": "Nariño", "is_capital": false, "latitude": 1.4131, "longitude": -77.3981, "population": 12271}, {"name": "El Tarra", "country_iso2": "CO", "state": "Norte de Santander", "is_capital": false, "latitude": 8.5756, "longitude": -73.0944, "population": 10957}, {"name": "El Zulia", "country_iso2": "CO", "state": "Norte de Santander", "is_capital": false, "latitude": 7.9333, "longitude": -72.6, "population": 23921}, {"name": "El Águila", "country_iso2": "CO", "state": "Valle del Cauca", "is_capital": false, "latitude": 4.9167, "longitude": -76.0833, "population": 11069}, {"name": "Entrerríos", "country_iso2": "CO", "state": "Antioquia", "is_capital": false, "latitude": 6.5667, "longitude": -75.5167, "population": 8820}, {"name": "Envigado", "country_iso2": "CO", "state": "Antioquia", "is_capital": false, "latitude": 6.1667, "longitude": -75.5667, "population": 228848}, {"name": "Espinal", "country_iso2": "CO", "state": "Tolima", "is_capital": false, "latitude": 4.2, "longitude": -74.8333, "population": 75828}, {"name": "Facatativá", "country_iso2": "CO", "state": "Cundinamarca", "is_capital": false, "latitude": 4.8167, "longitude": -74.3667, "population": 145080}, {"name": "Falan", "country_iso2": "CO", "state": "Tolima", "is_capital": false, "latitude": 5.1333, "longitude": -74.95, "population": 9204}, {"name": "Filadelfia", "country_iso2": "CO", "state": "Caldas", "is_capital": false, "latitude": 5.3, "longitude": -75.6, "population": 9630}, {"name": "Filandia", "country_iso2": "CO", "state": "Quindío", "is_capital": false, "latitude": 4.6667, "longitude": -75.6333, "population": 12066}, {"name": "Flandes", "country_iso2": "CO", "state": "Tolima", "is_capital": false, "latitude": 4.2833, "longitude": -74.8, "population": 29478}, {"name": "Florencia", "country_iso2": "CO", "state": "Caquetá", "is_capital": true, "latitude": 1.6139, "longitude": -75.6128, "population": 191867}, {"name": "Florida", "country_iso2": "CO", "state": "Valle del Cauca", "is_capital": false, "latitude": 3.3275, "longitude": -76.2386, "population": 58988}, {"name": "Floridablanca", "country_iso2": "CO", "state": "Santander", "is_capital": false, "latitude": 7.2167, "longitude": -73.0667, "population": 295724}, {"name": "Fonseca", "country_iso2": "CO", "state": "La Guajira", "is_capital": false, "latitude": 10.8333, "longitude": -72.8333, "population": 39662}, {"name": "Fontibón", "country_iso2": "CO", "state": "Bogotá", "is_capital": false, "latitude": 4.6786, "longitude": -74.1411, "population": 317179}, {"name": "Fortul", "country_iso2": "CO", "state": "Arauca", "is_capital": false, "latitude": 6.7922, "longitude": -71.7756, "population": 26798}, {"name": "Fredonia", "country_iso2": "CO", "state": "Antioquia", "is_capital": false, "latitude": 5.9167, "longitude": -75.6667, "population": 20997}, {"name": "Fresno", "country_iso2": "CO", "state": "Tolima", "is_capital": false, "latitude": 5.1556, "longitude": -75.0403, "population": 29794}, {"name": "Frontino", "country_iso2": "CO", "state": "Antioquia", "is_capital": false, "latitude": 6.7833, "longitude": -76.1333, "population": 20156}, {"name": "Fuente de Oro", "country_iso2": "CO", "state": "Meta", "is_capital": false, "latitude": 3.4667, "longitude": -73.6167, "population": 11599}, {"name": "Fundación", "country_iso2": "CO", "state": "Magdalena", "is_capital": false, "latitude": 10.5214, "longitude": -74.1867, "population": 90514}, {"name": "Funza", "country_iso2": "CO", "state": "Cundinamarca", "is_capital": false, "latitude": 4.7167, "longitude": -74.2167, "population": 90671}, {"name": "Fusagasugá", "country_iso2": "CO", "state": "Cundinamarca", "is_capital": false, "latitude": 4.3452, "longitude": -74.3618, "population": 170241}, {"name": "Fómeque", "country_iso2": "CO", "state": "Cundinamarca", "is_capital": false, "latitude": 4.4847, "longitude": -73.8936, "population": 12214}, {"name": "Gachancipá", "country_iso2": "CO", "state": "Cundinamarca", "is_capital": false, "latitude": 4.9908, "longitude": -73.8731, "population": 17026}, {"name": "Gachetá", "country_iso2": "CO", "state": "Cundinamarca", "is_capital": false, "latitude": 4.8176, "longitude": -73.636, "population": 11086}, {"name": "Galapa", "country_iso2": "CO", "state": "Atlántico", "is_capital": false, "latitude": 10.8969, "longitude": -74.886, "population": 60708}, {"name": "Galeras", "country_iso2": "CO", "state": "Sucre", "is_capital": false, "latitude": 9.1667, "longitude": -75.05, "population": 21548}, {"name": "Gamarra", "country_iso2": "CO", "state": "Cesar", "is_capital": false, "latitude": 8.3333, "longitude": -73.6667, "population": 12444}, {"name": "Garagoa", "country_iso2": "CO", "state": "Boyacá", "is_capital": false, "latitude": 5.0825, "longitude": -73.3642, "population": 16944}, {"name": "Garzón", "country_iso2": "CO", "state": "Huila", "is_capital": false, "latitude": 2.1819, "longitude": -75.6578, "population": 69823}, {"name": "Gigante", "country_iso2": "CO", "state": "Huila", "is_capital": false, "latitude": 2.3867, "longitude": -75.5461, "population": 35498}, {"name": "Ginebra", "country_iso2": "CO", "state": "Valle del Cauca", "is_capital": false, "latitude": 3.75, "longitude": -76.1667, "population": 21815}, {"name": "Girardot", "country_iso2": "CO", "state": "Cundinamarca", "is_capital": false, "latitude": 4.305, "longitude": -74.8017, "population": 129834}, {"name": "Girardota", "country_iso2": "CO", "state": "Antioquia", "is_capital": false, "latitude": 6.3764, "longitude": -75.4473, "population": 51662}, {"name": "Girón", "country_iso2": "CO", "state": "Santander", "is_capital": false, "latitude": 7.0708, "longitude": -73.1731, "population": 152582}, {"name": "González", "country_iso2": "CO", "state": "Cesar", "is_capital": false, "latitude": 8.4, "longitude": -73.3333, "population": 8859}, {"name": "Granada", "country_iso2": "CO", "state": "Meta", "is_capital": false, "latitude": 3.5472, "longitude": -73.7086, "population": 56065}, {"name": "Granada", "country_iso2": "CO", "state": "Antioquia", "is_capital": false, "latitude": 6.147, "longitude": -75.188, "population": 10117}, {"name": "Granada", "country_iso2": "CO", "state": "Cundinamarca", "is_capital": false, "latitude": 4.5186, "longitude": -74.3514, "population": 9253}, {"name": "Guacarí", "country_iso2": "CO", "state": "Valle del Cauca", "is_capital": false, "latitude": 3.7667, "longitude": -76.3333, "population": 35513}, {"name": "Guachavés", "country_iso2": "CO", "state": "Nariño", "is_capital": false, "latitude": 1.2219, "longitude": -77.6772, "population": 31856}, {"name": "Guachetá", "country_iso2": "CO", "state": "Cundinamarca", "is_capital": false, "latitude": 5.3856, "longitude": -73.6856, "population": 11385}, {"name": "Guachucal", "country_iso2": "CO", "state": "Nariño", "is_capital": false, "latitude": 0.9667, "longitude": -77.7333, "population": 18845}, {"name": "Guadalajara de Buga", "country_iso2": "CO", "state": "Valle del Cauca", "is_capital": false, "latitude": 3.9, "longitude": -76.3019, "population": 128945}, {"name": "Guadalupe", "country_iso2": "CO", "state": "Huila", "is_capital": false, "latitude": 2.025, "longitude": -75.7572, "population": 22867}, {"name": "Guaduas", "country_iso2": "CO", "state": "Cundinamarca", "is_capital": false, "latitude": 5.0694, "longitude": -74.5981, "population": 41142}, {"name": "Guaitarilla", "country_iso2": "CO", "state": "Nariño", "is_capital": false, "latitude": 1.1333, "longitude": -77.5564, "population": 12011}, {"name": "Guamal", "country_iso2": "CO", "state": "Magdalena", "is_capital": false, "latitude": 9.1472, "longitude": -74.23, "population": 28277}, {"name": "Guamal", "country_iso2": "CO", "state": "Meta", "is_capital": false, "latitude": 3.88, "longitude": -73.7656, "population": 13857}, {"name": "Guamo", "country_iso2": "CO", "state": "Tolima", "is_capital": false, "latitude": 4.0833, "longitude": -74.9167, "population": 31350}, {"name": "Guapí", "country_iso2": "CO", "state": "Cauca", "is_capital": false, "latitude": 2.5703, "longitude": -77.8856, "population": 29797}, {"name": "Guaranda", "country_iso2": "CO", "state": "Sucre", "is_capital": false, "latitude": 8.4667, "longitude": -75.5333, "population": 17422}, {"name": "Guarne", "country_iso2": "CO", "state": "Antioquia", "is_capital": false, "latitude": 6.28, "longitude": -75.4427, "population": 51265}, {"name": "Guasca", "country_iso2": "CO", "state": "Cundinamarca", "is_capital": false, "latitude": 4.8658, "longitude": -73.8772, "population": 15727}, {"name": "Guatapé", "country_iso2": "CO", "state": "Antioquia", "is_capital": false, "latitude": 6.2333, "longitude": -75.1667, "population": 9121}, {"name": "Guateque", "country_iso2": "CO", "state": "Boyacá", "is_capital": false, "latitude": 5.0056, "longitude": -73.4722, "population": 9603}, {"name": "Guayabal", "country_iso2": "CO", "state": "Tolima", "is_capital": false, "latitude": 4.9633, "longitude": -74.9056, "population": 11490}, {"name": "Guática", "country_iso2": "CO", "state": "Risaralda", "is_capital": false, "latitude": 5.3167, "longitude": -75.8, "population": 12423}, {"name": "Génova", "country_iso2": "CO", "state": "Nariño", "is_capital": false, "latitude": 1.6442, "longitude": -77.0194, "population": 10127}, {"name": "Hacarí", "country_iso2": "CO", "state": "Norte de Santander", "is_capital": false, "latitude": 8.3167, "longitude": -73.15, "population": 9745}, {"name": "Hatillo de Loba", "country_iso2": "CO", "state": "Bolívar", "is_capital": false, "latitude": 8.9586, "longitude": -74.0808, "population": 12270}, {"name": "Hato Corozal", "country_iso2": "CO", "state": "Meta", "is_capital": false, "latitude": 3.1833, "longitude": -73.75, "population": 11431}, {"name": "Hatonuevo", "country_iso2": "CO", "state": "La Guajira", "is_capital": false, "latitude": 11.0694, "longitude": -72.7669, "population": 23911}, {"name": "Honda", "country_iso2": "CO", "state": "Tolima", "is_capital": false, "latitude": 5.2042, "longitude": -74.7417, "population": 23830}, {"name": "Ibagué", "country_iso2": "CO", "state": "Tolima", "is_capital": true, "latitude": 4.4333, "longitude": -75.2333, "population": 546003}, {"name": "Icononzo", "country_iso2": "CO", "state": "Tolima", "is_capital": false, "latitude": 4.1833, "longitude": -74.5333, "population": 10801}, {"name": "Iles", "country_iso2": "CO", "state": "Nariño", "is_capital": false, "latitude": 0.9667, "longitude": -77.5167, "population": 8701}, {"name": "Inzá", "country_iso2": "CO", "state": "Cauca", "is_capital": false, "latitude": 2.55, "longitude": -76.0667, "population": 32582}, {"name": "Inírida", "country_iso2": "CO", "state": "Guainía", "is_capital": true, "latitude": 3.8653, "longitude": -67.9239, "population": 20279}, {"name": "Ipiales", "country_iso2": "CO", "state": "Nariño", "is_capital": false, "latitude": 0.8303, "longitude": -77.6444, "population": 169864}, {"name": "Iscuandé", "country_iso2": "CO", "state": "Nariño", "is_capital": false, "latitude": 2.4444, "longitude": -77.9717, "population": 8989}, {"name": "Isnos", "country_iso2": "CO", "state": "Huila", "is_capital": false, "latitude": 1.9333, "longitude": -76.2333, "population": 28530}, {"name": "Istmina", "country_iso2": "CO", "state": "Chocó", "is_capital": false, "latitude": 5.1667, "longitude": -76.6833, "population": 25981}, {"name": "Itagüí", "country_iso2": "CO", "state": "Antioquia", "is_capital": false, "latitude": 6.1667, "longitude": -75.6167, "population": 276744}, {"name": "Ituango", "country_iso2": "CO", "state": "Antioquia", "is_capital": false, "latitude": 7.1717, "longitude": -75.7642, "population": 23784}, {"name": "Jambaló", "country_iso2": "CO", "state": "Cauca", "is_capital": false, "latitude": 2.85, "longitude": -76.3167, "population": 16353}, {"name": "Jamundí", "country_iso2": "CO", "state": "Valle del Cauca", "is_capital": false, "latitude": 3.2667, "longitude": -76.55, "population": 130114}, {"name": "Jardín", "country_iso2": "CO", "state": "Antioquia", "is_capital": false, "latitude": 5.5986, "longitude": -75.8194, "population": 13748}, {"name": "Jericó", "country_iso2": "CO", "state": "Antioquia", "is_capital": false, "latitude": 5.7833, "longitude": -75.7833, "population": 12103}, {"name": "Juan de Acosta", "country_iso2": "CO", "state": "Atlántico", "is_capital": false, "latitude": 10.8333, "longitude": -75.0333, "population": 14184}, {"name": "Junín", "country_iso2": "CO", "state": "Cundinamarca", "is_capital": false, "latitude": 4.7903, "longitude": -73.8136, "population": 8720}, {"name": "Juradó", "country_iso2": "CO", "state": "Chocó", "is_capital": false, "latitude": 7.1114, "longitude": -77.7714, "population": 3239}, {"name": "La Apartada", "country_iso2": "CO", "state": "Córdoba", "is_capital": false, "latitude": 8.1006, "longitude": -75.3825, "population": 15204}, {"name": "La Argentina", "country_iso2": "CO", "state": "Huila", "is_capital": false, "latitude": 2.1961, "longitude": -75.98, "population": 12475}, {"name": "La Belleza", "country_iso2": "CO", "state": "Santander", "is_capital": false, "latitude": 5.8614, "longitude": -73.9683, "population": 8596}, {"name": "La Calera", "country_iso2": "CO", "state": "Cundinamarca", "is_capital": false, "latitude": 4.7531, "longitude": -73.92, "population": 28908}, {"name": "La Ceja", "country_iso2": "CO", "state": "Antioquia", "is_capital": false, "latitude": 6.0306, "longitude": -75.4317, "population": 64889}, {"name": "La Celia", "country_iso2": "CO", "state": "Risaralda", "is_capital": false, "latitude": 5.0019, "longitude": -76.0039, "population": 9660}, {"name": "La Cruz", "country_iso2": "CO", "state": "Nariño", "is_capital": false, "latitude": 1.6047, "longitude": -76.9742, "population": 16674}, {"name": "La Cumbre", "country_iso2": "CO", "state": "Valle del Cauca", "is_capital": false, "latitude": 3.0, "longitude": 38.0, "population": 11512}, {"name": "La Dorada", "country_iso2": "CO", "state": "Caldas", "is_capital": false, "latitude": 5.4538, "longitude": -74.6647, "population": 72925}, {"name": "La Dorada", "country_iso2": "CO", "state": "Putumayo", "is_capital": false, "latitude": 0.3436, "longitude": -76.9108, "population": 28982}, {"name": "La Esperanza", "country_iso2": "CO", "state": "Norte de Santander", "is_capital": false, "latitude": 7.6392, "longitude": -73.3358, "population": 11040}, {"name": "La Estrella", "country_iso2": "CO", "state": "Antioquia", "is_capital": false, "latitude": 6.1667, "longitude": -75.6667, "population": 71545}, {"name": "La Florida", "country_iso2": "CO", "state": "Nariño", "is_capital": false, "latitude": 1.3017, "longitude": -77.4106, "population": 9047}, {"name": "La Gloria", "country_iso2": "CO", "state": "Cesar", "is_capital": false, "latitude": 8.5833, "longitude": -73.5833, "population": 14989}, {"name": "La Jagua de Ibirico", "country_iso2": "CO", "state": "Cesar", "is_capital": false, "latitude": 9.5667, "longitude": -73.3333, "population": 46722}, {"name": "La Macarena", "country_iso2": "CO", "state": "Meta", "is_capital": false, "latitude": 2.1828, "longitude": -73.7847, "population": 36781}, {"name": "La Mesa", "country_iso2": "CO", "state": "Cundinamarca", "is_capital": false, "latitude": 4.6303, "longitude": -74.4625, "population": 33241}, {"name": "La Montañita", "country_iso2": "CO", "state": "Caquetá", "is_capital": false, "latitude": 1.5833, "longitude": -75.25, "population": 15725}, {"name": "La Palma", "country_iso2": "CO", "state": "Cundinamarca", "is_capital": false, "latitude": 5.3606, "longitude": -74.3897, "population": 11012}, {"name": "La Plata", "country_iso2": "CO", "state": "Huila", "is_capital": false, "latitude": 2.39, "longitude": -75.9075, "population": 67220}, {"name": "La Primavera", "country_iso2": "CO", "state": "Vichada", "is_capital": false, "latitude": 5.4906, "longitude": -70.4092, "population": 17626}, {"name": "La Sierra", "country_iso2": "CO", "state": "Cauca", "is_capital": false, "latitude": 2.25, "longitude": -76.8333, "population": 9935}, {"name": "La Tebaida", "country_iso2": "CO", "state": "Quindío", "is_capital": false, "latitude": 4.45, "longitude": -75.8, "population": 46323}, {"name": "La Unión", "country_iso2": "CO", "state": "Valle del Cauca", "is_capital": false, "latitude": 3.6539, "longitude": -76.5722, "population": 40339}, {"name": "La Unión", "country_iso2": "CO", "state": "Nariño", "is_capital": false, "latitude": 1.6019, "longitude": -77.1317, "population": 25270}, {"name": "La Unión", "country_iso2": "CO", "state": "Antioquia", "is_capital": false, "latitude": 5.9736, "longitude": -75.3614, "population": 19119}, {"name": "La Unión", "country_iso2": "CO", "state": "Sucre", "is_capital": false, "latitude": 8.8606, "longitude": -75.2806, "population": 11566}, {"name": "La Vega", "country_iso2": "CO", "state": "Cauca", "is_capital": false, "latitude": 2.0008, "longitude": -76.7778, "population": 47417}, {"name": "La Vega", "country_iso2": "CO", "state": "Cundinamarca", "is_capital": false, "latitude": 4.9992, "longitude": -74.3411, "population": 13085}, {"name": "La Victoria", "country_iso2": "CO", "state": "Valle del Cauca", "is_capital": false, "latitude": 4.5214, "longitude": -76.0364, "population": 13247}, {"name": "La Virginia", "country_iso2": "CO", "state": "Risaralda", "is_capital": false, "latitude": 4.9167, "longitude": -75.8333, "population": 32330}, {"name": "Landázuri", "country_iso2": "CO", "state": "Santander", "is_capital": false, "latitude": 6.2181, "longitude": -73.8114, "population": 15395}, {"name": "Lebrija", "country_iso2": "CO", "state": "Santander", "is_capital": false, "latitude": 7.1131, "longitude": -73.2189, "population": 42000}, {"name": "Lejanías", "country_iso2": "CO", "state": "Meta", "is_capital": false, "latitude": 3.5268, "longitude": -74.0232, "population": 10576}, {"name": "Lenguazaque", "country_iso2": "CO", "state": "Cundinamarca", "is_capital": false, "latitude": 5.3069, "longitude": -73.7061, "population": 10268}, {"name": "Leticia", "country_iso2": "CO", "state": "Amazonas", "is_capital": true, "latitude": -4.2167, "longitude": -69.9333, "population": 33503}, {"name": "Linares", "country_iso2": "CO", "state": "Nariño", "is_capital": false, "latitude": 1.35, "longitude": -77.5333, "population": 8974}, {"name": "Lloró", "country_iso2": "CO", "state": "Chocó", "is_capital": false, "latitude": 5.5, "longitude": -76.5333, "population": 11197}, {"name": "Lorica", "country_iso2": "CO", "state": "Córdoba", "is_capital": false, "latitude": 9.2419, "longitude": -75.816, "population": 52771}, {"name": "Los Córdobas", "country_iso2": "CO", "state": "Córdoba", "is_capital": false, "latitude": 8.9, "longitude": -76.3667, "population": 26705}, {"name": "Los Palmitos", "country_iso2": "CO", "state": "Sucre", "is_capital": false, "latitude": 9.3811, "longitude": -75.2714, "population": 21831}, {"name": "Los Patios", "country_iso2": "CO", "state": "Norte de Santander", "is_capital": false, "latitude": 7.8333, "longitude": -72.5167, "population": 94847}, {"name": "Los Santos", "country_iso2": "CO", "state": "Santander", "is_capital": false, "latitude": 6.9167, "longitude": -73.0833, "population": 12648}, {"name": "Luruaco", "country_iso2": "CO", "state": "Atlántico", "is_capital": false, "latitude": 10.6083, "longitude": -75.1417, "population": 22878}, {"name": "Lérida", "country_iso2": "CO", "state": "Tolima", "is_capital": false, "latitude": 4.9, "longitude": -74.9167, "population": 17197}, {"name": "Líbano", "country_iso2": "CO", "state": "Tolima", "is_capital": false, "latitude": 4.9167, "longitude": -75.1667, "population": 39665}, {"name": "Madrid", "country_iso2": "CO", "state": "Cundinamarca", "is_capital": false, "latitude": 4.7344, "longitude": -74.2683, "population": 112254}, {"name": "Magangué", "country_iso2": "CO", "state": "Bolívar", "is_capital": false, "latitude": 9.25, "longitude": -74.7667, "population": 123906}, {"name": "Mahates", "country_iso2": "CO", "state": "Bolívar", "is_capital": false, "latitude": 10.2333, "longitude": -75.1833, "population": 26075}, {"name": "Maicao", "country_iso2": "CO", "state": "La Guajira", "is_capital": false, "latitude": 11.3778, "longitude": -72.2389, "population": 123757}, {"name": "Majagual", "country_iso2": "CO", "state": "Sucre", "is_capital": false, "latitude": 8.5, "longitude": -74.6667, "population": 34010}, {"name": "Malambo", "country_iso2": "CO", "state": "Atlántico", "is_capital": false, "latitude": 10.85, "longitude": -74.75, "population": 139566}, {"name": "Manatí", "country_iso2": "CO", "state": "Atlántico", "is_capital": false, "latitude": 10.445, "longitude": -74.9597, "population": 13456}, {"name": "Manaure", "country_iso2": "CO", "state": "La Guajira", "is_capital": false, "latitude": 11.7792, "longitude": -72.4494, "population": 67584}, {"name": "Manizales", "country_iso2": "CO", "state": "Caldas", "is_capital": true, "latitude": 5.0675, "longitude": -75.51, "population": 454494}, {"name": "Manzanares", "country_iso2": "CO", "state": "Caldas", "is_capital": false, "latitude": 5.2519, "longitude": -75.1569, "population": 22623}, {"name": "Maní", "country_iso2": "CO", "state": "Casanare", "is_capital": false, "latitude": 4.8167, "longitude": -72.2833, "population": 13291}, {"name": "Margarita", "country_iso2": "CO", "state": "Bolívar", "is_capital": false, "latitude": 9.0833, "longitude": -74.2, "population": 9876}, {"name": "Marinilla", "country_iso2": "CO", "state": "Antioquia", "is_capital": false, "latitude": 6.1738, "longitude": -75.3347, "population": 64645}, {"name": "Marquetalia", "country_iso2": "CO", "state": "Caldas", "is_capital": false, "latitude": 5.3333, "longitude": -75.0, "population": 12146}, {"name": "Marsella", "country_iso2": "CO", "state": "Risaralda", "is_capital": false, "latitude": 4.9167, "longitude": -75.75, "population": 24131}, {"name": "María la Baja", "country_iso2": "CO", "state": "Bolívar", "is_capital": false, "latitude": 10.0, "longitude": -75.3333, "population": 49462}, {"name": "Medellín", "country_iso2": "CO", "state": "Antioquia", "is_capital": true, "latitude": 6.2308, "longitude": -75.5906, "population": 2529403}, {"name": "Medina", "country_iso2": "CO", "state": "Cundinamarca", "is_capital": false, "latitude": 4.5092, "longitude": -73.3494, "population": 10205}, {"name": "Melgar", "country_iso2": "CO", "state": "Tolima", "is_capital": false, "latitude": 4.2039, "longitude": -74.6428, "population": 37224}, {"name": "Mercaderes", "country_iso2": "CO", "state": "Cauca", "is_capital": false, "latitude": 1.8, "longitude": -77.1667, "population": 14824}, {"name": "Mesetas", "country_iso2": "CO", "state": "Meta", "is_capital": false, "latitude": 3.3781, "longitude": -74.0447, "population": 9751}, {"name": "Miranda", "country_iso2": "CO", "state": "Cauca", "is_capital": false, "latitude": 3.25, "longitude": -76.25, "population": 42639}, {"name": "Mistrató", "country_iso2": "CO", "state": "Risaralda", "is_capital": false, "latitude": 5.3, "longitude": -75.8833, "population": 17527}, {"name": "Mitú", "country_iso2": "CO", "state": "Vaupés", "is_capital": true, "latitude": 1.1983, "longitude": -70.1733, "population": 28382}, {"name": "Mocoa", "country_iso2": "CO", "state": "Putumayo", "is_capital": true, "latitude": 1.15, "longitude": -76.6475, "population": 56398}, {"name": "Mogotes", "country_iso2": "CO", "state": "Santander", "is_capital": false, "latitude": 6.4833, "longitude": -72.9667, "population": 10860}, {"name": "Momil", "country_iso2": "CO", "state": "Córdoba", "is_capital": false, "latitude": 9.2333, "longitude": -75.6833, "population": 16264}, {"name": "Moniquirá", "country_iso2": "CO", "state": "Boyacá", "is_capital": false, "latitude": 5.9167, "longitude": -73.5, "population": 20848}, {"name": "Montecristo", "country_iso2": "CO", "state": "Bolívar", "is_capital": false, "latitude": 8.2994, "longitude": -74.4756, "population": 21229}, {"name": "Montelíbano", "country_iso2": "CO", "state": "Córdoba", "is_capital": false, "latitude": 7.975, "longitude": -75.4208, "population": 90450}, {"name": "Montenegro", "country_iso2": "CO", "state": "Quindío", "is_capital": false, "latitude": 4.5671, "longitude": -75.7504, "population": 41857}, {"name": "Monterrey", "country_iso2": "CO", "state": "Casanare", "is_capital": false, "latitude": 4.8783, "longitude": -72.8972, "population": 14828}, {"name": "Montería", "country_iso2": "CO", "state": "Córdoba", "is_capital": true, "latitude": 8.75, "longitude": -75.8833, "population": 400000}, {"name": "Morales", "country_iso2": "CO", "state": "Cauca", "is_capital": false, "latitude": 2.7603, "longitude": -76.6339, "population": 26707}, {"name": "Morales", "country_iso2": "CO", "state": "Bolívar", "is_capital": false, "latitude": 8.3133, "longitude": -73.8719, "population": 24811}, {"name": "Morroa", "country_iso2": "CO", "state": "Sucre", "is_capital": false, "latitude": 9.3333, "longitude": -75.3167, "population": 14429}, {"name": "Mosquera", "country_iso2": "CO", "state": "Cundinamarca", "is_capital": false, "latitude": 4.7078, "longitude": -74.2328, "population": 128012}, {"name": "Mosquera", "country_iso2": "CO", "state": "Nariño", "is_capital": false, "latitude": 2.4903, "longitude": -78.4953, "population": 10203}, {"name": "Moñitos", "country_iso2": "CO", "state": "Córdoba", "is_capital": false, "latitude": 9.2503, "longitude": -76.1325, "population": 29117}, {"name": "Mutatá", "country_iso2": "CO", "state": "Antioquia", "is_capital": false, "latitude": 7.2442, "longitude": -76.4358, "population": 22505}, {"name": "Mutis", "country_iso2": "CO", "state": "Chocó", "is_capital": false, "latitude": 6.2167, "longitude": -77.4, "population": 9400}, {"name": "Muzo", "country_iso2": "CO", "state": "Boyacá", "is_capital": false, "latitude": 5.5313, "longitude": -74.1073, "population": 8548}, {"name": "Málaga", "country_iso2": "CO", "state": "Santander", "is_capital": false, "latitude": 6.7833, "longitude": -72.6667, "population": 18230}, {"name": "Nariño", "country_iso2": "CO", "state": "Antioquia", "is_capital": false, "latitude": 5.6092, "longitude": -75.1764, "population": 8603}, {"name": "Natagaima", "country_iso2": "CO", "state": "Tolima", "is_capital": false, "latitude": 3.5833, "longitude": -75.0833, "population": 22320}, {"name": "Nechí", "country_iso2": "CO", "state": "Antioquia", "is_capital": false, "latitude": 8.1, "longitude": -74.7833, "population": 25790}, {"name": "Necoclí", "country_iso2": "CO", "state": "Antioquia", "is_capital": false, "latitude": 8.4167, "longitude": -76.7833, "population": 69090}, {"name": "Neira", "country_iso2": "CO", "state": "Caldas", "is_capital": false, "latitude": 5.1664, "longitude": -75.5189, "population": 31399}, {"name": "Neiva", "country_iso2": "CO", "state": "Huila", "is_capital": true, "latitude": 2.9345, "longitude": -75.2809, "population": 380019}, {"name": "Nemocón", "country_iso2": "CO", "state": "Cundinamarca", "is_capital": false, "latitude": 5.05, "longitude": -73.8833, "population": 13488}, {"name": "Nobsa", "country_iso2": "CO", "state": "Boyacá", "is_capital": false, "latitude": 5.7667, "longitude": -72.95, "population": 16271}, {"name": "Norosí", "country_iso2": "CO", "state": "Bolívar", "is_capital": false, "latitude": 8.5261, "longitude": -74.0378, "population": 9850}, {"name": "Nueva Granada", "country_iso2": "CO", "state": "Magdalena", "is_capital": false, "latitude": 9.8031, "longitude": -74.3903, "population": 21612}, {"name": "Nunchía", "country_iso2": "CO", "state": "Casanare", "is_capital": false, "latitude": 5.6333, "longitude": -72.2, "population": 8928}, {"name": "Nuquí", "country_iso2": "CO", "state": "Chocó", "is_capital": false, "latitude": 5.7167, "longitude": -77.2667, "population": 8958}, {"name": "Obando", "country_iso2": "CO", "state": "Valle del Cauca", "is_capital": false, "latitude": 4.5833, "longitude": -75.9167, "population": 14980}, {"name": "Ocaña", "country_iso2": "CO", "state": "Norte de Santander", "is_capital": false, "latitude": 8.2333, "longitude": -73.35, "population": 116232}, {"name": "Oiba", "country_iso2": "CO", "state": "Santander", "is_capital": false, "latitude": 6.2667, "longitude": -73.3, "population": 12063}, {"name": "Oporapa", "country_iso2": "CO", "state": "Huila", "is_capital": false, "latitude": 2.05, "longitude": -75.9667, "population": 11111}, {"name": "Orito", "country_iso2": "CO", "state": "Putumayo", "is_capital": false, "latitude": 0.6661, "longitude": -76.8708, "population": 57774}, {"name": "Orocué", "country_iso2": "CO", "state": "Casanare", "is_capital": false, "latitude": 4.7942, "longitude": -71.34, "population": 8460}, {"name": "Ortega", "country_iso2": "CO", "state": "Tolima", "is_capital": false, "latitude": 3.9167, "longitude": -75.25, "population": 32164}, {"name": "Ospina", "country_iso2": "CO", "state": "Nariño", "is_capital": false, "latitude": 1.0581, "longitude": -77.5664, "population": 8834}, {"name": "Ovejas", "country_iso2": "CO", "state": "Sucre", "is_capital": false, "latitude": 9.5, "longitude": -75.1667, "population": 20846}, {"name": "Pacho", "country_iso2": "CO", "state": "Cundinamarca", "is_capital": false, "latitude": 5.1306, "longitude": -74.1583, "population": 27977}, {"name": "Padilla", "country_iso2": "CO", "state": "Cauca", "is_capital": false, "latitude": 3.2333, "longitude": -76.3167, "population": 9937}, {"name": "Pailitas", "country_iso2": "CO", "state": "Cesar", "is_capital": false, "latitude": 8.9667, "longitude": -73.6333, "population": 22083}, {"name": "Paipa", "country_iso2": "CO", "state": "Boyacá", "is_capital": false, "latitude": 5.8333, "longitude": -73.15, "population": 31868}, {"name": "Paispamba", "country_iso2": "CO", "state": "Cauca", "is_capital": false, "latitude": 2.25, "longitude": -76.5833, "population": 11958}, {"name": "Palermo", "country_iso2": "CO", "state": "Huila", "is_capital": false, "latitude": 2.8917, "longitude": -75.4375, "population": 800000}, {"name": "Palestina", "country_iso2": "CO", "state": "Caldas", "is_capital": false, "latitude": 5.0833, "longitude": -75.6667, "population": 13560}, {"name": "Palestina", "country_iso2": "CO", "state": "Huila", "is_capital": false, "latitude": 1.75, "longitude": -76.0667, "population": 10454}, {"name": "Palmar de Varela", "country_iso2": "CO", "state": "Atlántico", "is_capital": false, "latitude": 10.75, "longitude": -74.75, "population": 27728}, {"name": "Palmira", "country_iso2": "CO", "state": "Valle del Cauca", "is_capital": false, "latitude": 3.5833, "longitude": -76.25, "population": 358895}, {"name": "Palmito", "country_iso2": "CO", "state": "Sucre", "is_capital": false, "latitude": 9.3333, "longitude": -75.55, "population": 13682}, {"name": "Palocabildo", "country_iso2": "CO", "state": "Tolima", "is_capital": false, "latitude": 5.1333, "longitude": -75.0333, "population": 9120}, {"name": "Pamplona", "country_iso2": "CO", "state": "Norte de Santander", "is_capital": false, "latitude": 7.3781, "longitude": -72.6525, "population": 50025}, {"name": "Pasca", "country_iso2": "CO", "state": "Cundinamarca", "is_capital": false, "latitude": 4.3075, "longitude": -74.3008, "population": 12175}, {"name": "Pasto", "country_iso2": "CO", "state": "Nariño", "is_capital": true, "latitude": 1.2078, "longitude": -77.2772, "population": 410835}, {"name": "Patía", "country_iso2": "CO", "state": "Cauca", "is_capital": false, "latitude": 2.1667, "longitude": -77.0833, "population": 37781}, {"name": "Paz de Ariporo", "country_iso2": "CO", "state": "Casanare", "is_capital": false, "latitude": 5.8833, "longitude": -71.9, "population": 26237}, {"name": "Pelaya", "country_iso2": "CO", "state": "Cesar", "is_capital": false, "latitude": 8.6833, "longitude": -73.6667, "population": 17910}, {"name": "Pensilvania", "country_iso2": "CO", "state": "Caldas", "is_capital": false, "latitude": 5.5, "longitude": -75.0833, "population": 26342}, {"name": "Pereira", "country_iso2": "CO", "state": "Risaralda", "is_capital": true, "latitude": 4.8143, "longitude": -75.6946, "population": 590554}, {"name": "Pesca", "country_iso2": "CO", "state": "Boyacá", "is_capital": false, "latitude": 5.5833, "longitude": -73.05, "population": 9322}, {"name": "Piamonte", "country_iso2": "CO", "state": "Cauca", "is_capital": false, "latitude": 1.1194, "longitude": -76.3269, "population": 9259}, {"name": "Pie de Pató", "country_iso2": "CO", "state": "Chocó", "is_capital": false, "latitude": 5.5333, "longitude": -77.0, "population": 40733}, {"name": "Piedecuesta", "country_iso2": "CO", "state": "Santander", "is_capital": false, "latitude": 7.0833, "longitude": -73.0, "population": 150483}, {"name": "Piendamó", "country_iso2": "CO", "state": "Cauca", "is_capital": false, "latitude": 2.6408, "longitude": -76.5284, "population": 36225}, {"name": "Pijiño del Carmen", "country_iso2": "CO", "state": "Magdalena", "is_capital": false, "latitude": 9.3333, "longitude": -74.45, "population": 15759}, {"name": "Pinillos", "country_iso2": "CO", "state": "Bolívar", "is_capital": false, "latitude": 8.9167, "longitude": -74.4667, "population": 24923}, {"name": "Pital", "country_iso2": "CO", "state": "Huila", "is_capital": false, "latitude": 2.987, "longitude": -75.826, "population": 12246}, {"name": "Pitalito", "country_iso2": "CO", "state": "Huila", "is_capital": false, "latitude": 1.8989, "longitude": -76.0419, "population": 133205}, {"name": "Pivijay", "country_iso2": "CO", "state": "Magdalena", "is_capital": false, "latitude": 10.4667, "longitude": -74.6167, "population": 33225}, {"name": "Pizarro", "country_iso2": "CO", "state": "Chocó", "is_capital": false, "latitude": 4.95, "longitude": -77.3667, "population": 18561}, {"name": "Planadas", "country_iso2": "CO", "state": "Tolima", "is_capital": false, "latitude": 3.1964, "longitude": -75.6444, "population": 30117}, {"name": "Planeta Rica", "country_iso2": "CO", "state": "Córdoba", "is_capital": false, "latitude": 8.4089, "longitude": -75.5819, "population": 69285}, {"name": "Plato", "country_iso2": "CO", "state": "Magdalena", "is_capital": false, "latitude": 9.7919, "longitude": -74.7872, "population": 61856}, {"name": "Polonuevo", "country_iso2": "CO", "state": "Atlántico", "is_capital": false, "latitude": 10.7833, "longitude": -74.8667, "population": 19454}, {"name": "Ponedera", "country_iso2": "CO", "state": "Atlántico", "is_capital": false, "latitude": 10.65, "longitude": -74.75, "population": 18430}, {"name": "Popayán", "country_iso2": "CO", "state": "Cauca", "is_capital": true, "latitude": 2.4542, "longitude": -76.6092, "population": 300837}, {"name": "Potosí", "country_iso2": "CO", "state": "Nariño", "is_capital": false, "latitude": 0.8081, "longitude": -77.5728, "population": 10186}, {"name": "Pradera", "country_iso2": "CO", "state": "Valle del Cauca", "is_capital": false, "latitude": 3.4167, "longitude": -76.1667, "population": 57990}, {"name": "Pueblo Bello", "country_iso2": "CO", "state": "Cesar", "is_capital": false, "latitude": 10.4167, "longitude": -73.5833, "population": 27007}, {"name": "Pueblo Nuevo", "country_iso2": "CO", "state": "Córdoba", "is_capital": false, "latitude": 8.5008, "longitude": -75.5072, "population": 41684}, {"name": "Pueblo Rico", "country_iso2": "CO", "state": "Risaralda", "is_capital": false, "latitude": 5.25, "longitude": -76.1667, "population": 12423}, {"name": "Pueblorrico", "country_iso2": "CO", "state": "Antioquia", "is_capital": false, "latitude": 5.8, "longitude": -75.85, "population": 8664}, {"name": "Puebloviejo", "country_iso2": "CO", "state": "Magdalena", "is_capital": false, "latitude": 10.9942, "longitude": -74.2833, "population": 33030}, {"name": "Puente Nacional", "country_iso2": "CO", "state": "Santander", "is_capital": false, "latitude": 5.8833, "longitude": -73.6833, "population": 11718}, {"name": "Puerto Asís", "country_iso2": "CO", "state": "Putumayo", "is_capital": false, "latitude": 0.5167, "longitude": -76.5, "population": 63067}, {"name": "Puerto Berrío", "country_iso2": "CO", "state": "Antioquia", "is_capital": false, "latitude": 6.49, "longitude": -74.4025, "population": 39314}, {"name": "Puerto Boyacá", "country_iso2": "CO", "state": "Boyacá", "is_capital": false, "latitude": 6.0, "longitude": -74.4167, "population": 56930}, {"name": "Puerto Caicedo", "country_iso2": "CO", "state": "Putumayo", "is_capital": false, "latitude": 0.685, "longitude": -76.6044, "population": 11122}, {"name": "Puerto Carreño", "country_iso2": "CO", "state": "Vichada", "is_capital": true, "latitude": 6.1903, "longitude": -67.4836, "population": 16763}, {"name": "Puerto Colombia", "country_iso2": "CO", "state": "Atlántico", "is_capital": false, "latitude": 11.0167, "longitude": -74.8833, "population": 42803}, {"name": "Puerto Concordia", "country_iso2": "CO", "state": "Meta", "is_capital": false, "latitude": 2.6833, "longitude": -72.7667, "population": 23131}, {"name": "Puerto Escondido", "country_iso2": "CO", "state": "Córdoba", "is_capital": false, "latitude": 8.95, "longitude": -76.25, "population": 32745}, {"name": "Puerto Gaitán", "country_iso2": "CO", "state": "Meta", "is_capital": false, "latitude": 4.3142, "longitude": -72.0825, "population": 41513}, {"name": "Puerto Guzmán", "country_iso2": "CO", "state": "Putumayo", "is_capital": false, "latitude": 0.9667, "longitude": -76.5833, "population": 24355}, {"name": "Puerto Guzmán", "country_iso2": "CO", "state": "Putumayo", "is_capital": false, "latitude": 0.9703, "longitude": -76.5858, "population": 17495}, {"name": "Puerto Leguízamo", "country_iso2": "CO", "state": "Putumayo", "is_capital": false, "latitude": -0.1939, "longitude": -74.7806, "population": 28468}, {"name": "Puerto Libertador", "country_iso2": "CO", "state": "Córdoba", "is_capital": false, "latitude": 7.9067, "longitude": -75.6733, "population": 53990}, {"name": "Puerto Lleras", "country_iso2": "CO", "state": "Meta", "is_capital": false, "latitude": 3.2694, "longitude": -73.375, "population": 8982}, {"name": "Puerto López", "country_iso2": "CO", "state": "Meta", "is_capital": false, "latitude": 4.0872, "longitude": -72.9606, "population": 35097}, {"name": "Puerto Nare", "country_iso2": "CO", "state": "Antioquia", "is_capital": false, "latitude": 6.1917, "longitude": -74.5867, "population": 12161}, {"name": "Puerto Nariño", "country_iso2": "CO", "state": "Amazonas", "is_capital": false, "latitude": -3.7733, "longitude": -70.3819, "population": 9744}, {"name": "Puerto Rico", "country_iso2": "CO", "state": "Caquetá", "is_capital": false, "latitude": 1.9142, "longitude": -75.145, "population": 33765}, {"name": "Puerto Rico", "country_iso2": "CO", "state": "Meta", "is_capital": false, "latitude": 2.9383, "longitude": -73.2083, "population": 11433}, {"name": "Puerto Salgar", "country_iso2": "CO", "state": "Cundinamarca", "is_capital": false, "latitude": 5.5, "longitude": -74.5833, "population": 15019}, {"name": "Puerto Santander", "country_iso2": "CO", "state": "Norte de Santander", "is_capital": false, "latitude": 8.3636, "longitude": -72.4075, "population": 10249}, {"name": "Puerto Tejada", "country_iso2": "CO", "state": "Cauca", "is_capital": false, "latitude": 3.25, "longitude": -76.4167, "population": 46166}, {"name": "Puerto Triunfo", "country_iso2": "CO", "state": "Antioquia", "is_capital": false, "latitude": 5.8667, "longitude": -74.65, "population": 21745}, {"name": "Puerto Wilches", "country_iso2": "CO", "state": "Santander", "is_capital": false, "latitude": 7.35, "longitude": -73.9, "population": 31509}, {"name": "Pupiales", "country_iso2": "CO", "state": "Nariño", "is_capital": false, "latitude": 0.8667, "longitude": -77.65, "population": 16431}, {"name": "Purificación", "country_iso2": "CO", "state": "Tolima", "is_capital": false, "latitude": 3.8586, "longitude": -74.9306, "population": 29539}, {"name": "Purísima de la Concepción", "country_iso2": "CO", "state": "Córdoba", "is_capital": false, "latitude": 9.2333, "longitude": -75.7333, "population": 14705}, {"name": "Pácora", "country_iso2": "CO", "state": "Caldas", "is_capital": false, "latitude": 5.5258, "longitude": -75.4589, "population": 13214}, {"name": "Quibdó", "country_iso2": "CO", "state": "Chocó", "is_capital": true, "latitude": 5.6922, "longitude": -76.6581, "population": 130825}, {"name": "Quimbaya", "country_iso2": "CO", "state": "Quindío", "is_capital": false, "latitude": 4.6333, "longitude": -75.75, "population": 35276}, {"name": "Quinchía", "country_iso2": "CO", "state": "Risaralda", "is_capital": false, "latitude": 5.3379, "longitude": -75.7296, "population": 34005}, {"name": "Ramiriquí", "country_iso2": "CO", "state": "Boyacá", "is_capital": false, "latitude": 5.4, "longitude": -73.3333, "population": 10015}, {"name": "Regidor", "country_iso2": "CO", "state": "Bolívar", "is_capital": false, "latitude": 8.6667, "longitude": -73.8333, "population": 10489}, {"name": "Remedios", "country_iso2": "CO", "state": "Antioquia", "is_capital": false, "latitude": 7.0275, "longitude": -74.6939, "population": 32057}, {"name": "Repelón", "country_iso2": "CO", "state": "Atlántico", "is_capital": false, "latitude": 10.55, "longitude": -75.1333, "population": 22196}, {"name": "Restrepo", "country_iso2": "CO", "state": "Meta", "is_capital": false, "latitude": 4.25, "longitude": -73.5667, "population": 17610}, {"name": "Restrepo", "country_iso2": "CO", "state": "Valle del Cauca", "is_capital": false, "latitude": 3.825, "longitude": -76.525, "population": 16227}, {"name": "Retiro", "country_iso2": "CO", "state": "Antioquia", "is_capital": false, "latitude": 6.0572, "longitude": -75.5025, "population": 16974}, {"name": "Ricaurte", "country_iso2": "CO", "state": "Nariño", "is_capital": false, "latitude": 1.2108, "longitude": -77.9933, "population": 18067}, {"name": "Ricaurte", "country_iso2": "CO", "state": "Cundinamarca", "is_capital": false, "latitude": 4.2792, "longitude": -74.7728, "population": 12881}, {"name": "Rioblanco", "country_iso2": "CO", "state": "Tolima", "is_capital": false, "latitude": 3.5, "longitude": -75.8333, "population": 24139}, {"name": "Riofrío", "country_iso2": "CO", "state": "Valle del Cauca", "is_capital": false, "latitude": 4.1561, "longitude": -76.2878, "population": 14716}, {"name": "Rionegro", "country_iso2": "CO", "state": "Antioquia", "is_capital": false, "latitude": 6.1535, "longitude": -75.3743, "population": 135465}, {"name": "Rionegro", "country_iso2": "CO", "state": "Santander", "is_capital": false, "latitude": 7.2642, "longitude": -73.1494, "population": 26243}, {"name": "Riosucio", "country_iso2": "CO", "state": "Caldas", "is_capital": false, "latitude": 5.4208, "longitude": -75.7025, "population": 62296}, {"name": "Riosucio", "country_iso2": "CO", "state": "Chocó", "is_capital": false, "latitude": 7.4406, "longitude": -77.1189, "population": 57220}, {"name": "Risaralda", "country_iso2": "CO", "state": "Caldas", "is_capital": false, "latitude": 5.1667, "longitude": -75.75, "population": 9254}, {"name": "Rivera", "country_iso2": "CO", "state": "Huila", "is_capital": false, "latitude": 2.7853, "longitude": -75.2589, "population": 22877}, {"name": "Roldanillo", "country_iso2": "CO", "state": "Valle del Cauca", "is_capital": false, "latitude": 4.4167, "longitude": -76.15, "population": 33697}, {"name": "Rosas", "country_iso2": "CO", "state": "Cauca", "is_capital": false, "latitude": 2.2667, "longitude": -76.75, "population": 13302}, {"name": "Rovira", "country_iso2": "CO", "state": "Tolima", "is_capital": false, "latitude": 4.25, "longitude": -75.3333, "population": 20255}, {"name": "Ráquira", "country_iso2": "CO", "state": "Boyacá", "is_capital": false, "latitude": 5.5333, "longitude": -73.6333, "population": 13588}, {"name": "Río de Oro", "country_iso2": "CO", "state": "Cesar", "is_capital": false, "latitude": 8.0, "longitude": -73.5, "population": 14041}, {"name": "Ríohacha", "country_iso2": "CO", "state": "La Guajira", "is_capital": true, "latitude": 11.5442, "longitude": -72.9069, "population": 167865}, {"name": "Sabana de Torres", "country_iso2": "CO", "state": "Santander", "is_capital": false, "latitude": 7.4, "longitude": -73.5, "population": 22512}, {"name": "Sabanagrande", "country_iso2": "CO", "state": "Atlántico", "is_capital": false, "latitude": 10.8, "longitude": -74.75, "population": 33437}, {"name": "Sabanalarga", "country_iso2": "CO", "state": "Antioquia", "is_capital": false, "latitude": 6.85, "longitude": -75.8167, "population": 100049}, {"name": "Sabanalarga", "country_iso2": "CO", "state": "Atlántico", "is_capital": false, "latitude": 10.63, "longitude": -74.9236, "population": 84410}, {"name": "Sabaneta", "country_iso2": "CO", "state": "Antioquia", "is_capital": false, "latitude": 6.15, "longitude": -75.6, "population": 82375}, {"name": "Saboyá", "country_iso2": "CO", "state": "Boyacá", "is_capital": false, "latitude": 5.7, "longitude": -73.7667, "population": 12372}, {"name": "Sahagún", "country_iso2": "CO", "state": "Córdoba", "is_capital": false, "latitude": 8.95, "longitude": -75.45, "population": 90487}, {"name": "Saladoblanco", "country_iso2": "CO", "state": "Huila", "is_capital": false, "latitude": 2.0167, "longitude": -76.05, "population": 10076}, {"name": "Salamina", "country_iso2": "CO", "state": "Caldas", "is_capital": false, "latitude": 5.4083, "longitude": -75.49, "population": 18704}, {"name": "Saldaña", "country_iso2": "CO", "state": "Tolima", "is_capital": false, "latitude": 3.9347, "longitude": -75.0203, "population": 14329}, {"name": "Salgar", "country_iso2": "CO", "state": "Antioquia", "is_capital": false, "latitude": 5.9617, "longitude": -75.9753, "population": 17804}, {"name": "Samacá", "country_iso2": "CO", "state": "Boyacá", "is_capital": false, "latitude": 5.5, "longitude": -73.4833, "population": 20767}, {"name": "Samaniego", "country_iso2": "CO", "state": "Nariño", "is_capital": false, "latitude": 1.35, "longitude": -77.6, "population": 49178}, {"name": "Samaná", "country_iso2": "CO", "state": "Caldas", "is_capital": false, "latitude": 5.5833, "longitude": -74.9167, "population": 25798}, {"name": "Sampués", "country_iso2": "CO", "state": "Sucre", "is_capital": false, "latitude": 9.1833, "longitude": -75.3833, "population": 37925}, {"name": "San Agustín", "country_iso2": "CO", "state": "Huila", "is_capital": false, "latitude": 1.9, "longitude": -76.2833, "population": 34120}, {"name": "San Alberto", "country_iso2": "CO", "state": "Cesar", "is_capital": false, "latitude": 7.7525, "longitude": -73.3892, "population": 26551}, {"name": "San Andrés", "country_iso2": "CO", "state": "San Andrés y Providencia", "is_capital": true, "latitude": 12.5847, "longitude": -81.7006, "population": 71946}, {"name": "San Andrés de Sotavento", "country_iso2": "CO", "state": "Córdoba", "is_capital": false, "latitude": 9.15, "longitude": -75.5, "population": 47282}, {"name": "San Antero", "country_iso2": "CO", "state": "Córdoba", "is_capital": false, "latitude": 9.3833, "longitude": -75.75, "population": 33662}, {"name": "San Antonio", "country_iso2": "CO", "state": "Tolima", "is_capital": false, "latitude": 3.9167, "longitude": -75.5, "population": 14400}, {"name": "San Antonio", "country_iso2": "CO", "state": "Magdalena", "is_capital": false, "latitude": 10.0, "longitude": -74.6667, "population": 12364}, {"name": "San Antonio del Tequendama", "country_iso2": "CO", "state": "Cundinamarca", "is_capital": false, "latitude": 4.6328, "longitude": -74.3522, "population": 13084}, {"name": "San Benito Abad", "country_iso2": "CO", "state": "Sucre", "is_capital": false, "latitude": 8.9333, "longitude": -75.0333, "population": 26595}, {"name": "San Bernardo", "country_iso2": "CO", "state": "Nariño", "is_capital": false, "latitude": 1.5108, "longitude": -77.0467, "population": 21492}, {"name": "San Bernardo del Viento", "country_iso2": "CO", "state": "Córdoba", "is_capital": false, "latitude": 9.35, "longitude": -75.95, "population": 34782}, {"name": "San Calixto", "country_iso2": "CO", "state": "Norte de Santander", "is_capital": false, "latitude": 8.4, "longitude": -73.2167, "population": 9961}, {"name": "San Carlos", "country_iso2": "CO", "state": "Córdoba", "is_capital": false, "latitude": 8.8006, "longitude": -75.7022, "population": 28597}, {"name": "San Carlos", "country_iso2": "CO", "state": "Antioquia", "is_capital": false, "latitude": 6.1897, "longitude": -74.9969, "population": 14480}, {"name": "San Carlos de Guaroa", "country_iso2": "CO", "state": "Meta", "is_capital": false, "latitude": 3.7111, "longitude": -73.2425, "population": 11512}, {"name": "San Diego", "country_iso2": "CO", "state": "Cesar", "is_capital": false, "latitude": 10.3375, "longitude": -73.1825, "population": 18531}, {"name": "San Estanislao", "country_iso2": "CO", "state": "Bolívar", "is_capital": false, "latitude": 10.4, "longitude": -75.15, "population": 16518}, {"name": "San Fernando", "country_iso2": "CO", "state": "Bolívar", "is_capital": false, "latitude": 9.2797, "longitude": -74.5339, "population": 9776}, {"name": "San Fernando", "country_iso2": "CO", "state": "Bolívar", "is_capital": false, "latitude": 9.2683, "longitude": -74.5302, "population": 9776}, {"name": "San Gil", "country_iso2": "CO", "state": "Santander", "is_capital": false, "latitude": 6.5592, "longitude": -73.135, "population": 51874}, {"name": "San Jacinto", "country_iso2": "CO", "state": "Bolívar", "is_capital": false, "latitude": 9.8311, "longitude": -75.1219, "population": 21644}, {"name": "San Jacinto del Cauca", "country_iso2": "CO", "state": "Bolívar", "is_capital": false, "latitude": 8.25, "longitude": -74.7167, "population": 13426}, {"name": "San Jerónimo", "country_iso2": "CO", "state": "Antioquia", "is_capital": false, "latitude": 6.4417, "longitude": -75.7278, "population": 15361}, {"name": "San José", "country_iso2": "CO", "state": "Nariño", "is_capital": false, "latitude": 1.6967, "longitude": -78.2453, "population": 25433}, {"name": "San José", "country_iso2": "CO", "state": "Nariño", "is_capital": false, "latitude": 1.4744, "longitude": -77.0836, "population": 23279}, {"name": "San José del Fragua", "country_iso2": "CO", "state": "Caquetá", "is_capital": false, "latitude": 1.3286, "longitude": -75.9728, "population": 11364}, {"name": "San José del Guaviare", "country_iso2": "CO", "state": "Guaviare", "is_capital": true, "latitude": 2.5667, "longitude": -72.6333, "population": 68878}, {"name": "San Juan Nepomuceno", "country_iso2": "CO", "state": "Bolívar", "is_capital": false, "latitude": 9.95, "longitude": -75.0833, "population": 34012}, {"name": "San Juan de Arama", "country_iso2": "CO", "state": "Meta", "is_capital": false, "latitude": 3.3736, "longitude": -73.8767, "population": 8728}, {"name": "San Juan de Betulia", "country_iso2": "CO", "state": "Sucre", "is_capital": false, "latitude": 9.2756, "longitude": -75.2456, "population": 13437}, {"name": "San Juan de Urabá", "country_iso2": "CO", "state": "Antioquia", "is_capital": false, "latitude": 8.7667, "longitude": -76.5333, "population": 27149}, {"name": "San Juan del Cesar", "country_iso2": "CO", "state": "La Guajira", "is_capital": false, "latitude": 10.7667, "longitude": -73.0, "population": 39472}, {"name": "San Lorenzo", "country_iso2": "CO", "state": "Nariño", "is_capital": false, "latitude": 1.5039, "longitude": -77.2178, "population": 20403}, {"name": "San Luis de Sincé", "country_iso2": "CO", "state": "Sucre", "is_capital": false, "latitude": 9.25, "longitude": -75.15, "population": 35022}, {"name": "San Marcos", "country_iso2": "CO", "state": "Sucre", "is_capital": false, "latitude": 8.6611, "longitude": -75.1347, "population": 59976}, {"name": "San Martín", "country_iso2": "CO", "state": "Meta", "is_capital": false, "latitude": 3.6944, "longitude": -73.6936, "population": 25902}, {"name": "San Martín", "country_iso2": "CO", "state": "Cesar", "is_capital": false, "latitude": 8.0472, "longitude": -73.5153, "population": 20452}, {"name": "San Martín de Loba", "country_iso2": "CO", "state": "Bolívar", "is_capital": false, "latitude": 8.8333, "longitude": -73.9167, "population": 14504}, {"name": "San Onofre", "country_iso2": "CO", "state": "Sucre", "is_capital": false, "latitude": 9.7333, "longitude": -75.5333, "population": 51991}, {"name": "San Pablo", "country_iso2": "CO", "state": "Bolívar", "is_capital": false, "latitude": 7.4825, "longitude": -73.925, "population": 36341}, {"name": "San Pablo", "country_iso2": "CO", "state": "Nariño", "is_capital": false, "latitude": 1.6725, "longitude": -77.0139, "population": 12929}, {"name": "San Pedro", "country_iso2": "CO", "state": "Valle del Cauca", "is_capital": false, "latitude": 4.0, "longitude": -76.2292, "population": 18128}, {"name": "San Pedro", "country_iso2": "CO", "state": "Sucre", "is_capital": false, "latitude": 8.7333, "longitude": -74.7167, "population": 18029}, {"name": "San Pedro de Urabá", "country_iso2": "CO", "state": "Antioquia", "is_capital": false, "latitude": 8.2833, "longitude": -76.3833, "population": 32328}, {"name": "San Pelayo", "country_iso2": "CO", "state": "Córdoba", "is_capital": false, "latitude": 8.9667, "longitude": -75.85, "population": 45396}, {"name": "San Rafael", "country_iso2": "CO", "state": "Antioquia", "is_capital": false, "latitude": 6.2975, "longitude": -75.0314, "population": 12578}, {"name": "San Roque", "country_iso2": "CO", "state": "Antioquia", "is_capital": false, "latitude": 6.4853, "longitude": -75.0197, "population": 16789}, {"name": "San Sebastián", "country_iso2": "CO", "state": "Cauca", "is_capital": false, "latitude": 1.8439, "longitude": -76.7717, "population": 9806}, {"name": "San Sebastián de Buenavista", "country_iso2": "CO", "state": "Magdalena", "is_capital": false, "latitude": 9.2403, "longitude": -74.3556, "population": 18865}, {"name": "San Sebastián de Mariquita", "country_iso2": "CO", "state": "Tolima", "is_capital": false, "latitude": 5.25, "longitude": -74.9167, "population": 32642}, {"name": "San Vicente", "country_iso2": "CO", "state": "Antioquia", "is_capital": false, "latitude": 6.2819, "longitude": -75.3322, "population": 18051}, {"name": "San Vicente de Chucurí", "country_iso2": "CO", "state": "Santander", "is_capital": false, "latitude": 6.8833, "longitude": -73.4167, "population": 28084}, {"name": "San Vicente del Caguán", "country_iso2": "CO", "state": "Caquetá", "is_capital": false, "latitude": 2.1167, "longitude": -74.7667, "population": 72949}, {"name": "San Zenón", "country_iso2": "CO", "state": "Magdalena", "is_capital": false, "latitude": 9.245, "longitude": -74.4992, "population": 9107}, {"name": "Sandoná", "country_iso2": "CO", "state": "Nariño", "is_capital": false, "latitude": 1.2833, "longitude": -77.4667, "population": 25220}, {"name": "Santa Ana", "country_iso2": "CO", "state": "Magdalena", "is_capital": false, "latitude": 9.319, "longitude": -74.57, "population": 25938}, {"name": "Santa Bárbara", "country_iso2": "CO", "state": "Antioquia", "is_capital": false, "latitude": 5.8747, "longitude": -75.5661, "population": 21413}, {"name": "Santa Bárbara de Pinto", "country_iso2": "CO", "state": "Magdalena", "is_capital": false, "latitude": 9.4333, "longitude": -74.7, "population": 12610}, {"name": "Santa Catalina", "country_iso2": "CO", "state": "Bolívar", "is_capital": false, "latitude": 10.6039, "longitude": -75.2878, "population": 14039}, {"name": "Santa Fe de Antioquia", "country_iso2": "CO", "state": "Antioquia", "is_capital": false, "latitude": 6.55, "longitude": -75.8167, "population": 22613}, {"name": "Santa Genoveva de Docordó", "country_iso2": "CO", "state": "Chocó", "is_capital": false, "latitude": 4.2586, "longitude": -77.3675, "population": 11579}, {"name": "Santa Lucía", "country_iso2": "CO", "state": "Atlántico", "is_capital": false, "latitude": 10.3167, "longitude": -74.95, "population": 11584}, {"name": "Santa Marta", "country_iso2": "CO", "state": "Magdalena", "is_capital": true, "latitude": 11.2419, "longitude": -74.2053, "population": 515556}, {"name": "Santa María", "country_iso2": "CO", "state": "Huila", "is_capital": false, "latitude": 2.95, "longitude": -75.65, "population": 10215}, {"name": "Santa Rosa", "country_iso2": "CO", "state": "Bolívar", "is_capital": false, "latitude": 10.4456, "longitude": -75.3686, "population": 24694}, {"name": "Santa Rosa de Cabal", "country_iso2": "CO", "state": "Risaralda", "is_capital": false, "latitude": 4.8667, "longitude": -75.6167, "population": 73028}, {"name": "Santa Rosa de Osos", "country_iso2": "CO", "state": "Antioquia", "is_capital": false, "latitude": 6.65, "longitude": -75.4667, "population": 37435}, {"name": "Santa Rosa de Viterbo", "country_iso2": "CO", "state": "Boyacá", "is_capital": false, "latitude": 5.8833, "longitude": -72.9833, "population": 11329}, {"name": "Santa Rosa del Sur", "country_iso2": "CO", "state": "Bolívar", "is_capital": false, "latitude": 7.9667, "longitude": -74.05, "population": 42003}, {"name": "Santander de Quilichao", "country_iso2": "CO", "state": "Cauca", "is_capital": false, "latitude": 3.0167, "longitude": -76.4833, "population": 180000}, {"name": "Santiago de Tolú", "country_iso2": "CO", "state": "Sucre", "is_capital": false, "latitude": 9.5333, "longitude": -75.5833, "population": 35670}, {"name": "Santo Domingo", "country_iso2": "CO", "state": "Antioquia", "is_capital": false, "latitude": 6.4708, "longitude": -75.1658, "population": 10759}, {"name": "Santo Tomás", "country_iso2": "CO", "state": "Atlántico", "is_capital": false, "latitude": 10.7667, "longitude": -74.9167, "population": 32000}, {"name": "Santuario", "country_iso2": "CO", "state": "Antioquia", "is_capital": false, "latitude": 6.1375, "longitude": -75.2639, "population": 35422}, {"name": "Santuario", "country_iso2": "CO", "state": "Risaralda", "is_capital": false, "latitude": 5.0725, "longitude": -75.9623, "population": 12826}, {"name": "Saravena", "country_iso2": "CO", "state": "Arauca", "is_capital": false, "latitude": 6.9556, "longitude": -71.8722, "population": 55554}, {"name": "Sardinata", "country_iso2": "CO", "state": "Norte de Santander", "is_capital": false, "latitude": 8.0833, "longitude": -72.8, "population": 22583}, {"name": "Sasaima", "country_iso2": "CO", "state": "Cundinamarca", "is_capital": false, "latitude": 4.965, "longitude": -74.4347, "population": 9807}, {"name": "Segovia", "country_iso2": "CO", "state": "Antioquia", "is_capital": false, "latitude": 7.0781, "longitude": -74.7017, "population": 41000}, {"name": "Sesquilé", "country_iso2": "CO", "state": "Cundinamarca", "is_capital": false, "latitude": 5.0453, "longitude": -73.7972, "population": 13936}, {"name": "Sevilla", "country_iso2": "CO", "state": "Valle del Cauca", "is_capital": false, "latitude": 4.2689, "longitude": -75.9361, "population": 41153}, {"name": "Siachoque", "country_iso2": "CO", "state": "Boyacá", "is_capital": false, "latitude": 5.5, "longitude": -73.2333, "population": 8964}, {"name": "Sibaté", "country_iso2": "CO", "state": "Cundinamarca", "is_capital": false, "latitude": 4.4908, "longitude": -74.2594, "population": 38412}, {"name": "Sibundoy", "country_iso2": "CO", "state": "Putumayo", "is_capital": false, "latitude": 1.2033, "longitude": -76.9192, "population": 14104}, {"name": "Silvania", "country_iso2": "CO", "state": "Cundinamarca", "is_capital": false, "latitude": 4.4033, "longitude": -74.3881, "population": 22020}, {"name": "Silvia", "country_iso2": "CO", "state": "Cauca", "is_capital": false, "latitude": 2.6167, "longitude": -76.3833, "population": 32692}, {"name": "Simijaca", "country_iso2": "CO", "state": "Cundinamarca", "is_capital": false, "latitude": 5.5019, "longitude": -73.8519, "population": 13077}, {"name": "Simití", "country_iso2": "CO", "state": "Bolívar", "is_capital": false, "latitude": 7.9667, "longitude": -73.95, "population": 20271}, {"name": "Sincelejo", "country_iso2": "CO", "state": "Sucre", "is_capital": true, "latitude": 9.295, "longitude": -75.3961, "population": 286716}, {"name": "Sitionuevo", "country_iso2": "CO", "state": "Magdalena", "is_capital": false, "latitude": 10.7833, "longitude": -74.7167, "population": 31706}, {"name": "Soacha", "country_iso2": "CO", "state": "Cundinamarca", "is_capital": false, "latitude": 4.5872, "longitude": -74.2214, "population": 522442}, {"name": "Socorro", "country_iso2": "CO", "state": "Santander", "is_capital": false, "latitude": 6.5333, "longitude": -73.2, "population": 31115}, {"name": "Socotá", "country_iso2": "CO", "state": "Boyacá", "is_capital": false, "latitude": 6.05, "longitude": -72.6333, "population": 9812}, {"name": "Sogamoso", "country_iso2": "CO", "state": "Boyacá", "is_capital": false, "latitude": 5.7167, "longitude": -72.9208, "population": 116031}, {"name": "Solano", "country_iso2": "CO", "state": "Caquetá", "is_capital": false, "latitude": 0.6983, "longitude": -75.2539, "population": 25546}, {"name": "Soledad", "country_iso2": "CO", "state": "Atlántico", "is_capital": false, "latitude": 10.9167, "longitude": -74.75, "population": 676014}, {"name": "Solita", "country_iso2": "CO", "state": "Caquetá", "is_capital": false, "latitude": 0.8667, "longitude": -75.65, "population": 9139}, {"name": "Sonsón", "country_iso2": "CO", "state": "Antioquia", "is_capital": false, "latitude": 5.7097, "longitude": -75.3108, "population": 36445}, {"name": "Sopetrán", "country_iso2": "CO", "state": "Antioquia", "is_capital": false, "latitude": 6.5017, "longitude": -75.7433, "population": 14453}, {"name": "Sopó", "country_iso2": "CO", "state": "Cundinamarca", "is_capital": false, "latitude": 4.9167, "longitude": -73.9333, "population": 29120}, {"name": "Sotomayor", "country_iso2": "CO", "state": "Nariño", "is_capital": false, "latitude": 1.4933, "longitude": -77.5214, "population": 20865}, {"name": "Suaita", "country_iso2": "CO", "state": "Santander", "is_capital": false, "latitude": 6.1019, "longitude": -73.4406, "population": 10006}, {"name": "Suan", "country_iso2": "CO", "state": "Atlántico", "is_capital": false, "latitude": 10.3333, "longitude": -74.8833, "population": 9344}, {"name": "Suaza", "country_iso2": "CO", "state": "Huila", "is_capital": false, "latitude": 1.9833, "longitude": -75.8167, "population": 21119}, {"name": "Subachoque", "country_iso2": "CO", "state": "Cundinamarca", "is_capital": false, "latitude": 4.9281, "longitude": -74.1736, "population": 16117}, {"name": "Sucre", "country_iso2": "CO", "state": "Sucre", "is_capital": false, "latitude": 8.8139, "longitude": -74.7253, "population": 22480}, {"name": "Sucre", "country_iso2": "CO", "state": "Cauca", "is_capital": false, "latitude": 2.0383, "longitude": -76.9253, "population": 8880}, {"name": "Suesca", "country_iso2": "CO", "state": "Cundinamarca", "is_capital": false, "latitude": 5.1, "longitude": -73.8, "population": 17318}, {"name": "Supía", "country_iso2": "CO", "state": "Caldas", "is_capital": false, "latitude": 5.4667, "longitude": -75.65, "population": 27489}, {"name": "Susa", "country_iso2": "CO", "state": "Cundinamarca", "is_capital": false, "latitude": 5.4528, "longitude": -73.814, "population": 12302}, {"name": "Suárez", "country_iso2": "CO", "state": "Cauca", "is_capital": false, "latitude": 2.9589, "longitude": -76.6953, "population": 19690}, {"name": "Tabio", "country_iso2": "CO", "state": "Cundinamarca", "is_capital": false, "latitude": 4.9158, "longitude": -74.0983, "population": 29731}, {"name": "Tadó", "country_iso2": "CO", "state": "Chocó", "is_capital": false, "latitude": 5.2667, "longitude": -76.5667, "population": 18906}, {"name": "Talaigua Nuevo", "country_iso2": "CO", "state": "Bolívar", "is_capital": false, "latitude": 9.3069, "longitude": -74.5686, "population": 11350}, {"name": "Tamalameque", "country_iso2": "CO", "state": "Cesar", "is_capital": false, "latitude": 8.8333, "longitude": -73.5833, "population": 13862}, {"name": "Tame", "country_iso2": "CO", "state": "Arauca", "is_capital": false, "latitude": 6.4667, "longitude": -71.7333, "population": 53266}, {"name": "Taminango", "country_iso2": "CO", "state": "Nariño", "is_capital": false, "latitude": 1.5667, "longitude": -77.2833, "population": 21985}, {"name": "Tarazá", "country_iso2": "CO", "state": "Antioquia", "is_capital": false, "latitude": 7.5881, "longitude": -75.4028, "population": 39257}, {"name": "Tarqui", "country_iso2": "CO", "state": "Huila", "is_capital": false, "latitude": 2.1106, "longitude": -75.8231, "population": 16108}, {"name": "Tarrá", "country_iso2": "CO", "state": "Norte de Santander", "is_capital": false, "latitude": 8.0475, "longitude": -73.0836, "population": 10957}, {"name": "Tauramena", "country_iso2": "CO", "state": "Casanare", "is_capital": false, "latitude": 5.0167, "longitude": -72.75, "population": 27178}, {"name": "Tausa", "country_iso2": "CO", "state": "Cundinamarca", "is_capital": false, "latitude": 5.1964, "longitude": -73.8875, "population": 8801}, {"name": "Tello", "country_iso2": "CO", "state": "Huila", "is_capital": false, "latitude": 3.0667, "longitude": -75.1333, "population": 10273}, {"name": "Tena", "country_iso2": "CO", "state": "Cundinamarca", "is_capital": false, "latitude": 4.6547, "longitude": -74.39, "population": 8941}, {"name": "Tenerife", "country_iso2": "CO", "state": "Magdalena", "is_capital": false, "latitude": 9.8989, "longitude": -74.8589, "population": 14320}, {"name": "Tenjo", "country_iso2": "CO", "state": "Cundinamarca", "is_capital": false, "latitude": 4.9167, "longitude": -74.1667, "population": 20269}, {"name": "Teorama", "country_iso2": "CO", "state": "Norte de Santander", "is_capital": false, "latitude": 8.4333, "longitude": -72.2833, "population": 23381}, {"name": "Teruel", "country_iso2": "CO", "state": "Huila", "is_capital": false, "latitude": 2.75, "longitude": -75.5667, "population": 8876}, {"name": "Tesalia", "country_iso2": "CO", "state": "Huila", "is_capital": false, "latitude": 2.4833, "longitude": -75.7333, "population": 9767}, {"name": "Tibaná", "country_iso2": "CO", "state": "Boyacá", "is_capital": false, "latitude": 5.3167, "longitude": -73.4, "population": 9186}, {"name": "Tibasosa", "country_iso2": "CO", "state": "Boyacá", "is_capital": false, "latitude": 5.8333, "longitude": -72.9667, "population": 14063}, {"name": "Tibú", "country_iso2": "CO", "state": "Norte de Santander", "is_capital": false, "latitude": 8.65, "longitude": -72.7333, "population": 37286}, {"name": "Tierralta", "country_iso2": "CO", "state": "Córdoba", "is_capital": false, "latitude": 7.9167, "longitude": -76.1667, "population": 78770}, {"name": "Timaná", "country_iso2": "CO", "state": "Huila", "is_capital": false, "latitude": 1.9833, "longitude": -75.95, "population": 20463}, {"name": "Timbiquí", "country_iso2": "CO", "state": "Cauca", "is_capital": false, "latitude": 2.7719, "longitude": -77.665, "population": 22077}, {"name": "Timbío", "country_iso2": "CO", "state": "Cauca", "is_capital": false, "latitude": 2.3445, "longitude": -76.6839, "population": 33883}, {"name": "Tiquisio", "country_iso2": "CO", "state": "Bolívar", "is_capital": false, "latitude": 8.5667, "longitude": -74.2667, "population": 22041}, {"name": "Titiribí", "country_iso2": "CO", "state": "Antioquia", "is_capital": false, "latitude": 6.0667, "longitude": -75.8, "population": 14092}, {"name": "Toca", "country_iso2": "CO", "state": "Boyacá", "is_capital": false, "latitude": 5.5667, "longitude": -73.2, "population": 10157}, {"name": "Tocaima", "country_iso2": "CO", "state": "Cundinamarca", "is_capital": false, "latitude": 4.5, "longitude": -74.6667, "population": 18790}, {"name": "Tocancipá", "country_iso2": "CO", "state": "Cundinamarca", "is_capital": false, "latitude": 4.9657, "longitude": -73.9136, "population": 36439}, {"name": "Toledo", "country_iso2": "CO", "state": "Norte de Santander", "is_capital": false, "latitude": 7.3131, "longitude": -72.4875, "population": 17283}, {"name": "Tolú Viejo", "country_iso2": "CO", "state": "Sucre", "is_capital": false, "latitude": 9.45, "longitude": -75.45, "population": 20033}, {"name": "Toribío", "country_iso2": "CO", "state": "Cauca", "is_capital": false, "latitude": 2.9581, "longitude": -76.2714, "population": 26616}, {"name": "Toro", "country_iso2": "CO", "state": "Valle del Cauca", "is_capital": false, "latitude": 4.6117, "longitude": -76.0814, "population": 16394}, {"name": "Totoró", "country_iso2": "CO", "state": "Cauca", "is_capital": false, "latitude": 2.5117, "longitude": -76.4003, "population": 17611}, {"name": "Trinidad", "country_iso2": "CO", "state": "Casanare", "is_capital": false, "latitude": 5.4089, "longitude": -71.6622, "population": 11734}, {"name": "Trujillo", "country_iso2": "CO", "state": "Valle del Cauca", "is_capital": false, "latitude": 4.25, "longitude": -76.3333, "population": 18142}, {"name": "Tubará", "country_iso2": "CO", "state": "Atlántico", "is_capital": false, "latitude": 10.8667, "longitude": -74.9833, "population": 10602},