[{"name": "Assomada", "country_iso2": "CV", "state": "Santa Catarina", "is_capital": true, "latitude": 15.0949, "longitude": -23.6654, "population": 12026}, {"name": "Calheta de São Miguel", "country_iso2": "CV", "state": "São Miguel", "is_capital": true, "latitude": 15.1875, "longitude": -23.5917, "population": 4123}, {"name": "Cidade Velha", "country_iso2": "CV", "state": "Ribeira Grande de Santiago", "is_capital": true, "latitude": 14.9167, "longitude": -23.6042, "population": 2148}, {"name": "Cova Figueira", "country_iso2": "CV", "state": "Santa Catarina do Fogo", "is_capital": true, "latitude": 14.89, "longitude": -24.294, "population": null}, {"name": "Espargos", "country_iso2": "CV", "state": "Sal", "is_capital": true, "latitude": 16.7546, "longitude": -22.9453, "population": 6173}, {"name": "Igreja", "country_iso2": "CV", "state": "Mosteiros", "is_capital": true, "latitude": 15.0339, "longitude": -24.325, "population": null}, {"name": "João Teves", "country_iso2": "CV", "state": "São Lourenço dos Órgãos", "is_capital": true, "latitude": 15.0667, "longitude": -23.5917, "population": 1699}, {"name": "Mindelo", "country_iso2": "CV", "state": "São Vicente", "is_capital": true, "latitude": 16.886, "longitude": -24.988, "population": 70468}, {"name": "Nova Sintra", "country_iso2": "CV", "state": "Brava", "is_capital": true, "latitude": 14.871, "longitude": -24.696, "population": null}, {"name": "Pedra Badejo", "country_iso2": "CV", "state": "Santa Cruz", "is_capital": true, "latitude": 15.1375, "longitude": -23.5333, "population": 9530}, {"name": "Picos", "country_iso2": "CV", "state": "São Salvador do Mundo", "is_capital": true, "latitude": 15.0833, "longitude": -23.6333, "population": 1143}, {"name": "Pombas", "country_iso2": "CV", "state": "Paul", "is_capital": true, "latitude": 17.149, "longitude": -25.015, "population": 1184}, {"name": "Ponta do Sol", "country_iso2": "CV", "state": "Ribeira Grande", "is_capital": true, "latitude": 17.202, "longitude": -25.093, "population": 4738}, {"name": "Porto Inglês", "country_iso2": "CV", "state": "Maio", "is_capital": true, "latitude": 15.1375, "longitude": -23.2083, "population": 3056}, {"name": "Porto Novo", "country_iso2": "CV", "state": "Porto Novo", "is_capital": true, "latitude": 17.019, "longitude": -25.064, "population": 18028}, {"name": "Praia", "country_iso2": "CV", "state": "Praia", "is_capital": true, "latitude": 14.9177, "longitude": -23.5092, "population": 61644}, {"name": "Ribeira Brava", "country_iso2": "CV", "state": "Ribeira Brava", "is_capital": true, "latitude": 16.615, "longitude": -24.299, "population": null}, {"name": "Ribeira Grande", "country_iso2": "CV", "state": "Ribeira Grande", "is_capital": true, "latitude": 17.183, "longitude": -25.065, "population": 2950}, {"name": "Sal Rei", "country_iso2": "CV", "state": "Boa Vista", "is_capital": true, "latitude": 16.176, "longitude": -22.9171, "population": 6357}, {"name": "São Domingos", "country_iso2": "CV", "state": "São Domingos", "is_capital": true, "latitude": 15.025, "longitude": -23.5625, "population": 2818}, {"name": "São Filipe", "country_iso2": "CV", "state": "São Filipe", "is_capital": true, "latitude": 14.895, "longitude": -24.498, "population": 22227}, {"name": "Tarrafal", "country_iso2": "CV", "state": "Tarrafal", "is_capital": true, "latitude": 15.2787, "longitude": -23.7516, "population": 30000}, {"name": "Tarrafal", "country_iso2": "CV", "state": "Tarrafal de São Nicolau", "is_capital": true, "latitude": 16.566, "longitude": -24.357, "population": 5237}]