[{"name": "Ba", "country_iso2": "FJ", "state": "Ba", "is_capital": false, "latitude": -17.5333, "longitude": 177.6833, "population": 18526}, {"name": "Labasa", "country_iso2": "FJ", "state": "Macuata", "is_capital": false, "latitude": -16.4333, "longitude": 179.3667, "population": 27949}, {"name": "Lami", "country_iso2": "FJ", "state": "Rewa", "is_capital": false, "latitude": -18.1167, "longitude": 178.4167, "population": 20529}, {"name": "Lautoka", "country_iso2": "FJ", "state": "Ba", "is_capital": false, "latitude": -17.6242, "longitude": 177.4528, "population": 52220}, {"name": "Nadi", "country_iso2": "FJ", "state": "Ba", "is_capital": false, "latitude": -17.8, "longitude": 177.4167, "population": 71048}, {"name": "Nakasi", "country_iso2": "FJ", "state": "Naitasiri", "is_capital": false, "latitude": -18.0708, "longitude": 178.5214, "population": 18919}, {"name": "Nausori", "country_iso2": "FJ", "state": "Tailevu", "is_capital": false, "latitude": -18.0244, "longitude": 178.5454, "population": 57882}, {"name": "Sigatoka", "country_iso2": "FJ", "state": "Nadroga and Navosa", "is_capital": false, "latitude": -18.15, "longitude": 177.5, "population": 9622}, {"name": "Suva", "country_iso2": "FJ", "state": "Rewa", "is_capital": true, "latitude": -18.1333, "longitude": 178.4333, "population": 88271}]