[{"name": "Aboso", "country_iso2": "GH", "state": "Western", "is_capital": false, "latitude": 5.3607, "longitude": -1.9486, "population": 9945}, {"name": "Aburi", "country_iso2": "GH", "state": "Eastern", "is_capital": false, "latitude": 5.8472, "longitude": -0.1775, "population": 18701}, {"name": "Accra", "country_iso2": "GH", "state": "Greater Accra", "is_capital": true, "latitude": 5.5461, "longitude": -0.2067, "population": 491817}, {"name": "Aflao", "country_iso2": "GH", "state": "Volta", "is_capital": false, "latitude": 6.1468, "longitude": 1.1799, "population": 66546}, {"name": "Agogo", "country_iso2": "GH", "state": "Ashanti", "is_capital": false, "latitude": 6.8, "longitude": -1.0833, "population": 36797}, {"name": "Ahenkro", "country_iso2": "GH", "state": "Oti", "is_capital": false, "latitude": 7.1146, "longitude": 0.3211, "population": 80813}, {"name": "Akim Swedru", "country_iso2": "GH", "state": "Eastern", "is_capital": false, "latitude": 5.8938, "longitude": -1.0164, "population": 10379}, {"name": "Akropong", "country_iso2": "GH", "state": "Eastern", "is_capital": false, "latitude": 5.9746, "longitude": -0.0854, "population": 13785}, {"name": "Akwatia", "country_iso2": "GH", "state": "Eastern", "is_capital": false, "latitude": 6.0402, "longitude": -0.8088, "population": 23766}, {"name": "Anloga", "country_iso2": "GH", "state": "Volta", "is_capital": false, "latitude": 5.7947, "longitude": 0.8973, "population": 35933}, {"name": "Anomabu", "country_iso2": "GH", "state": "Central", "is_capital": false, "latitude": 5.1749, "longitude": -1.1214, "population": 14389}, {"name": "Apam", "country_iso2": "GH", "state": "Central", "is_capital": false, "latitude": 5.279, "longitude": -0.7397, "population": 26466}, {"name": "Asamankese", "country_iso2": "GH", "state": "Eastern", "is_capital": false, "latitude": 5.8601, "longitude": -0.6635, "population": 39435}, {"name": "Ashaiman", "country_iso2": "GH", "state": "Greater Accra", "is_capital": false, "latitude": 5.6995, "longitude": -0.0348, "population": 208060}, {"name": "Atebubu", "country_iso2": "GH", "state": "Bono East", "is_capital": false, "latitude": 7.7554, "longitude": -0.9808, "population": 105938}, {"name": "Axim", "country_iso2": "GH", "state": "Western", "is_capital": false, "latitude": 4.8667, "longitude": -2.2414, "population": 27719}, {"name": "Bawku", "country_iso2": "GH", "state": "Upper East", "is_capital": false, "latitude": 11.06, "longitude": -0.2422, "population": 61151}, {"name": "Bechem", "country_iso2": "GH", "state": "Ahafo", "is_capital": false, "latitude": 7.0887, "longitude": -2.0271, "population": 17677}, {"name": "Begoro", "country_iso2": "GH", "state": "Eastern", "is_capital": false, "latitude": 6.3871, "longitude": -0.3774, "population": 48516}, {"name": "Berekum", "country_iso2": "GH", "state": "Bono", "is_capital": false, "latitude": 7.4504, "longitude": -2.59, "population": 62364}, {"name": "Boankra", "country_iso2": "GH", "state": "Ashanti", "is_capital": false, "latitude": 6.6919, "longitude": -1.4051, "population": 3348000}, {"name": "Bogoso", "country_iso2": "GH", "state": "Western", "is_capital": false, "latitude": 5.5675, "longitude": -2.0137, "population": 50000}, {"name": "Bolgatanga", "country_iso2": "GH", "state": "Upper East", "is_capital": true, "latitude": 10.7904, "longitude": -0.85, "population": 66685}, {"name": "Cape Coast", "country_iso2": "GH", "state": "Central", "is_capital": true, "latitude": 5.1, "longitude": -1.25, "population": 169894}, {"name": "Chamba", "country_iso2": "GH", "state": "Northern", "is_capital": false, "latitude": 8.7, "longitude": -0.1333, "population": 8600}, {"name": "Dambai", "country_iso2": "GH", "state": "Oti", "is_capital": true, "latitude": 8.0662, "longitude": 0.1795, "population": null}, {"name": "Damongo", "country_iso2": "GH", "state": "Savannah", "is_capital": true, "latitude": 9.083, "longitude": -1.8188, "population": 2014}, {"name": "Diari", "country_iso2": "GH", "state": "Northern", "is_capital": false, "latitude": 9.8452, "longitude": -0.8655, "population": 12666}, {"name": "Domaa-Ahenkro", "country_iso2": "GH", "state": "Bono", "is_capital": false, "latitude": 7.2739, "longitude": -2.8735, "population": 1000000}, {"name": "Dome", "country_iso2": "GH", "state": "Greater Accra", "is_capital": false, "latitude": 5.65, "longitude": -0.2361, "population": 78785}, {"name": "Duayaw-Nkwanta", "country_iso2": "GH", "state": "Ahafo", "is_capital": false, "latitude": 7.1749, "longitude": -2.0996, "population": 27476}, {"name": "Dzolokpuita", "country_iso2": "GH", "state": "Volta", "is_capital": false, "latitude": 6.7847, "longitude": 0.4416, "population": 100000}, {"name": "Effia-Kuma", "country_iso2": "GH", "state": "Western", "is_capital": false, "latitude": 4.9228, "longitude": -1.7669, "population": 35094}, {"name": "Ejura", "country_iso2": "GH", "state": "Ashanti", "is_capital": false, "latitude": 7.3856, "longitude": -1.3562, "population": 70807}, {"name": "Elmina", "country_iso2": "GH", "state": "Central", "is_capital": false, "latitude": 5.0898, "longitude": -1.348, "population": 33576}, {"name": "Gbawe", "country_iso2": "GH", "state": "Greater Accra", "is_capital": false, "latitude": 5.5769, "longitude": -0.3104, "population": 74403}, {"name": "Goaso", "country_iso2": "GH", "state": "Ahafo", "is_capital": true, "latitude": 6.8036, "longitude": -2.5172, "population": null}, {"name": "Gumani", "country_iso2": "GH", "state": "Northern", "is_capital": false, "latitude": 9.45, "longitude": -0.7667, "population": 12506}, {"name": "Gyapekurom", "country_iso2": "GH", "state": "Bono", "is_capital": false, "latitude": 7.5833, "longitude": -2.7833, "population": 34107}, {"name": "Ho", "country_iso2": "GH", "state": "Volta", "is_capital": true, "latitude": 6.6004, "longitude": 0.47, "population": 83715}, {"name": "Hohoe", "country_iso2": "GH", "state": "Volta", "is_capital": false, "latitude": 7.149, "longitude": 0.4746, "population": 56202}, {"name": "Kade", "country_iso2": "GH", "state": "Eastern", "is_capital": false, "latitude": 6.0939, "longitude": -0.836, "population": 16542}, {"name": "Karaga", "country_iso2": "GH", "state": "Northern", "is_capital": false, "latitude": 9.925, "longitude": -0.4297, "population": 15581}, {"name": "Keta", "country_iso2": "GH", "state": "Volta", "is_capital": false, "latitude": 5.9167, "longitude": 0.9833, "population": 22739}, {"name": "Kete Krachi", "country_iso2": "GH", "state": "Oti", "is_capital": false, "latitude": 7.7939, "longitude": -0.0498, "population": 11788}, {"name": "Kibi", "country_iso2": "GH", "state": "Eastern", "is_capital": false, "latitude": 6.1667, "longitude": -0.55, "population": 11677}, {"name": "Kintampo", "country_iso2": "GH", "state": "Bono East", "is_capital": false, "latitude": 8.0563, "longitude": -1.7306, "population": 111000}, {"name": "Koforidua", "country_iso2": "GH", "state": "Eastern", "is_capital": true, "latitude": 6.1, "longitude": -0.2667, "population": 127334}, {"name": "Konongo", "country_iso2": "GH", "state": "Ashanti", "is_capital": false, "latitude": 6.6167, "longitude": -1.2167, "population": 71238}, {"name": "Kpandae", "country_iso2": "GH", "state": "Northern", "is_capital": false, "latitude": 8.4688, "longitude": -0.0113, "population": 11239}, {"name": "Kpandu", "country_iso2": "GH", "state": "Volta", "is_capital": false, "latitude": 6.9954, "longitude": 0.2931, "population": 28334}, {"name": "Kumasi", "country_iso2": "GH", "state": "Ashanti", "is_capital": true, "latitude": 6.7, "longitude": -1.625, "population": 3903480}, {"name": "Mampong", "country_iso2": "GH", "state": "Ashanti", "is_capital": false, "latitude": 7.0627, "longitude": -1.4001, "population": 42037}, {"name": "Medina Estates", "country_iso2": "GH", "state": "Greater Accra", "is_capital": false, "latitude": 5.6658, "longitude": -0.1631, "population": 137162}, {"name": "Mpraeso", "country_iso2": "GH", "state": "Eastern", "is_capital": false, "latitude": 6.5932, "longitude": -0.7346, "population": 11190}, {"name": "Mumford", "country_iso2": "GH", "state": "Central", "is_capital": false, "latitude": 5.2618, "longitude": -0.759, "population": 18368}, {"name": "Nalerigu", "country_iso2": "GH", "state": "North East", "is_capital": true, "latitude": 10.5273, "longitude": -0.3698, "population": 14927}, {"name": "Navrongo", "country_iso2": "GH", "state": "Upper East", "is_capital": false, "latitude": 10.8917, "longitude": -1.0889, "population": 27306}, {"name": "Nkawkaw", "country_iso2": "GH", "state": "Eastern", "is_capital": false, "latitude": 6.5505, "longitude": -0.78, "population": 61785}, {"name": "Nsawam", "country_iso2": "GH", "state": "Eastern", "is_capital": false, "latitude": 5.8089, "longitude": -0.3503, "population": 44522}, {"name": "Nyakrom", "country_iso2": "GH", "state": "Central", "is_capital": false, "latitude": 5.6103, "longitude": -0.7877, "population": 22911}, {"name": "Obuase", "country_iso2": "GH", "state": "Ashanti", "is_capital": false, "latitude": 6.2, "longitude": -1.6833, "population": 180460}, {"name": "Oda", "country_iso2": "GH", "state": "Eastern", "is_capital": false, "latitude": 5.9267, "longitude": -0.9858, "population": 60604}, {"name": "Odumase", "country_iso2": "GH", "state": "Bono", "is_capital": false, "latitude": 7.3713, "longitude": -2.319, "population": 16542}, {"name": "Peduasi", "country_iso2": "GH", "state": "Eastern", "is_capital": false, "latitude": 5.8065, "longitude": -0.1847, "population": 18701}, {"name": "Prestea", "country_iso2": "GH", "state": "Western", "is_capital": false, "latitude": 5.4338, "longitude": -2.1429, "population": 35760}, {"name": "Salaga", "country_iso2": "GH", "state": "Savannah", "is_capital": false, "latitude": 8.5508, "longitude": -0.5187, "population": 25472}, {"name": "Saltpond", "country_iso2": "GH", "state": "Central", "is_capital": false, "latitude": 5.2091, "longitude": -1.0606, "population": 24689}, {"name": "Savelugu", "country_iso2": "GH", "state": "Northern", "is_capital": false, "latitude": 9.6244, "longitude": -0.8253, "population": 38074}, {"name": "Sawla", "country_iso2": "GH", "state": "Savannah", "is_capital": false, "latitude": 9.2729, "longitude": -2.4143, "population": 10555}, {"name": "Sefwi Wiawso", "country_iso2": "GH", "state": "Western North", "is_capital": true, "latitude": 6.2058, "longitude": -2.4894, "population": null}, {"name": "Sekondi", "country_iso2": "GH", "state": "Western", "is_capital": true, "latitude": 4.9433, "longitude": -1.704, "population": null}, {"name": "Seva", "country_iso2": "GH", "state": "Volta", "is_capital": false, "latitude": 5.9167, "longitude": 0.9833, "population": 22739}, {"name": "Shama", "country_iso2": "GH", "state": "Western", "is_capital": false, "latitude": 5.0041, "longitude": -1.6421, "population": 23699}, {"name": "Somanya", "country_iso2": "GH", "state": "Eastern", "is_capital": false, "latitude": 6.1055, "longitude": -0.015, "population": 20596}, {"name": "Suhum", "country_iso2": "GH", "state": "Eastern", "is_capital": false, "latitude": 6.0409, "longitude": -0.45, "population": 126403}, {"name": "Sunyani", "country_iso2": "GH", "state": "Bono", "is_capital": true, "latitude": 7.336, "longitude": -2.336, "population": 208496}, {"name": "Swedru", "country_iso2": "GH", "state": "Central", "is_capital": false, "latitude": 5.5371, "longitude": -0.6998, "population": 68216}, {"name": "Tafo", "country_iso2": "GH", "state": "Ashanti", "is_capital": false, "latitude": 6.7316, "longitude": -1.6137, "population": 60919}, {"name": "Tamale", "country_iso2": "GH", "state": "Northern", "is_capital": true, "latitude": 9.4075, "longitude": -0.8533, "population": 1095808}, {"name": "Tarkwa", "country_iso2": "GH", "state": "Western", "is_capital": false, "latitude": 5.3038, "longitude": -1.9896, "population": 34941}, {"name": "Techiman", "country_iso2": "GH", "state": "Bono East", "is_capital": true, "latitude": 7.5905, "longitude": -1.9395, "population": 104212}, {"name": "Tema", "country_iso2": "GH", "state": "Greater Accra", "is_capital": false, "latitude": 5.6667, "longitude": -0.0167, "population": 161612}, {"name": "Wa", "country_iso2": "GH", "state": "Upper West", "is_capital": true, "latitude": 10.0667, "longitude": -2.5, "population": 107214}, {"name": "Winneba", "country_iso2": "GH", "state": "Central", "is_capital": false, "latitude": 5.35, "longitude": -0.6333, "population": 55331}, {"name": "Yendi", "country_iso2": "GH", "state": "Northern", "is_capital": false, "latitude": 9.4337, "longitude": -0.0167, "population": 52008}]