[{"name": "Bakau", "country_iso2": "GM", "state": "Kanifing", "is_capital": false, "latitude": 13.4833, "longitude": -16.6833, "population": 43098}, {"name": "Banjul", "country_iso2": "GM", "state": "Banjul", "is_capital": true, "latitude": 13.4581, "longitude": -16.5786, "population": 413397}, {"name": "Bansang", "country_iso2": "GM", "state": "Central River", "is_capital": false, "latitude": 13.4333, "longitude": -14.65, "population": 8843}, {"name": "Basse Santa Su", "country_iso2": "GM", "state": "Upper River", "is_capital": true, "latitude": 13.3167, "longitude": -14.2167, "population": 18414}, {"name": "Brikama", "country_iso2": "GM", "state": "West Coast", "is_capital": true, "latitude": 13.2667, "longitude": -16.65, "population": 77700}, {"name": "Brikama Ba", "country_iso2": "GM", "state": "Central River", "is_capital": false, "latitude": 13.5333, "longitude": -14.9333, "population": 10343}, {"name": "Busumbala", "country_iso2": "GM", "state": "West Coast", "is_capital": false, "latitude": 13.3333, "longitude": -16.6667, "population": 11189}, {"name": "Diabugu", "country_iso2": "GM", "state": "Upper River", "is_capital": false, "latitude": 13.3833, "longitude": -14.4, "population": 9000}, {"name": "Essau", "country_iso2": "GM", "state": "North Bank", "is_capital": false, "latitude": 13.4833, "longitude": -16.5333, "population": 14560}, {"name": "Farafenni", "country_iso2": "GM", "state": "North Bank", "is_capital": false, "latitude": 13.5667, "longitude": -15.6, "population": 36000}, {"name": "Gambissara", "country_iso2": "GM", "state": "Upper River", "is_capital": false, "latitude": 13.2333, "longitude": -14.3167, "population": 10102}, {"name": "Gunjur", "country_iso2": "GM", "state": "West Coast", "is_capital": false, "latitude": 13.1833, "longitude": -16.7667, "population": 17520}, {"name": "Janjanbureh", "country_iso2": "GM", "state": "Central River", "is_capital": true, "latitude": 13.5341, "longitude": -14.7662, "population": 3584}, {"name": "Kanifing", "country_iso2": "GM", "state": "Kanifing", "is_capital": true, "latitude": 13.4475, "longitude": -16.6725, "population": 382096}, {"name": "Kerewan", "country_iso2": "GM", "state": "North Bank", "is_capital": true, "latitude": 13.5, "longitude": -16.0833, "population": 2751}, {"name": "Mansa Konko", "country_iso2": "GM", "state": "Lower River", "is_capital": true, "latitude": 13.4667, "longitude": -15.55, "population": 18672}, {"name": "Sareh Mowndeh", "country_iso2": "GM", "state": "West Coast", "is_capital": false, "latitude": 13.4036, "longitude": -16.6833, "population": 36134}, {"name": "Serekunda", "country_iso2": "GM", "state": "Kanifing", "is_capital": false, "latitude": 13.445, "longitude": -16.675, "population": 382096}, {"name": "Sukuta", "country_iso2": "GM", "state": "West Coast", "is_capital": false, "latitude": 13.4167, "longitude": -16.7, "population": 40675}]