[{"name": "Acatenango", "country_iso2": "GT", "state": "Chimaltenango", "is_capital": false, "latitude": 14.5544, "longitude": -90.9439, "population": 28780}, {"name": "Agua Blanca", "country_iso2": "GT", "state": "Jutiapa", "is_capital": false, "latitude": 14.4833, "longitude": -89.6494, "population": 17765}, {"name": "Aguacatán", "country_iso2": "GT", "state": "Huehuetenango", "is_capital": false, "latitude": 15.35, "longitude": -91.3167, "population": 59638}, {"name": "Almolonga", "country_iso2": "GT", "state": "Quetzaltenango", "is_capital": false, "latitude": 14.8122, "longitude": -91.4944, "population": 17305}, {"name": "Alotenango", "country_iso2": "GT", "state": "Sacatepéquez", "is_capital": false, "latitude": 14.4878, "longitude": -90.8058, "population": 28129}, {"name": "Amatitlán", "country_iso2": "GT", "state": "Guatemala", "is_capital": false, "latitude": 14.4833, "longitude": -90.6167, "population": 152296}, {"name": "Antigua Guatemala", "country_iso2": "GT", "state": "Sacatepéquez", "is_capital": true, "latitude": 14.5667, "longitude": -90.7333, "population": 59091}, {"name": "Asunción Mita", "country_iso2": "GT", "state": "Jutiapa", "is_capital": false, "latitude": 14.3333, "longitude": -89.7167, "population": 53141}, {"name": "Atescatempa", "country_iso2": "GT", "state": "Jutiapa", "is_capital": false, "latitude": 14.175, "longitude": -89.7417, "population": 20033}, {"name": "Barberena", "country_iso2": "GT", "state": "Santa Rosa", "is_capital": false, "latitude": 14.3167, "longitude": -90.3667, "population": 61079}, {"name": "Cabañas", "country_iso2": "GT", "state": "Zacapa", "is_capital": false, "latitude": 14.9333, "longitude": -89.8, "population": 14817}, {"name": "Cabricán", "country_iso2": "GT", "state": "Quetzaltenango", "is_capital": false, "latitude": 15.0747, "longitude": -91.6486, "population": 28124}, {"name": "Cajolá", "country_iso2": "GT", "state": "Quetzaltenango", "is_capital": false, "latitude": 14.9167, "longitude": -91.6167, "population": 19333}, {"name": "Camotán", "country_iso2": "GT", "state": "Chiquimula", "is_capital": false, "latitude": 14.8167, "longitude": -89.3817, "population": 61958}, {"name": "Canillá", "country_iso2": "GT", "state": "Quiché", "is_capital": false, "latitude": 15.1667, "longitude": -90.85, "population": 12724}, {"name": "Cantel", "country_iso2": "GT", "state": "Quetzaltenango", "is_capital": false, "latitude": 14.8112, "longitude": -91.4555, "population": 47087}, {"name": "Casillas", "country_iso2": "GT", "state": "Santa Rosa", "is_capital": false, "latitude": 14.4167, "longitude": -90.25, "population": 26059}, {"name": "Catarina", "country_iso2": "GT", "state": "San Marcos", "is_capital": false, "latitude": 14.85, "longitude": -92.0833, "population": 35542}, {"name": "Chajul", "country_iso2": "GT", "state": "Quiché", "is_capital": false, "latitude": 15.4872, "longitude": -91.0347, "population": 52019}, {"name": "Champerico", "country_iso2": "GT", "state": "Retalhuleu", "is_capital": false, "latitude": 14.293, "longitude": -91.914, "population": 38570}, {"name": "Chiantla", "country_iso2": "GT", "state": "Huehuetenango", "is_capital": false, "latitude": 15.35, "longitude": -91.45, "population": 93780}, {"name": "Chicacao", "country_iso2": "GT", "state": "Suchitepéquez", "is_capital": false, "latitude": 14.5333, "longitude": -91.3167, "population": 67399}, {"name": "Chicamán", "country_iso2": "GT", "state": "Quiché", "is_capital": false, "latitude": 15.3483, "longitude": -90.7994, "population": 43139}, {"name": "Chichicastenango", "country_iso2": "GT", "state": "Quiché", "is_capital": false, "latitude": 14.9333, "longitude": -91.1167, "population": 150932}, {"name": "Chiché", "country_iso2": "GT", "state": "Quiché", "is_capital": false, "latitude": 15.0106, "longitude": -91.065, "population": 32271}, {"name": "Chimaltenango", "country_iso2": "GT", "state": "Chimaltenango", "is_capital": true, "latitude": 14.6622, "longitude": -90.8208, "population": 116642}, {"name": "Chinautla", "country_iso2": "GT", "state": "Guatemala", "is_capital": false, "latitude": 14.7, "longitude": -90.5, "population": 124365}, {"name": "Chinique", "country_iso2": "GT", "state": "Quiché", "is_capital": false, "latitude": 15.0411, "longitude": -91.0269, "population": 13547}, {"name": "Chiquimula", "country_iso2": "GT", "state": "Chiquimula", "is_capital": true, "latitude": 14.7833, "longitude": -89.5333, "population": 111505}, {"name": "Chiquimulilla", "country_iso2": "GT", "state": "Santa Rosa", "is_capital": false, "latitude": 14.0833, "longitude": -90.3833, "population": 64871}, {"name": "Chisec", "country_iso2": "GT", "state": "Alta Verapaz", "is_capital": false, "latitude": 15.8125, "longitude": -90.3217, "population": 69325}, {"name": "Chuarrancho", "country_iso2": "GT", "state": "Guatemala", "is_capital": false, "latitude": 14.8181, "longitude": -90.5153, "population": 17057}, {"name": "Ciudad Melchor de Mencos", "country_iso2": "GT", "state": "Petén", "is_capital": false, "latitude": 17.0667, "longitude": -89.15, "population": 30682}, {"name": "Ciudad Tecún Umán", "country_iso2": "GT", "state": "San Marcos", "is_capital": false, "latitude": 14.6667, "longitude": -92.15, "population": 27365}, {"name": "Ciudad Vieja", "country_iso2": "GT", "state": "Sacatepéquez", "is_capital": false, "latitude": 14.5233, "longitude": -90.7667, "population": 41010}, {"name": "Coatepeque", "country_iso2": "GT", "state": "Quetzaltenango", "is_capital": false, "latitude": 14.7, "longitude": -91.8667, "population": 120737}, {"name": "Cobán", "country_iso2": "GT", "state": "Alta Verapaz", "is_capital": true, "latitude": 15.4833, "longitude": -90.3667, "population": 228664}, {"name": "Colomba", "country_iso2": "GT", "state": "Quetzaltenango", "is_capital": false, "latitude": 14.7167, "longitude": -91.7333, "population": 56487}, {"name": "Colotenango", "country_iso2": "GT", "state": "Huehuetenango", "is_capital": false, "latitude": 15.4167, "longitude": -91.7167, "population": 44823}, {"name": "Comapa", "country_iso2": "GT", "state": "Jutiapa", "is_capital": false, "latitude": 14.1167, "longitude": -89.9167, "population": 37218}, {"name": "Comitancillo", "country_iso2": "GT", "state": "San Marcos", "is_capital": false, "latitude": 15.0833, "longitude": -91.7167, "population": 80612}, {"name": "Concepción Chiquirichapa", "country_iso2": "GT", "state": "Quetzaltenango", "is_capital": false, "latitude": 14.85, "longitude": -91.6167, "population": 20920}, {"name": "Concepción Huista", "country_iso2": "GT", "state": "Huehuetenango", "is_capital": false, "latitude": 15.6167, "longitude": -91.6833, "population": 21208}, {"name": "Concepción Las Minas", "country_iso2": "GT", "state": "Chiquimula", "is_capital": false, "latitude": 14.5167, "longitude": -89.45, "population": 12615}, {"name": "Concepción Tutuapa", "country_iso2": "GT", "state": "San Marcos", "is_capital": false, "latitude": 15.2833, "longitude": -91.7833, "population": 84138}, {"name": "Conguaco", "country_iso2": "GT", "state": "Jutiapa", "is_capital": false, "latitude": 14.05, "longitude": -90.0333, "population": 29887}, {"name": "Cubulco", "country_iso2": "GT", "state": "Baja Verapaz", "is_capital": false, "latitude": 15.1083, "longitude": -90.6306, "population": 60706}, {"name": "Cuilapa", "country_iso2": "GT", "state": "Santa Rosa", "is_capital": true, "latitude": 14.2833, "longitude": -90.3, "population": 46974}, {"name": "Cuilco", "country_iso2": "GT", "state": "Huehuetenango", "is_capital": false, "latitude": 15.4, "longitude": -91.9667, "population": 67297}, {"name": "Cunén", "country_iso2": "GT", "state": "Quiché", "is_capital": false, "latitude": 15.3333, "longitude": -91.0333, "population": 47250}, {"name": "Cuyotenango", "country_iso2": "GT", "state": "Suchitepéquez", "is_capital": false, "latitude": 14.5333, "longitude": -91.5667, "population": 36201}, {"name": "Dolores", "country_iso2": "GT", "state": "Petén", "is_capital": false, "latitude": 16.5142, "longitude": -89.4158, "population": 30302}, {"name": "El Asintal", "country_iso2": "GT", "state": "Retalhuleu", "is_capital": false, "latitude": 14.6, "longitude": -91.7333, "population": 43281}, {"name": "El Chal", "country_iso2": "GT", "state": "Petén", "is_capital": false, "latitude": 16.64, "longitude": -89.65, "population": 15555}, {"name": "El Chol", "country_iso2": "GT", "state": "Baja Verapaz", "is_capital": false, "latitude": 14.9667, "longitude": -90.4833, "population": 10445}, {"name": "El Estor", "country_iso2": "GT", "state": "Izabal", "is_capital": false, "latitude": 15.5333, "longitude": -89.35, "population": 82491}, {"name": "El Jícaro", "country_iso2": "GT", "state": "El Progreso", "is_capital": false, "latitude": 14.9131, "longitude": -89.8953, "population": 13518}, {"name": "El Palmar", "country_iso2": "GT", "state": "Quetzaltenango", "is_capital": false, "latitude": 14.65, "longitude": -91.5833, "population": 31706}, {"name": "El Progreso", "country_iso2": "GT", "state": "Jutiapa", "is_capital": false, "latitude": 14.35, "longitude": -89.85, "population": 25839}, {"name": "El Quetzal", "country_iso2": "GT", "state": "San Marcos", "is_capital": false, "latitude": 14.7667, "longitude": -91.8167, "population": 25888}, {"name": "El Rodeo", "country_iso2": "GT", "state": "San Marcos", "is_capital": false, "latitude": 14.9167, "longitude": -91.9667, "population": 19401}, {"name": "El Rodeo", "country_iso2": "GT", "state": "Escuintla", "is_capital": false, "latitude": 14.3906, "longitude": -90.8314, "population": 14125}, {"name": "El Tejar", "country_iso2": "GT", "state": "Chimaltenango", "is_capital": false, "latitude": 14.65, "longitude": -90.8, "population": 23780}, {"name": "El Tumbador", "country_iso2": "GT", "state": "San Marcos", "is_capital": false, "latitude": 14.8667, "longitude": -91.9333, "population": 52144}, {"name": "Escuintla", "country_iso2": "GT", "state": "Escuintla", "is_capital": true, "latitude": 14.2978, "longitude": -90.7869, "population": 170280}, {"name": "Esquipulas", "country_iso2": "GT", "state": "Chiquimula", "is_capital": false, "latitude": 14.5667, "longitude": -89.35, "population": 56253}, {"name": "Esquipulas Palo Gordo", "country_iso2": "GT", "state": "San Marcos", "is_capital": false, "latitude": 14.9333, "longitude": -91.8167, "population": 14018}, {"name": "Estanzuela", "country_iso2": "GT", "state": "Zacapa", "is_capital": false, "latitude": 15.0, "longitude": -89.5667, "population": 10872}, {"name": "Flores", "country_iso2": "GT", "state": "Petén", "is_capital": true, "latitude": 16.9297, "longitude": -89.8917, "population": 44706}, {"name": "Flores Costa Cuca", "country_iso2": "GT", "state": "Quetzaltenango", "is_capital": false, "latitude": 14.65, "longitude": -91.8167, "population": 24888}, {"name": "Fraijanes", "country_iso2": "GT", "state": "Guatemala", "is_capital": false, "latitude": 14.4667, "longitude": -90.4333, "population": 63721}, {"name": "Fray Bartolomé de Las Casas", "country_iso2": "GT", "state": "Alta Verapaz", "is_capital": false, "latitude": 15.8456, "longitude": -89.8658, "population": 77896}, {"name": "Granados", "country_iso2": "GT", "state": "Baja Verapaz", "is_capital": false, "latitude": 14.9139, "longitude": -90.5233, "population": 14585}, {"name": "Gualán", "country_iso2": "GT", "state": "Zacapa", "is_capital": false, "latitude": 15.1333, "longitude": -89.3667, "population": 49709}, {"name": "Guanagazapa", "country_iso2": "GT", "state": "Escuintla", "is_capital": false, "latitude": 14.2333, "longitude": -90.65, "population": 17458}, {"name": "Guastatoya", "country_iso2": "GT", "state": "El Progreso", "is_capital": true, "latitude": 14.85, "longitude": -90.0667, "population": 27407}, {"name": "Guatemala City", "country_iso2": "GT", "state": "Guatemala", "is_capital": true, "latitude": 14.6417, "longitude": -90.5133, "population": 3014000}, {"name": "Guazacapán", "country_iso2": "GT", "state": "Santa Rosa", "is_capital": false, "latitude": 14.0667, "longitude": -90.4167, "population": 22197}, {"name": "Génova", "country_iso2": "GT", "state": "Quetzaltenango", "is_capital": false, "latitude": 14.6167, "longitude": -91.8333, "population": 46294}, {"name": "Huehuetenango", "country_iso2": "GT", "state": "Huehuetenango", "is_capital": true, "latitude": 15.3147, "longitude": -91.4761, "population": 136639}, {"name": "Huitán", "country_iso2": "GT", "state": "Quetzaltenango", "is_capital": false, "latitude": 15.1, "longitude": -91.6167, "population": 14839}, {"name": "Huité", "country_iso2": "GT", "state": "Zacapa", "is_capital": false, "latitude": 14.9333, "longitude": -89.7167, "population": 12021}, {"name": "Ipala", "country_iso2": "GT", "state": "Chiquimula", "is_capital": false, "latitude": 14.6191, "longitude": -89.6226, "population": 24024}, {"name": "Ixchiguán", "country_iso2": "GT", "state": "San Marcos", "is_capital": false, "latitude": 15.1675, "longitude": -91.9319, "population": 24926}, {"name": "Ixtahuacán", "country_iso2": "GT", "state": "Huehuetenango", "is_capital": false, "latitude": 15.4167, "longitude": -91.7667, "population": 56511}, {"name": "Iztapa", "country_iso2": "GT", "state": "Escuintla", "is_capital": false, "latitude": 13.9331, "longitude": -90.7075, "population": 20401}, {"name": "Jacaltenango", "country_iso2": "GT", "state": "Huehuetenango", "is_capital": false, "latitude": 15.6667, "longitude": -91.7333, "population": 44605}, {"name": "Jalapa", "country_iso2": "GT", "state": "Jalapa", "is_capital": true, "latitude": 14.6333, "longitude": -89.9833, "population": 192676}, {"name": "Jalpatagua", "country_iso2": "GT", "state": "Jutiapa", "is_capital": false, "latitude": 14.1333, "longitude": -90.0167, "population": 31601}, {"name": "Jerez", "country_iso2": "GT", "state": "Jutiapa", "is_capital": false, "latitude": 14.1, "longitude": -89.75, "population": 31601}, {"name": "Jocotenango", "country_iso2": "GT", "state": "Sacatepéquez", "is_capital": false, "latitude": 14.5819, "longitude": -90.7436, "population": 23492}, {"name": "Jocotán", "country_iso2": "GT", "state": "Chiquimula", "is_capital": false, "latitude": 14.8167, "longitude": -89.3833, "population": 75578}, {"name": "Joyabaj", "country_iso2": "GT", "state": "Quiché", "is_capital": false, "latitude": 14.995, "longitude": -90.8075, "population": 107634}, {"name": "Jutiapa", "country_iso2": "GT", "state": "Jutiapa", "is_capital": true, "latitude": 14.2828, "longitude": -89.8925, "population": 167049}, {"name": "La Blanca", "country_iso2": "GT", "state": "San Marcos", "is_capital": false, "latitude": 14.5791, "longitude": -92.1414, "population": 34307}, {"name": "La Democracia", "country_iso2": "GT", "state": "Huehuetenango", "is_capital": false, "latitude": 15.6333, "longitude": -91.8667, "population": 61486}, {"name": "La Democracia", "country_iso2": "GT", "state": "Escuintla", "is_capital": false, "latitude": 14.2308, "longitude": -90.9472, "population": 22884}, {"name": "La Esperanza", "country_iso2": "GT", "state": "Quetzaltenango", "is_capital": false, "latitude": 14.8667, "longitude": -91.5667, "population": 24948}, {"name": "La Gomera", "country_iso2": "GT", "state": "Escuintla", "is_capital": false, "latitude": 14.0833, "longitude": -91.05, "population": 53211}, {"name": "La Libertad", "country_iso2": "GT", "state": "Petén", "is_capital": false, "latitude": 16.7861, "longitude": -90.1167, "population": 86171}, {"name": "La Libertad", "country_iso2": "GT", "state": "Huehuetenango", "is_capital": false, "latitude": 15.5, "longitude": -91.8333, "population": 49035}, {"name": "La Máquina", "country_iso2": "GT", "state": "Suchitepéquez", "is_capital": false, "latitude": 14.3, "longitude": -91.5667, "population": 26062}, {"name": "La Reforma", "country_iso2": "GT", "state": "San Marcos", "is_capital": false, "latitude": 14.8, "longitude": -91.8167, "population": 23717}, {"name": "La Unión", "country_iso2": "GT", "state": "Zacapa", "is_capital": false, "latitude": 14.9667, "longitude": -89.2833, "population": 38473}, {"name": "Lanquín", "country_iso2": "GT", "state": "Alta Verapaz", "is_capital": false, "latitude": 15.5667, "longitude": -89.9667, "population": 26551}, {"name": "Las Cruces", "country_iso2": "GT", "state": "Petén", "is_capital": false, "latitude": 16.6583, "longitude": -90.295, "population": 39188}, {"name": "Los Amates", "country_iso2": "GT", "state": "Izabal", "is_capital": false, "latitude": 15.2667, "longitude": -89.1, "population": 65475}, {"name": "Lívingston", "country_iso2": "GT", "state": "Izabal", "is_capital": false, "latitude": 15.83, "longitude": -88.75, "population": 80249}, {"name": "Magdalena Milpas Altas", "country_iso2": "GT", "state": "Sacatepéquez", "is_capital": false, "latitude": 14.5453, "longitude": -90.6753, "population": 12766}, {"name": "Malacatancito", "country_iso2": "GT", "state": "Huehuetenango", "is_capital": false, "latitude": 15.2167, "longitude": -91.5167, "population": 22859}, {"name": "Malacatán", "country_iso2": "GT", "state": "San Marcos", "is_capital": false, "latitude": 14.9, "longitude": -92.0497, "population": 109318}, {"name": "Masagua", "country_iso2": "GT", "state": "Escuintla", "is_capital": false, "latitude": 14.2, "longitude": -90.85, "population": 48552}, {"name": "Mataquescuintla", "country_iso2": "GT", "state": "Jalapa", "is_capital": false, "latitude": 14.5336, "longitude": -90.1839, "population": 47280}, {"name": "Mazatenango", "country_iso2": "GT", "state": "Suchitepéquez", "is_capital": true, "latitude": 14.5333, "longitude": -91.5, "population": 82969}, {"name": "Mixco", "country_iso2": "GT", "state": "Guatemala", "is_capital": false, "latitude": 14.6331, "longitude": -90.6064, "population": 527828}, {"name": "Momostenango", "country_iso2": "GT", "state": "Totonicapán", "is_capital": false, "latitude": 15.0, "longitude": 2.0, "population": 139552}, {"name": "Monjas", "country_iso2": "GT", "state": "Jalapa", "is_capital": false, "latitude": 14.5, "longitude": -89.8667, "population": 31330}, {"name": "Morales", "country_iso2": "GT", "state": "Izabal", "is_capital": false, "latitude": 15.4725, "longitude": -88.8414, "population": 107400}, {"name": "Morazán", "country_iso2": "GT", "state": "El Progreso", "is_capital": false, "latitude": 14.9328, "longitude": -90.1431, "population": 12672}, {"name": "Moyuta", "country_iso2": "GT", "state": "Jutiapa", "is_capital": false, "latitude": 14.0333, "longitude": -90.0833, "population": 11229}, {"name": "Nahualá", "country_iso2": "GT", "state": "Sololá", "is_capital": false, "latitude": 14.85, "longitude": -91.3167, "population": 87319}, {"name": "Nentón", "country_iso2": "GT", "state": "Huehuetenango", "is_capital": false, "latitude": 15.8, "longitude": -91.75, "population": 51349}, {"name": "Nueva Concepción", "country_iso2": "GT", "state": "Escuintla", "is_capital": false, "latitude": 14.1997, "longitude": -91.2997, "population": 82216}, {"name": "Nueva Santa Rosa", "country_iso2": "GT", "state": "Santa Rosa", "is_capital": false, "latitude": 14.3811, "longitude": -90.2761, "population": 39286}, {"name": "Nuevo Progreso", "country_iso2": "GT", "state": "San Marcos", "is_capital": false, "latitude": 14.8, "longitude": -91.9167, "population": 31968}, {"name": "Nuevo San Carlos", "country_iso2": "GT", "state": "Retalhuleu", "is_capital": false, "latitude": 14.6, "longitude": -91.7, "population": 41956}, {"name": "Ocós", "country_iso2": "GT", "state": "San Marcos", "is_capital": false, "latitude": 14.5094, "longitude": -92.1933, "population": 12776}, {"name": "Olintepeque", "country_iso2": "GT", "state": "Quetzaltenango", "is_capital": false, "latitude": 14.8833, "longitude": -91.5167, "population": 39383}, {"name": "Olopa", "country_iso2": "GT", "state": "Chiquimula", "is_capital": false, "latitude": 14.6833, "longitude": -89.35, "population": 30534}, {"name": "Oratorio", "country_iso2": "GT", "state": "Santa Rosa", "is_capital": false, "latitude": 14.2281, "longitude": -90.1758, "population": 27115}, {"name": "Ostuncalco", "country_iso2": "GT", "state": "Quetzaltenango", "is_capital": false, "latitude": 14.8667, "longitude": -91.6167, "population": 61517}, {"name": "Pachalum", "country_iso2": "GT", "state": "Quiché", "is_capital": false, "latitude": 14.9269, "longitude": -90.665, "population": 9897}, {"name": "Pajapita", "country_iso2": "GT", "state": "San Marcos", "is_capital": false, "latitude": 14.7167, "longitude": -92.0333, "population": 23171}, {"name": "Palencia", "country_iso2": "GT", "state": "Guatemala", "is_capital": false, "latitude": 14.6667, "longitude": -90.3667, "population": 74839}, {"name": "Palestina de los Altos", "country_iso2": "GT", "state": "Quetzaltenango", "is_capital": false, "latitude": 14.9333, "longitude": -91.7, "population": 20719}, {"name": "Palín", "country_iso2": "GT", "state": "Escuintla", "is_capital": false, "latitude": 14.4039, "longitude": -90.6986, "population": 72203}, {"name": "Panajachel", "country_iso2": "GT", "state": "Sololá", "is_capital": false, "latitude": 14.7406, "longitude": -91.1594, "population": 16101}, {"name": "Panzos", "country_iso2": "GT", "state": "Alta Verapaz", "is_capital": false, "latitude": 15.4, "longitude": -89.6667, "population": 81063}, {"name": "Parramos", "country_iso2": "GT", "state": "Chimaltenango", "is_capital": false, "latitude": 14.6078, "longitude": -90.8031, "population": 20632}, {"name": "Pasaco", "country_iso2": "GT", "state": "Jutiapa", "is_capital": false, "latitude": 13.9833, "longitude": -90.2, "population": 11229}, {"name": "Pastores", "country_iso2": "GT", "state": "Sacatepéquez", "is_capital": false, "latitude": 14.6, "longitude": -90.75, "population": 19661}, {"name": "Patulul", "country_iso2": "GT", "state": "Suchitepéquez", "is_capital": false, "latitude": 14.4167, "longitude": -91.1667, "population": 41543}, {"name": "Patzicía", "country_iso2": "GT", "state": "Chimaltenango", "is_capital": false, "latitude": 14.6317, "longitude": -90.9269, "population": 40848}, {"name": "Patzún", "country_iso2": "GT", "state": "Chimaltenango", "is_capital": false, "latitude": 14.6833, "longitude": -91.0167, "population": 71790}, {"name": "Petapa", "country_iso2": "GT", "state": "Guatemala", "is_capital": false, "latitude": 14.5, "longitude": -90.5667, "population": 129124}, {"name": "Playa Grande", "country_iso2": "GT", "state": "Quiché", "is_capital": false, "latitude": 15.9833, "longitude": -90.7667, "population": 12710}, {"name": "Pochuta", "country_iso2": "GT", "state": "Chimaltenango", "is_capital": false, "latitude": 14.545, "longitude": -91.0889, "population": 112139}, {"name": "Poptún", "country_iso2": "GT", "state": "Petén", "is_capital": false, "latitude": 16.3222, "longitude": -89.4222, "population": 69437}, {"name": "Pueblo Nuevo", "country_iso2": "GT", "state": "Suchitepéquez", "is_capital": false, "latitude": 14.65, "longitude": -91.5333, "population": 11702}, {"name": "Pueblo Nuevo Viñas", "country_iso2": "GT", "state": "Santa Rosa", "is_capital": false, "latitude": 14.2333, "longitude": -90.4667, "population": 29418}, {"name": "Puerto Barrios", "country_iso2": "GT", "state": "Izabal", "is_capital": true, "latitude": 15.7133, "longitude": -88.5899, "population": 110846}, {"name": "Puerto San José", "country_iso2": "GT", "state": "Escuintla", "is_capital": false, "latitude": 13.9333, "longitude": -90.8167, "population": 68331}, {"name": "Purulhá", "country_iso2": "GT", "state": "Baja Verapaz", "is_capital": false, "latitude": 15.2667, "longitude": -90.2, "population": 65340}, {"name": "Quesada", "country_iso2": "GT", "state": "Jutiapa", "is_capital": false, "latitude": 14.2667, "longitude": -90.0333, "population": 23822}, {"name": "Quetzaltenango", "country_iso2": "GT", "state": "Quetzaltenango", "is_capital": true, "latitude": 14.8333, "longitude": -91.5167, "population": 207620}, {"name": "Quezaltepeque", "country_iso2": "GT", "state": "Chiquimula", "is_capital": false, "latitude": 14.6333, "longitude": -89.45, "population": 30136}, {"name": "Rabinal", "country_iso2": "GT", "state": "Baja Verapaz", "is_capital": false, "latitude": 15.068, "longitude": -90.489, "population": 45000}, {"name": "Raxruhá", "country_iso2": "GT", "state": "Alta Verapaz", "is_capital": false, "latitude": 15.8666, "longitude": -90.0424, "population": 40094}, {"name": "Retalhuleu", "country_iso2": "GT", "state": "Retalhuleu", "is_capital": true, "latitude": 14.5333, "longitude": -91.6833, "population": 109935}, {"name": "Río Bravo", "country_iso2": "GT", "state": "Suchitepéquez", "is_capital": false, "latitude": 14.4011, "longitude": -91.3195, "population": 31303}, {"name": "Río Hondo", "country_iso2": "GT", "state": "Zacapa", "is_capital": false, "latitude": 15.0464, "longitude": -89.5847, "population": 23384}, {"name": "Sacapulas", "country_iso2": "GT", "state": "Quiché", "is_capital": false, "latitude": 15.2892, "longitude": -91.0892, "population": 55398}, {"name": "Salamá", "country_iso2": "GT", "state": "Baja Verapaz", "is_capital": true, "latitude": 15.1, "longitude": -90.2667, "population": 71478}, {"name": "Salcajá", "country_iso2": "GT", "state": "Quetzaltenango", "is_capital": false, "latitude": 14.8833, "longitude": -91.45, "population": 21577}, {"name": "Samayac", "country_iso2": "GT", "state": "Suchitepéquez", "is_capital": false, "latitude": 14.5833, "longitude": -91.4667, "population": 26665}, {"name": "San Agustín Acasaguastlán", "country_iso2": "GT", "state": "El Progreso", "is_capital": false, "latitude": 14.95, "longitude": -89.9667, "population": 55508}, {"name": "San Agustín Chahal", "country_iso2": "GT", "state": "Alta Verapaz", "is_capital": false, "latitude": 15.75, "longitude": -89.5667, "population": 29590}, {"name": "San Andrés", "country_iso2": "GT", "state": "Petén", "is_capital": false, "latitude": 16.9675, "longitude": -89.9103, "population": 35465}, {"name": "San Andrés Itzapa", "country_iso2": "GT", "state": "Chimaltenango", "is_capital": false, "latitude": 14.6167, "longitude": -90.85, "population": 35579}, {"name": "San Andrés Sajcabajá", "country_iso2": "GT", "state": "Quiché", "is_capital": false, "latitude": 15.1756, "longitude": -90.9417, "population": 27962}, {"name": "San Andrés Villa Seca", "country_iso2": "GT", "state": "Retalhuleu", "is_capital": false, "latitude": 14.5667, "longitude": -91.5833, "population": 56060}, {"name": "San Andrés Xecul", "country_iso2": "GT", "state": "Totonicapán", "is_capital": false, "latitude": 14.9, "longitude": -91.4833, "population": 29849}, {"name": "San Antonio Aguas Calientes", "country_iso2": "GT", "state": "Sacatepéquez", "is_capital": false, "latitude": 14.5333, "longitude": -90.7667, "population": 12716}, {"name": "San Antonio Huista", "country_iso2": "GT", "state": "Huehuetenango", "is_capital": false, "latitude": 15.65, "longitude": -91.7667, "population": 19311}, {"name": "San Antonio Ilotenango", "country_iso2": "GT", "state": "Quiché", "is_capital": false, "latitude": 15.0544, "longitude": -91.2294, "population": 30864}, {"name": "San Antonio La Paz", "country_iso2": "GT", "state": "El Progreso", "is_capital": false, "latitude": 14.75, "longitude": -90.2833, "population": 22493}, {"name": "San Antonio Palopó", "country_iso2": "GT", "state": "Sololá", "is_capital": false, "latitude": 14.7, "longitude": -91.1167, "population": 15752}, {"name": "San Antonio Sacatepéquez", "country_iso2": "GT", "state": "San Marcos", "is_capital": false, "latitude": 14.9667, "longitude": -91.7333, "population": 20994}, {"name": "San Antonio Suchitepéquez", "country_iso2": "GT", "state": "Suchitepéquez", "is_capital": false, "latitude": 14.5333, "longitude": -91.4167, "population": 65501}, {"name": "San Bartolo", "country_iso2": "GT", "state": "Totonicapán", "is_capital": false, "latitude": 15.0844, "longitude": -91.4558, "population": 12459}, {"name": "San Bartolomé Jocotenango", "country_iso2": "GT", "state": "Quiché", "is_capital": false, "latitude": 15.1928, "longitude": -91.0775, "population": 15777}, {"name": "San Bartolomé Milpas Altas", "country_iso2": "GT", "state": "Sacatepéquez", "is_capital": false, "latitude": 14.6072, "longitude": -90.6781, "population": 8642}, {"name": "San Benito", "country_iso2": "GT", "state": "Petén", "is_capital": false, "latitude": 16.9167, "longitude": -89.9, "population": 54189}, {"name": "San Bernardino", "country_iso2": "GT", "state": "Suchitepéquez", "is_capital": false, "latitude": 14.5333, "longitude": -91.45, "population": 17110}, {"name": "San Carlos Alzatate", "country_iso2": "GT", "state": "Jalapa", "is_capital": false, "latitude": 14.5, "longitude": -90.0667, "population": 31938}, {"name": "San Carlos Sija", "country_iso2": "GT", "state": "Quetzaltenango", "is_capital": false, "latitude": 14.9833, "longitude": -91.55, "population": 36001}, {"name": "San Cristóbal Cucho", "country_iso2": "GT", "state": "San Marcos", "is_capital": false, "latitude": 14.9, "longitude": -91.7833, "population": 17987}, {"name": "San Cristóbal Totonicapán", "country_iso2": "GT", "state": "Totonicapán", "is_capital": false, "latitude": 14.9167, "longitude": -91.4333, "population": 42937}, {"name": "San Cristóbal Verapaz", "country_iso2": "GT", "state": "Alta Verapaz", "is_capital": false, "latitude": 15.365, "longitude": -90.4792, "population": 80613}, {"name": "San Felipe", "country_iso2": "GT", "state": "Retalhuleu", "is_capital": false, "latitude": 14.6206, "longitude": -91.5961, "population": 26640}, {"name": "San Francisco", "country_iso2": "GT", "state": "Petén", "is_capital": false, "latitude": 16.7833, "longitude": -89.9361, "population": 16787}, {"name": "San Francisco El Alto", "country_iso2": "GT", "state": "Totonicapán", "is_capital": false, "latitude": 14.95, "longitude": -91.45, "population": 65521}, {"name": "San Francisco Zapotitlán", "country_iso2": "GT", "state": "Suchitepéquez", "is_capital": false, "latitude": 14.5833, "longitude": -91.5167, "population": 24763}, {"name": "San Francisco la Unión", "country_iso2": "GT", "state": "Quetzaltenango", "is_capital": false, "latitude": 14.9167, "longitude": -91.5333, "population": 9665}, {"name": "San Gaspar Ixchil", "country_iso2": "GT", "state": "Huehuetenango", "is_capital": false, "latitude": 15.3833, "longitude": -91.7167, "population": 10581}, {"name": "San Jacinto", "country_iso2": "GT", "state": "Chiquimula", "is_capital": false, "latitude": 14.6667, "longitude": -89.5, "population": 13381}, {"name": "San Jerónimo", "country_iso2": "GT", "state": "Baja Verapaz", "is_capital": false, "latitude": 15.0611, "longitude": -90.2403, "population": 28321}, {"name": "San Jorge", "country_iso2": "GT", "state": "Zacapa", "is_capital": false, "latitude": 14.9333, "longitude": -89.6, "population": 13525}, {"name": "San José Acatempa", "country_iso2": "GT", "state": "Jutiapa", "is_capital": false, "latitude": 14.2667, "longitude": -90.1333, "population": 13938}, {"name": "San José El Ídolo", "country_iso2": "GT", "state": "Suchitepéquez", "is_capital": false, "latitude": 14.45, "longitude": -91.4167, "population": 12017}, {"name": "San José La Arada", "country_iso2": "GT", "state": "Chiquimula", "is_capital": false, "latitude": 14.7167, "longitude": -89.5833, "population": 9249}, {"name": "San José Ojetenam", "country_iso2": "GT", "state": "San Marcos", "is_capital": false, "latitude": 15.2167, "longitude": -91.9667, "population": 22768}, {"name": "San José Pinula", "country_iso2": "GT", "state": "Guatemala", "is_capital": false, "latitude": 14.55, "longitude": -90.4167, "population": 89639}, {"name": "San José Poaquil", "country_iso2": "GT", "state": "Chimaltenango", "is_capital": false, "latitude": 14.8167, "longitude": -90.9, "population": 33932}, {"name": "San Juan Atitán", "country_iso2": "GT", "state": "Huehuetenango", "is_capital": false, "latitude": 15.4333, "longitude": -91.6333, "population": 26031}, {"name": "San Juan Bautista", "country_iso2": "GT", "state": "Suchitepéquez", "is_capital": false, "latitude": 14.4167, "longitude": -91.1833, "population": 9404}, {"name": "San Juan Chamelco", "country_iso2": "GT", "state": "Alta Verapaz", "is_capital": false, "latitude": 15.4257, "longitude": -90.3263, "population": 61634}, {"name": "San Juan Cotzal", "country_iso2": "GT", "state": "Quiché", "is_capital": false, "latitude": 15.4353, "longitude": -91.0356, "population": 36298}, {"name": "San Juan Ermita", "country_iso2": "GT", "state": "Chiquimula", "is_capital": false, "latitude": 14.7667, "longitude": -89.4333, "population": 18751}, {"name": "San Juan Ixcoy", "country_iso2": "GT", "state": "Huehuetenango", "is_capital": false, "latitude": 15.6, "longitude": -91.45, "population": 31081}, {"name": "San Juan La Laguna", "country_iso2": "GT", "state": "Sololá", "is_capital": false, "latitude": 14.7, "longitude": -91.2833, "population": 13400}, {"name": "San Juan Sacatepéquez", "country_iso2": "GT", "state": "Guatemala", "is_capital": false, "latitude": 14.7189, "longitude": -90.6442, "population": 284798}, {"name": "San Juan Tecuaco", "country_iso2": "GT", "state": "Santa Rosa", "is_capital": false, "latitude": 14.0836, "longitude": -90.2664, "population": 12825}, {"name": "San Lorenzo", "country_iso2": "GT", "state": "San Marcos", "is_capital": false, "latitude": 15.0211, "longitude": -91.7378, "population": 14085}, {"name": "San Lorenzo", "country_iso2": "GT", "state": "Suchitepéquez", "is_capital": false, "latitude": 14.4833, "longitude": -91.5167, "population": 13930}, {"name": "San Lucas Sacatepéquez", "country_iso2": "GT", "state": "Sacatepéquez", "is_capital": false, "latitude": 14.6167, "longitude": -90.65, "population": 28819}, {"name": "San Lucas Tolimán", "country_iso2": "GT", "state": "Sololá", "is_capital": false, "latitude": 14.6333, "longitude": -91.1333, "population": 31805}, {"name": "San Luis", "country_iso2": "GT", "state": "Petén", "is_capital": false, "latitude": 16.1989, "longitude": -89.4403, "population": 77395}, {"name": "San Luis Jilotepeque", "country_iso2": "GT", "state": "Jalapa", "is_capital": false, "latitude": 14.65, "longitude": -89.7333, "population": 26874}, {"name": "San Manuel Chaparrón", "country_iso2": "GT", "state": "Jalapa", "is_capital": false, "latitude": 14.5167, "longitude": -89.7667, "population": 9126}, {"name": "San Marcos", "country_iso2": "GT", "state": "San Marcos", "is_capital": true, "latitude": 14.9653, "longitude": -91.7958, "population": 49115}, {"name": "San Martín Jilotepeque", "country_iso2": "GT", "state": "Chimaltenango", "is_capital": false, "latitude": 14.7833, "longitude": -90.8, "population": 94901}, {"name": "San Martín Sacatepéquez", "country_iso2": "GT", "state": "Quetzaltenango", "is_capital": false, "latitude": 14.8246, "longitude": -91.6425, "population": 33826}, {"name": "San Martín Zapotitlán", "country_iso2": "GT", "state": "Retalhuleu", "is_capital": false, "latitude": 14.6, "longitude": -91.6, "population": 13094}, {"name": "San Mateo", "country_iso2": "GT", "state": "Quetzaltenango", "is_capital": false, "latitude": 14.8667, "longitude": -91.5833, "population": 8946}, {"name": "San Mateo Ixtatán", "country_iso2": "GT", "state": "Huehuetenango", "is_capital": false, "latitude": 15.8333, "longitude": -91.4833, "population": 60203}, {"name": "San Miguel Acatán", "country_iso2": "GT", "state": "Huehuetenango", "is_capital": false, "latitude": 15.7, "longitude": -91.6167, "population": 36245}, {"name": "San Miguel Chicaj", "country_iso2": "GT", "state": "Baja Verapaz", "is_capital": false, "latitude": 15.1, "longitude": -90.4, "population": 36845}, {"name": "San Miguel Dueñas", "country_iso2": "GT", "state": "Sacatepéquez", "is_capital": false, "latitude": 14.5167, "longitude": -90.8, "population": 15562}, {"name": "San Miguel Ixtahuacán", "country_iso2": "GT", "state": "San Marcos", "is_capital": false, "latitude": 15.25, "longitude": -91.75, "population": 52452}, {"name": "San Miguel Panán", "country_iso2": "GT", "state": "Suchitepéquez", "is_capital": false, "latitude": 14.5333, "longitude": -91.3667, "population": 12475}, {"name": "San Miguel Sigüilá", "country_iso2": "GT", "state": "Quetzaltenango", "is_capital": false, "latitude": 14.9, "longitude": -91.6167, "population": 9869}, {"name": "San Pablo", "country_iso2": "GT", "state": "San Marcos", "is_capital": false, "latitude": 14.9333, "longitude": -92.0, "population": 52217}, {"name": "San Pablo Jocopilas", "country_iso2": "GT", "state": "Suchitepéquez", "is_capital": false, "latitude": 14.5833, "longitude": -91.45, "population": 22490}, {"name": "San Pedro Ayampuc", "country_iso2": "GT", "state": "Guatemala", "is_capital": false, "latitude": 14.7833, "longitude": -90.45, "population": 67946}, {"name": "San Pedro Carchá", "country_iso2": "GT", "state": "Alta Verapaz", "is_capital": false, "latitude": 15.4667, "longitude": -90.3, "population": 255006}, {"name": "San Pedro La Laguna", "country_iso2": "GT", "state": "Sololá", "is_capital": false, "latitude": 14.694, "longitude": -91.272, "population": 11828}, {"name": "San Pedro Necta", "country_iso2": "GT", "state": "Huehuetenango", "is_capital": false, "latitude": 15.5, "longitude": -91.7667, "population": 41562}, {"name": "San Pedro Pinula", "country_iso2": "GT", "state": "Jalapa", "is_capital": false, "latitude": 14.6667, "longitude": -89.85, "population": 78244}, {"name": "San Pedro Sacatepéquez", "country_iso2": "GT", "state": "San Marcos", "is_capital": false, "latitude": 14.9667, "longitude": -91.7667, "population": 85671}, {"name": "San Pedro Sacatepéquez", "country_iso2": "GT", "state": "Guatemala", "is_capital": false, "latitude": 14.6833, "longitude": -90.6333, "population": 56545}, {"name": "San Pédro Jocopilas", "country_iso2": "GT", "state": "Quiché", "is_capital": false, "latitude": 15.0953, "longitude": -91.1508, "population": 37990}, {"name": "San Rafael La Independencia", "country_iso2": "GT", "state": "Huehuetenango", "is_capital": false, "latitude": 15.7167, "longitude": -91.5333, "population": 18733}, {"name": "San Rafael Las Flores", "country_iso2": "GT", "state": "Santa Rosa", "is_capital": false, "latitude": 14.4814, "longitude": -90.1733, "population": 13850}, {"name": "San Rafael Petzal", "country_iso2": "GT", "state": "Huehuetenango", "is_capital": false, "latitude": 15.4167, "longitude": -91.6667, "population": 13786}, {"name": "San Rafael Pie de la Cuesta", "country_iso2": "GT", "state": "San Marcos", "is_capital": false, "latitude": 14.9333, "longitude": -91.9167, "population": 18352}, {"name": "San Raimundo", "country_iso2": "GT", "state": "Guatemala", "is_capital": false, "latitude": 14.7647, "longitude": -90.5956, "population": 38891}, {"name": "San Sebastián", "country_iso2": "GT", "state": "Retalhuleu", "is_capital": false, "latitude": 14.5667, "longitude": -91.65, "population": 30724}, {"name": "San Sebastián Coatán", "country_iso2": "GT", "state": "Huehuetenango", "is_capital": false, "latitude": 15.7333, "longitude": -91.5667, "population": 25935}, {"name": "San Sebastián Huehuetenango", "country_iso2": "GT", "state": "Huehuetenango", "is_capital": false, "latitude": 15.3833, "longitude": -91.5833, "population": 43261}, {"name": "San Vicente Pacaya", "country_iso2": "GT", "state": "Escuintla", "is_capital": false, "latitude": 14.4161, "longitude": -90.6392, "population": 18417}, {"name": "Sanarate", "country_iso2": "GT", "state": "El Progreso", "is_capital": false, "latitude": 14.795, "longitude": -90.1922, "population": 42422}, {"name": "Sansare", "country_iso2": "GT", "state": "El Progreso", "is_capital": false, "latitude": 14.75, "longitude": -90.1167, "population": 13674}, {"name": "Santa Ana", "country_iso2": "GT", "state": "Petén", "is_capital": false, "latitude": 16.8069, "longitude": -89.8272, "population": 24380}, {"name": "Santa Ana Huista", "country_iso2": "GT", "state": "Huehuetenango", "is_capital": false, "latitude": 15.6833, "longitude": -91.8167, "population": 10687}, {"name": "Santa Apolonia", "country_iso2": "GT", "state": "Chimaltenango", "is_capital": false, "latitude": 14.7833, "longitude": -90.9667, "population": 23751}, {"name": "Santa Bárbara", "country_iso2": "GT", "state": "Huehuetenango", "is_capital": false, "latitude": 15.3167, "longitude": -91.6167, "population": 44809}, {"name": "Santa Bárbara", "country_iso2": "GT", "state": "Suchitepéquez", "is_capital": false, "latitude": 14.4333, "longitude": -91.2333, "population": 27708}, {"name": "Santa Catarina Ixtahuacán", "country_iso2": "GT", "state": "Sololá", "is_capital": false, "latitude": 14.8, "longitude": -91.3667, "population": 61274}, {"name": "Santa Catarina Mita", "country_iso2": "GT", "state": "Jutiapa", "is_capital": false, "latitude": 14.45, "longitude": -89.75, "population": 31709}, {"name": "Santa Catarina Pinula", "country_iso2": "GT", "state": "Guatemala", "is_capital": false, "latitude": 14.5667, "longitude": -90.5, "population": 87362}, {"name": "Santa Clara La Laguna", "country_iso2": "GT", "state": "Sololá", "is_capital": false, "latitude": 14.7167, "longitude": -91.3, "population": 10390}, {"name": "Santa Cruz Balanyá", "country_iso2": "GT", "state": "Chimaltenango", "is_capital": false, "latitude": 14.6833, "longitude": -90.9167, "population": 10981}, {"name": "Santa Cruz Muluá", "country_iso2": "GT", "state": "Retalhuleu", "is_capital": false, "latitude": 14.5833, "longitude": -91.6167, "population": 16138}, {"name": "Santa Cruz Naranjo", "country_iso2": "GT", "state": "Santa Rosa", "is_capital": false, "latitude": 14.3858, "longitude": -90.3708, "population": 17875}, {"name": "Santa Cruz Verapaz", "country_iso2": "GT", "state": "Alta Verapaz", "is_capital": false, "latitude": 15.3667, "longitude": -90.4333, "population": 35878}, {"name": "Santa Cruz del Quiché", "country_iso2": "GT", "state": "Quiché", "is_capital": true, "latitude": 15.03, "longitude": -91.15, "population": 99479}, {"name": "Santa Eulalia", "country_iso2": "GT", "state": "Huehuetenango", "is_capital": false, "latitude": 15.7333, "longitude": -91.4586, "population": 51910}, {"name": "Santa Lucia La Reforma", "country_iso2": "GT", "state": "Totonicapán", "is_capital": false, "latitude": 15.1333, "longitude": -91.2333, "population": 25668}, {"name": "Santa Lucía Cotzumalguapa", "country_iso2": "GT", "state": "Escuintla", "is_capital": false, "latitude": 14.35, "longitude": -91.0167, "population": 127683}, {"name": "Santa Lucía Milpas Altas", "country_iso2": "GT", "state": "Sacatepéquez", "is_capital": false, "latitude": 14.5833, "longitude": -90.6833, "population": 17422}, {"name": "Santa Lucía Utatlán", "country_iso2": "GT", "state": "Sololá", "is_capital": false, "latitude": 14.7667, "longitude": -91.2667, "population": 21790}, {"name": "Santa María Chiquimula", "country_iso2": "GT", "state": "Totonicapán", "is_capital": false, "latitude": 15.0292, "longitude": -91.3294, "population": 58918}, {"name": "Santa María Ixhuatán", "country_iso2": "GT", "state": "Santa Rosa", "is_capital": false, "latitude": 14.1833, "longitude": -90.2667, "population": 26721}, {"name": "Santa María La Pila", "country_iso2": "GT", "state": "Alta Verapaz", "is_capital": false, "latitude": 15.6056, "longitude": -89.8125, "population": 70321}, {"name": "Santa María de Jesús", "country_iso2": "GT", "state": "Sacatepéquez", "is_capital": false, "latitude": 14.4933, "longitude": -90.7094, "population": 26769}, {"name": "Santa Rosa de Lima", "country_iso2": "GT", "state": "Santa Rosa", "is_capital": false, "latitude": 14.3833, "longitude": -90.3, "population": 21415}, {"name": "Santiago Atitlán", "country_iso2": "GT", "state": "Sololá", "is_capital": false, "latitude": 14.6333, "longitude": -91.2333, "population": 44854}, {"name": "Santiago Chimaltenango", "country_iso2": "GT", "state": "Huehuetenango", "is_capital": false, "latitude": 15.4814, "longitude": -91.7261, "population": 10507}, {"name": "Santiago Sacatepéquez", "country_iso2": "GT", "state": "Sacatepéquez", "is_capital": false, "latitude": 14.6531, "longitude": -90.6525, "population": 36982}, {"name": "Santo Domingo Suchitepéquez", "country_iso2": "GT", "state": "Suchitepéquez", "is_capital": false, "latitude": 14.4667, "longitude": -91.4833, "population": 48825}, {"name": "Santo Domingo Xenacoj", "country_iso2": "GT", "state": "Sacatepéquez", "is_capital": false, "latitude": 14.6822, "longitude": -90.7067, "population": 14455}, {"name": "Santo Tomás La Unión", "country_iso2": "GT", "state": "Suchitepéquez", "is_capital": false, "latitude": 14.6333, "longitude": -91.3833, "population": 12800}, {"name": "Sayaxché", "country_iso2": "GT", "state": "Petén", "is_capital": false, "latitude": 16.5167, "longitude": -90.1833, "population": 99787}, {"name": "Senahú", "country_iso2": "GT", "state": "Alta Verapaz", "is_capital": false, "latitude": 15.4164, "longitude": -89.8203, "population": 98703}, {"name": "Sibilia", "country_iso2": "GT", "state": "Quetzaltenango", "is_capital": false, "latitude": 15.0, "longitude": -91.6167, "population": 9071}, {"name": "Sibinal", "country_iso2": "GT", "state": "San Marcos", "is_capital": false, "latitude": 15.1342, "longitude": -92.05, "population": 17069}, {"name": "Sipacapa", "country_iso2": "GT", "state": "San Marcos", "is_capital": false, "latitude": 15.2122, "longitude": -91.6347, "population": 27270}, {"name": "Sipacate", "country_iso2": "GT", "state": "Escuintla", "is_capital": false, "latitude": 13.9333, "longitude": -91.15, "population": 18212}, {"name": "Siquinalá", "country_iso2": "GT", "state": "Escuintla", "is_capital": false, "latitude": 14.3, "longitude": -90.9667, "population": 26317}, {"name": "Sololá", "country_iso2": "GT", "state": "Sololá", "is_capital": true, "latitude": 14.7667, "longitude": -91.1833, "population": 99934}, {"name": "Soloma", "country_iso2": "GT", "state": "Huehuetenango", "is_capital": false, "latitude": 15.7167, "longitude": -91.45, "population": 64772}, {"name": "Sumpango", "country_iso2": "GT", "state": "Sacatepéquez", "is_capital": false, "latitude": 14.6478, "longitude": -90.7347, "population": 46082}, {"name": "Tacaná", "country_iso2": "GT", "state": "San Marcos", "is_capital": false, "latitude": 15.2414, "longitude": -92.0683, "population": 82079}, {"name": "Tactic", "country_iso2": "GT", "state": "Alta Verapaz", "is_capital": false, "latitude": 15.3167, "longitude": -90.3511, "population": 41930}, {"name": "Tajumulco", "country_iso2": "GT", "state": "San Marcos", "is_capital": false, "latitude": 15.0833, "longitude": -91.8833, "population": 63405}, {"name": "Tamahú", "country_iso2": "GT", "state": "Alta Verapaz", "is_capital": false, "latitude": 15.3333, "longitude": -90.1667, "population": 24444}, {"name": "Taxisco", "country_iso2": "GT", "state": "Santa Rosa", "is_capital": false, "latitude": 14.0667, "longitude": -90.4667, "population": 36750}, {"name": "Tecpán Guatemala", "country_iso2": "GT", "state": "Chimaltenango", "is_capital": false, "latitude": 14.7667, "longitude": -91.0, "population": 112864}, {"name": "Tectitán", "country_iso2": "GT", "state": "Huehuetenango", "is_capital": false, "latitude": 15.3333, "longitude": -92.0333, "population": 11928}, {"name": "Teculután", "country_iso2": "GT", "state": "Zacapa", "is_capital": false, "latitude": 14.9831, "longitude": -89.5667, "population": 20272}, {"name": "Tejutla", "country_iso2": "GT", "state": "San Marcos", "is_capital": false, "latitude": 15.1225, "longitude": -91.8053, "population": 44416}, {"name": "Tiquisate", "country_iso2": "GT", "state": "Escuintla", "is_capital": false, "latitude": 14.2833, "longitude": -91.3667, "population": 63971}, {"name": "Todos Santos Cuchumatán", "country_iso2": "GT", "state": "Huehuetenango", "is_capital": false, "latitude": 15.5167, "longitude": -91.6167, "population": 39638}, {"name": "Totonicapán", "country_iso2": "GT", "state": "Totonicapán", "is_capital": true, "latitude": 14.9108, "longitude": -91.3606, "population": 118960}, {"name": "Tucurú", "country_iso2": "GT", "state": "Alta Verapaz", "is_capital": false, "latitude": 15.3, "longitude": -90.0667, "population": 50971}, {"name": "Uspantán", "country_iso2": "GT", "state": "Quiché", "is_capital": false, "latitude": 15.3458, "longitude": -90.8694, "population": 74244}, {"name": "Usumatlán", "country_iso2": "GT", "state": "Zacapa", "is_capital": false, "latitude": 14.9489, "longitude": -89.7767, "population": 13245}, {"name": "Villa Canales", "country_iso2": "GT", "state": "Guatemala", "is_capital": false, "latitude": 14.4833, "longitude": -90.5333, "population": 167779}, {"name": "Villa Nueva", "country_iso2": "GT", "state": "Guatemala", "is_capital": false, "latitude": 14.5269, "longitude": -90.5875, "population": 492480}, {"name": "Yepocapa", "country_iso2": "GT", "state": "Chimaltenango", "is_capital": false, "latitude": 14.5, "longitude": -90.95, "population": 42996}, {"name": "Yupiltepeque", "country_iso2": "GT", "state": "Jutiapa", "is_capital": false, "latitude": 14.2, "longitude": -89.7833, "population": 18262}, {"name": "Zacapa", "country_iso2": "GT", "state": "Zacapa", "is_capital": true, "latitude": 14.9667, "longitude": -89.5333, "population": 66423}, {"name": "Zacualpa", "country_iso2": "GT", "state": "Quiché", "is_capital": false, "latitude": 15.0272, "longitude": -90.8778, "population": 40003}, {"name": "Zapotitlán", "country_iso2": "GT", "state": "Jutiapa", "is_capital": false, "latitude": 14.1333, "longitude": -89.8333, "population": 10573}, {"name": "Zaragoza", "country_iso2": "GT", "state": "Chimaltenango", "is_capital": false, "latitude": 14.65, "longitude": -90.8833, "population": 29668}, {"name": "Zunil", "country_iso2": "GT", "state": "Quetzaltenango", "is_capital": false, "latitude": 14.7833, "longitude": -91.4833, "population": 15893}, {"name": "Zunilito", "country_iso2": "GT", "state": "Suchitepéquez", "is_capital": false, "latitude": 14.6167, "longitude": -91.5167, "population": 8888}]