[{"name": "Anna Regina", "country_iso2": "GY", "state": "Pomeroon-Supenaam", "is_capital": false, "latitude": 7.2633, "longitude": -58.4806, "population": 12448}, {"name": "Bartica", "country_iso2": "GY", "state": "Cuyuni-Mazaruni", "is_capital": true, "latitude": 6.4, "longitude": -58.6167, "population": 8532}, {"name": "Fort Wellington", "country_iso2": "GY", "state": "Mahaica-Berbice", "is_capital": true, "latitude": 6.4, "longitude": -57.6167, "population": 118}, {"name": "Georgetown", "country_iso2": "GY", "state": "Demerara-Mahaica", "is_capital": true, "latitude": 6.8011, "longitude": -58.155, "population": 235017}, {"name": "Ituni", "country_iso2": "GY", "state": "Upper Demerara-Berbice", "is_capital": false, "latitude": 5.5333, "longitude": -58.25, "population": 676}, {"name": "Lethem", "country_iso2": "GY", "state": "Upper Takutu-Upper Essequibo", "is_capital": true, "latitude": 3.3833, "longitude": -59.8, "population": 3000}, {"name": "Linden", "country_iso2": "GY", "state": "Upper Demerara-Berbice", "is_capital": true, "latitude": 6.0, "longitude": -58.3, "population": 28674}, {"name": "Mabaruma", "country_iso2": "GY", "state": "Barima-Waini", "is_capital": true, "latitude": 8.2, "longitude": -59.7833, "population": 1254}, {"name": "Mahdia", "country_iso2": "GY", "state": "Potaro-Siparuni", "is_capital": true, "latitude": 5.2825, "longitude": -59.15, "population": 2563}, {"name": "New Amsterdam", "country_iso2": "GY", "state": "East Berbice-Corentyne", "is_capital": true, "latitude": 6.25, "longitude": -57.5167, "population": 17329}, {"name": "Princetown", "country_iso2": "GY", "state": "East Berbice-Corentyne", "is_capital": false, "latitude": 5.9049, "longitude": -57.1391, "population": 12000}, {"name": "Vreed-en-Hoop", "country_iso2": "GY", "state": "Essequibo Islands-West Demerara", "is_capital": true, "latitude": 6.8076, "longitude": -58.1815, "population": 469}]