[{"name": "Central District", "country_iso2": "HK", "state": "", "is_capital": false, "latitude": 22.2867, "longitude": 114.155, "population": 235953}, {"name": "Cheung Chau", "country_iso2": "HK", "state": "", "is_capital": false, "latitude": 22.2106, "longitude": 114.0289, "population": 19769}, {"name": "Choi Hung", "country_iso2": "HK", "state": "", "is_capital": false, "latitude": 22.335, "longitude": 114.2067, "population": 18435}, {"name": "Hong Kong", "country_iso2": "HK", "state": "", "is_capital": true, "latitude": 22.3, "longitude": 114.2, "population": 7450000}, {"name": "Kennedy Town", "country_iso2": "HK", "state": "", "is_capital": false, "latitude": 22.28, "longitude": 114.125, "population": 54000}, {"name": "Kowloon", "country_iso2": "HK", "state": "", "is_capital": false, "latitude": 22.3167, "longitude": 114.1833, "population": 2108419}, {"name": "Kowloon City", "country_iso2": "HK", "state": "", "is_capital": false, "latitude": 22.3282, "longitude": 114.1916, "population": 418732}, {"name": "Kwai Chung", "country_iso2": "HK", "state": "", "is_capital": false, "latitude": 22.3674, "longitude": 114.1273, "population": 38674}, {"name": "Lam Tin", "country_iso2": "HK", "state": "", "is_capital": false, "latitude": 22.3094, "longitude": 114.2361, "population": 131000}, {"name": "Pak Tin Pa", "country_iso2": "HK", "state": "", "is_capital": false, "latitude": 22.3364, "longitude": 114.1667, "population": 21902}, {"name": "Sai Kung Tuk", "country_iso2": "HK", "state": "", "is_capital": false, "latitude": 22.3814, "longitude": 114.2733, "population": 11927}, {"name": "Sai Wan Ho", "country_iso2": "HK", "state": "", "is_capital": false, "latitude": 22.2877, "longitude": 114.1365, "population": 12985}, {"name": "San Tung Chung Hang", "country_iso2": "HK", "state": "", "is_capital": false, "latitude": 22.2869, "longitude": 113.9436, "population": 116022}, {"name": "Sha Kok Mei", "country_iso2": "HK", "state": "", "is_capital": false, "latitude": 22.3784, "longitude": 114.1941, "population": 14522}, {"name": "Sha Tin", "country_iso2": "HK", "state": "", "is_capital": false, "latitude": 22.3802, "longitude": 114.1898, "population": 640000}, {"name": "Sham Shui Po", "country_iso2": "HK", "state": "", "is_capital": false, "latitude": 22.3307, "longitude": 114.1622, "population": 405869}, {"name": "Shek Tong Tsui", "country_iso2": "HK", "state": "", "is_capital": false, "latitude": 22.2871, "longitude": 114.1357, "population": 17170}, {"name": "Shek Wai Kok", "country_iso2": "HK", "state": "", "is_capital": false, "latitude": 22.3753, "longitude": 114.1237, "population": 16605}, {"name": "Tin Shui Wai", "country_iso2": "HK", "state": "", "is_capital": false, "latitude": 22.46, "longitude": 114.002, "population": 286232}, {"name": "Tsing Yi Town", "country_iso2": "HK", "state": "", "is_capital": false, "latitude": 22.3456, "longitude": 114.1, "population": 191500}, {"name": "Tung Tau Tsuen", "country_iso2": "HK", "state": "", "is_capital": false, "latitude": 22.3334, "longitude": 114.1924, "population": 15562}, {"name": "Wan Tau Tong", "country_iso2": "HK", "state": "", "is_capital": false, "latitude": 22.4423, "longitude": 114.167, "population": 10860}, {"name": "Wang Tau Hom", "country_iso2": "HK", "state": "", "is_capital": false, "latitude": 22.3408, "longitude": 114.1871, "population": 17116}]