[{"name": "Acul du Nord", "country_iso2": "HT", "state": "Nord", "is_capital": false, "latitude": 19.6807, "longitude": -72.3198, "population": 55908}, {"name": "Anse Rouge", "country_iso2": "HT", "state": "Artibonite", "is_capital": false, "latitude": 19.6333, "longitude": -73.05, "population": 43395}, {"name": "Anse d’Hainault", "country_iso2": "HT", "state": "Grand’Anse", "is_capital": false, "latitude": 18.4853, "longitude": -74.4514, "population": 36401}, {"name": "Anse à Galets", "country_iso2": "HT", "state": "Ouest", "is_capital": false, "latitude": 18.8345, "longitude": -72.8664, "population": 62559}, {"name": "Anse à Pitre", "country_iso2": "HT", "state": "Sud-Est", "is_capital": false, "latitude": 18.0431, "longitude": -71.7583, "population": 30146}, {"name": "Anse-à-Foleur", "country_iso2": "HT", "state": "Nord-Ouest", "is_capital": false, "latitude": 19.8926, "longitude": -72.6201, "population": 30217}, {"name": "Anse-à-Veau", "country_iso2": "HT", "state": "Nippes", "is_capital": false, "latitude": 18.5037, "longitude": -73.344, "population": 34613}, {"name": "Aquin", "country_iso2": "HT", "state": "Sud", "is_capital": false, "latitude": 18.2797, "longitude": -73.3943, "population": 104216}, {"name": "Arcahaie", "country_iso2": "HT", "state": "Ouest", "is_capital": false, "latitude": 18.7702, "longitude": -72.5123, "population": 130306}, {"name": "Arnaud", "country_iso2": "HT", "state": "Nippes", "is_capital": false, "latitude": 18.4481, "longitude": -73.387, "population": 20718}, {"name": "Arniquet", "country_iso2": "HT", "state": "Sud", "is_capital": false, "latitude": 18.1463, "longitude": -73.875, "population": 29180}, {"name": "Bahon", "country_iso2": "HT", "state": "Nord", "is_capital": false, "latitude": 19.4696, "longitude": -72.1147, "population": 17417}, {"name": "Baie de Henne", "country_iso2": "HT", "state": "Nord-Ouest", "is_capital": false, "latitude": 19.6667, "longitude": -73.2, "population": 17277}, {"name": "Bainet", "country_iso2": "HT", "state": "Sud-Est", "is_capital": false, "latitude": 18.184, "longitude": -72.7523, "population": 62300}, {"name": "Baradères", "country_iso2": "HT", "state": "Nippes", "is_capital": false, "latitude": 18.4826, "longitude": -73.6388, "population": 31689}, {"name": "Bas Limbé", "country_iso2": "HT", "state": "Nord", "is_capital": false, "latitude": 19.7684, "longitude": -72.3847, "population": 50456}, {"name": "Bassin Bleu", "country_iso2": "HT", "state": "Nord-Ouest", "is_capital": false, "latitude": 19.7833, "longitude": -72.8, "population": 33926}, {"name": "Beaumont", "country_iso2": "HT", "state": "Grand’Anse", "is_capital": false, "latitude": 18.4787, "longitude": -73.9564, "population": 12486}, {"name": "Belladère", "country_iso2": "HT", "state": "Centre", "is_capital": false, "latitude": 18.85, "longitude": -71.7833, "population": 86612}, {"name": "Belle-Anse", "country_iso2": "HT", "state": "Sud-Est", "is_capital": false, "latitude": 18.2377, "longitude": -72.0664, "population": 51707}, {"name": "Bombardopolis", "country_iso2": "HT", "state": "Nord-Ouest", "is_capital": false, "latitude": 19.7, "longitude": -73.3333, "population": 36028}, {"name": "Borgne", "country_iso2": "HT", "state": "Nord", "is_capital": false, "latitude": 19.8451, "longitude": -72.5235, "population": 46886}, {"name": "Boucan Carré", "country_iso2": "HT", "state": "Centre", "is_capital": false, "latitude": 18.9667, "longitude": -72.2, "population": 48700}, {"name": "Cabaret", "country_iso2": "HT", "state": "Ouest", "is_capital": false, "latitude": 18.7358, "longitude": -72.4193, "population": 62063}, {"name": "Camp Perrin", "country_iso2": "HT", "state": "Sud", "is_capital": false, "latitude": 18.3265, "longitude": -73.8673, "population": 46000}, {"name": "Cap-Haïtien", "country_iso2": "HT", "state": "Nord", "is_capital": true, "latitude": 19.75, "longitude": -72.2, "population": 155505}, {"name": "Capotille", "country_iso2": "HT", "state": "Nord-Est", "is_capital": false, "latitude": 19.448, "longitude": -71.6929, "population": 15086}, {"name": "Carice", "country_iso2": "HT", "state": "Nord-Est", "is_capital": false, "latitude": 19.3779, "longitude": -71.8303, "population": 10180}, {"name": "Carrefour", "country_iso2": "HT", "state": "Ouest", "is_capital": false, "latitude": 18.5333, "longitude": -72.4, "population": 511345}, {"name": "Casale", "country_iso2": "HT", "state": "Ouest", "is_capital": false, "latitude": 18.7999, "longitude": -72.3828, "population": 43943}, {"name": "Cavaillon", "country_iso2": "HT", "state": "Sud", "is_capital": false, "latitude": 18.2999, "longitude": -73.6546, "population": 46037}, {"name": "Cerca Carvajal", "country_iso2": "HT", "state": "Centre", "is_capital": false, "latitude": 19.2696, "longitude": -71.9386, "population": 17571}, {"name": "Cerca la Source", "country_iso2": "HT", "state": "Centre", "is_capital": false, "latitude": 19.167, "longitude": -71.7901, "population": 51410}, {"name": "Chambellan", "country_iso2": "HT", "state": "Grand’Anse", "is_capital": false, "latitude": 18.5504, "longitude": -74.3132, "population": 16883}, {"name": "Chansolme", "country_iso2": "HT", "state": "Nord-Ouest", "is_capital": false, "latitude": 19.8833, "longitude": -72.8333, "population": 9561}, {"name": "Chantal", "country_iso2": "HT", "state": "Sud", "is_capital": false, "latitude": 18.2017, "longitude": -73.8896, "population": 31030}, {"name": "Chapelle", "country_iso2": "HT", "state": "Artibonite", "is_capital": false, "latitude": 19.4167, "longitude": -72.55, "population": 18092}, {"name": "Chardonnières", "country_iso2": "HT", "state": "Sud", "is_capital": false, "latitude": 18.2742, "longitude": -74.1659, "population": 25240}, {"name": "Corail", "country_iso2": "HT", "state": "Grand’Anse", "is_capital": false, "latitude": 18.5677, "longitude": -73.8894, "population": 22021}, {"name": "Cornillon", "country_iso2": "HT", "state": "Ouest", "is_capital": false, "latitude": 18.6755, "longitude": -71.9527, "population": 54254}, {"name": "Croix-des-Bouquets", "country_iso2": "HT", "state": "Ouest", "is_capital": false, "latitude": 18.5761, "longitude": -72.2269, "population": 284812}, {"name": "Côtes de Fer", "country_iso2": "HT", "state": "Sud-Est", "is_capital": false, "latitude": 18.1887, "longitude": -73.0029, "population": 33577}, {"name": "Dame-Marie", "country_iso2": "HT", "state": "Grand’Anse", "is_capital": false, "latitude": 18.5615, "longitude": -74.4205, "population": 27127}, {"name": "Delmas", "country_iso2": "HT", "state": "Ouest", "is_capital": false, "latitude": 18.55, "longitude": -72.3, "population": 284079}, {"name": "Dessalines", "country_iso2": "HT", "state": "Artibonite", "is_capital": false, "latitude": 19.2618, "longitude": -72.5161, "population": 127529}, {"name": "Dondon", "country_iso2": "HT", "state": "Nord", "is_capital": false, "latitude": 19.5273, "longitude": -72.2434, "population": 25846}, {"name": "Ennery", "country_iso2": "HT", "state": "Artibonite", "is_capital": false, "latitude": 19.4834, "longitude": -72.4854, "population": 31285}, {"name": "Ferrier", "country_iso2": "HT", "state": "Nord-Est", "is_capital": false, "latitude": 19.6155, "longitude": -71.7779, "population": 14642}, {"name": "Fond des Blancs", "country_iso2": "HT", "state": "Sud", "is_capital": false, "latitude": 18.2778, "longitude": -73.1273, "population": 19010}, {"name": "Fonds Verrettes", "country_iso2": "HT", "state": "Ouest", "is_capital": false, "latitude": 18.3957, "longitude": -71.8563, "population": 40224}, {"name": "Fort Liberté", "country_iso2": "HT", "state": "Nord-Est", "is_capital": true, "latitude": 19.6656, "longitude": -71.8448, "population": 34434}, {"name": "Ganthier", "country_iso2": "HT", "state": "Ouest", "is_capital": false, "latitude": 18.5316, "longitude": -72.0633, "population": 71261}, {"name": "Gonaïves", "country_iso2": "HT", "state": "Artibonite", "is_capital": true, "latitude": 19.4456, "longitude": -72.6883, "population": 356324}, {"name": "Grand Gosier", "country_iso2": "HT", "state": "Sud-Est", "is_capital": false, "latitude": 18.1854, "longitude": -71.9182, "population": 10852}, {"name": "Grande Saline", "country_iso2": "HT", "state": "Artibonite", "is_capital": false, "latitude": 19.25, "longitude": -72.7833, "population": 23236}, {"name": "Gressier", "country_iso2": "HT", "state": "Ouest", "is_capital": false, "latitude": 18.5409, "longitude": -72.5268, "population": 25947}, {"name": "Hinche", "country_iso2": "HT", "state": "Centre", "is_capital": true, "latitude": 19.143, "longitude": -72.004, "population": 102745}, {"name": "Jacmel", "country_iso2": "HT", "state": "Sud-Est", "is_capital": true, "latitude": 18.235, "longitude": -72.537, "population": 137966}, {"name": "Jean-Rabel", "country_iso2": "HT", "state": "Nord-Ouest", "is_capital": false, "latitude": 19.85, "longitude": -73.2, "population": 148416}, {"name": "Jérémie", "country_iso2": "HT", "state": "Grand’Anse", "is_capital": true, "latitude": 18.6339, "longitude": -74.1184, "population": 30917}, {"name": "La Pointe", "country_iso2": "HT", "state": "Nord-Ouest", "is_capital": false, "latitude": 19.95, "longitude": -72.7833, "population": 9930}, {"name": "La Source", "country_iso2": "HT", "state": "Sud", "is_capital": false, "latitude": 18.0714, "longitude": -73.9006, "population": 29180}, {"name": "La Vallée de Jacmel", "country_iso2": "HT", "state": "Sud-Est", "is_capital": false, "latitude": 18.2694, "longitude": -72.667, "population": 36188}, {"name": "Laferrière", "country_iso2": "HT", "state": "Grand’Anse", "is_capital": false, "latitude": 18.5712, "longitude": -74.3309, "population": 16883}, {"name": "Les Abricots", "country_iso2": "HT", "state": "Grand’Anse", "is_capital": false, "latitude": 18.649, "longitude": -74.3079, "population": 37675}, {"name": "Les Anglais", "country_iso2": "HT", "state": "Sud", "is_capital": false, "latitude": 18.3058, "longitude": -74.2192, "population": 27182}, {"name": "Les Cayes", "country_iso2": "HT", "state": "Sud", "is_capital": true, "latitude": 18.2, "longitude": -73.75, "population": 86780}, {"name": "Les Côteaux", "country_iso2": "HT", "state": "Sud", "is_capital": false, "latitude": 18.206, "longitude": -74.0401, "population": 19372}, {"name": "Les Irois", "country_iso2": "HT", "state": "Grand’Anse", "is_capital": false, "latitude": 18.4049, "longitude": -74.4528, "population": 24374}, {"name": "Les Palmes", "country_iso2": "HT", "state": "Sud-Est", "is_capital": false, "latitude": 18.3333, "longitude": -72.85, "population": 30000}, {"name": "Liancourt", "country_iso2": "HT", "state": "Artibonite", "is_capital": false, "latitude": 19.1247, "longitude": -72.5371, "population": 18574}, {"name": "Limbé", "country_iso2": "HT", "state": "Nord", "is_capital": false, "latitude": 19.706, "longitude": -72.4034, "population": 69256}, {"name": "Limonade", "country_iso2": "HT", "state": "Nord", "is_capital": false, "latitude": 19.6701, "longitude": -72.1243, "population": 69256}, {"name": "Léogâne", "country_iso2": "HT", "state": "Ouest", "is_capital": false, "latitude": 18.5108, "longitude": -72.6339, "population": 90000}, {"name": "L’Asile", "country_iso2": "HT", "state": "Nippes", "is_capital": false, "latitude": 18.384, "longitude": -73.4144, "population": 40000}, {"name": "Maniche", "country_iso2": "HT", "state": "Sud", "is_capital": false, "latitude": 18.345, "longitude": -73.7772, "population": 21766}, {"name": "Marigot", "country_iso2": "HT", "state": "Sud-Est", "is_capital": false, "latitude": 18.2317, "longitude": -72.3229, "population": 50734}, {"name": "Maïssade", "country_iso2": "HT", "state": "Centre", "is_capital": false, "latitude": 19.1761, "longitude": -72.1396, "population": 43138}, {"name": "Milot", "country_iso2": "HT", "state": "Nord", "is_capital": false, "latitude": 19.6084, "longitude": -72.2132, "population": 31992}, {"name": "Miragoâne", "country_iso2": "HT", "state": "Nippes", "is_capital": true, "latitude": 18.4411, "longitude": -73.0883, "population": 56864}, {"name": "Mombin Crochu", "country_iso2": "HT", "state": "Nord-Est", "is_capital": false, "latitude": 19.3688, "longitude": -71.9824, "population": 25113}, {"name": "Mont-Organisé", "country_iso2": "HT", "state": "Nord-Est", "is_capital": false, "latitude": 19.4082, "longitude": -71.7813, "population": 17189}, {"name": "Montrouis", "country_iso2": "HT", "state": "Ouest", "is_capital": false, "latitude": 18.9511, "longitude": -72.7057, "population": 18419}, {"name": "Moron", "country_iso2": "HT", "state": "Grand’Anse", "is_capital": false, "latitude": 18.5604, "longitude": -74.2578, "population": 24713}, {"name": "Perches", "country_iso2": "HT", "state": "Nord-Est", "is_capital": false, "latitude": 19.522, "longitude": -71.9232, "population": 11556}, {"name": "Pestel", "country_iso2": "HT", "state": "Grand’Anse", "is_capital": false, "latitude": 18.5411, "longitude": -73.7947, "population": 36138}, {"name": "Petit-Goâve", "country_iso2": "HT", "state": "Ouest", "is_capital": false, "latitude": 18.4314, "longitude": -72.8669, "population": 12000}, {"name": "Petit-Trou de Nippes", "country_iso2": "HT", "state": "Nippes", "is_capital": false, "latitude": 18.5269, "longitude": -73.5088, "population": 36143}, {"name": "Petite Rivière de Nippes", "country_iso2": "HT", "state": "Nippes", "is_capital": false, "latitude": 18.4764, "longitude": -73.2413, "population": 29815}, {"name": "Petite Rivière de l’Artibonite", "country_iso2": "HT", "state": "Artibonite", "is_capital": false, "latitude": 19.124, "longitude": -72.4817, "population": 170740}, {"name": "Pignon", "country_iso2": "HT", "state": "Nord", "is_capital": false, "latitude": 19.337, "longitude": -72.1171, "population": 29327}, {"name": "Pilate", "country_iso2": "HT", "state": "Nord", "is_capital": false, "latitude": 19.6675, "longitude": -72.5523, "population": 40445}, {"name": "Plaine du Nord", "country_iso2": "HT", "state": "Nord", "is_capital": false, "latitude": 19.6771, "longitude": -72.2697, "population": 28544}, {"name": "Plaisance", "country_iso2": "HT", "state": "Nord", "is_capital": false, "latitude": 19.598, "longitude": -72.4699, "population": 50367}, {"name": "Pointe à Raquettes", "country_iso2": "HT", "state": "Ouest", "is_capital": false, "latitude": 18.7847, "longitude": -73.0617, "population": 22886}, {"name": "Pont Sondé", "country_iso2": "HT", "state": "Artibonite", "is_capital": false, "latitude": 19.1484, "longitude": -72.6144, "population": 10000}, {"name": "Port-Margot", "country_iso2": "HT", "state": "Nord", "is_capital": false, "latitude": 19.7518, "longitude": -72.4301, "population": 36937}, {"name": "Port-au-Prince", "country_iso2": "HT", "state": "Ouest", "is_capital": true, "latitude": 18.5425, "longitude": -72.3386, "population": 987310}, {"name": "Port-de-Paix", "country_iso2": "HT", "state": "Nord-Ouest", "is_capital": true, "latitude": 19.95, "longitude": -72.8333, "population": 121220}, {"name": "Port-à-Piment", "country_iso2": "HT", "state": "Sud", "is_capital": false, "latitude": 18.2498, "longitude": -74.0972, "population": 17207}, {"name": "Pétion-Ville", "country_iso2": "HT", "state": "Ouest", "is_capital": false, "latitude": 18.5098, "longitude": -72.2856, "population": 359615}, {"name": "Quartier Morin", "country_iso2": "HT", "state": "Nord", "is_capital": false, "latitude": 19.697, "longitude": -72.1571, "population": 19241}, {"name": "Ranquitte", "country_iso2": "HT", "state": "Nord", "is_capital": false, "latitude": 19.4133, "longitude": -72.0808, "population": 18197}, {"name": "Roche-à-Bateau", "country_iso2": "HT", "state": "Sud", "is_capital": false, "latitude": 18.1818, "longitude": -74.0034, "population": 16727}, {"name": "Roseaux", "country_iso2": "HT", "state": "Grand’Anse", "is_capital": false, "latitude": 18.6006, "longitude": -74.0195, "population": 28811}, {"name": "Saint-Louis du Nord", "country_iso2": "HT", "state": "Nord-Ouest", "is_capital": false, "latitude": 19.934, "longitude": -72.7214, "population": 69592}, {"name": "Saint-Louis du Sud", "country_iso2": "HT", "state": "Sud", "is_capital": false, "latitude": 18.2624, "longitude": -73.546, "population": 59042}, {"name": "Saint-Marc", "country_iso2": "HT", "state": "Artibonite", "is_capital": false, "latitude": 19.1167, "longitude": -72.7, "population": 160181}, {"name": "Saint-Michel de l’Atalaye", "country_iso2": "HT", "state": "Artibonite", "is_capital": false, "latitude": 19.3708, "longitude": -72.3347, "population": 95216}, {"name": "Saintard", "country_iso2": "HT", "state": "Ouest", "is_capital": false, "latitude": 18.8253, "longitude": -72.5496, "population": 32906}, {"name": "Sainte-Suzanne", "country_iso2": "HT", "state": "Nord-Est", "is_capital": false, "latitude": 19.5834, "longitude": -72.0889, "population": 21617}, {"name": "Savanette", "country_iso2": "HT", "state": "Ouest", "is_capital": false, "latitude": 18.6833, "longitude": -72.05, "population": 29717}, {"name": "Tabarre", "country_iso2": "HT", "state": "Ouest", "is_capital": false, "latitude": 18.5833, "longitude": -72.2667, "population": 130283}, {"name": "Terre Neuve", "country_iso2": "HT", "state": "Artibonite", "is_capital": false, "latitude": 19.6, "longitude": -72.7833, "population": 31252}, {"name": "Terrier Rouge", "country_iso2": "HT", "state": "Nord-Est", "is_capital": false, "latitude": 19.6363, "longitude": -71.9548, "population": 21328}, {"name": "Thiotte", "country_iso2": "HT", "state": "Sud-Est", "is_capital": false, "latitude": 18.2438, "longitude": -71.8416, "population": 23041}, {"name": "Thomassique", "country_iso2": "HT", "state": "Centre", "is_capital": false, "latitude": 19.0821, "longitude": -71.8385, "population": 42557}, {"name": "Thomazeau", "country_iso2": "HT", "state": "Ouest", "is_capital": false, "latitude": 18.653, "longitude": -72.0939, "population": 52017}, {"name": "Tiburon", "country_iso2": "HT", "state": "Sud", "is_capital": false, "latitude": 18.3266, "longitude": -74.3953, "population": 21170}, {"name": "Torbeck", "country_iso2": "HT", "state": "Sud", "is_capital": false, "latitude": 18.1634, "longitude": -73.8095, "population": 69189}, {"name": "Trou du Nord", "country_iso2": "HT", "state": "Nord-Est", "is_capital": false, "latitude": 19.6167, "longitude": -72.0244, "population": 37405}, {"name": "Vallières", "country_iso2": "HT", "state": "Nord-Est", "is_capital": false, "latitude": 19.4355, "longitude": -71.9209, "population": 17470}, {"name": "Verrettes", "country_iso2": "HT", "state": "Artibonite", "is_capital": false, "latitude": 19.0505, "longitude": -72.4658, "population": 48724}, {"name": "Ville Bonheur", "country_iso2": "HT", "state": "Centre", "is_capital": false, "latitude": 18.816, "longitude": -72.2019, "population": 34885}]