[{"name": "Afula", "country_iso2": "IL", "state": "Northern", "is_capital": false, "latitude": 32.6064, "longitude": 35.2881, "population": 60000}, {"name": "Arad", "country_iso2": "IL", "state": "Southern", "is_capital": false, "latitude": 31.2603, "longitude": 35.2147, "population": 24436}, {"name": "Ashdod", "country_iso2": "IL", "state": "Southern", "is_capital": false, "latitude": 31.7978, "longitude": 34.6503, "population": 220174}, {"name": "Ashqelon", "country_iso2": "IL", "state": "Southern", "is_capital": false, "latitude": 31.6658, "longitude": 34.5664, "population": 134454}, {"name": "Atlit", "country_iso2": "IL", "state": "Haifa", "is_capital": false, "latitude": 32.6872, "longitude": 34.9383, "population": 10639}, {"name": "Bat Yam", "country_iso2": "IL", "state": "Tel Aviv", "is_capital": false, "latitude": 32.0231, "longitude": 34.7503, "population": 128800}, {"name": "Beersheba", "country_iso2": "IL", "state": "Southern", "is_capital": true, "latitude": 31.2522, "longitude": 34.7867, "population": 209000}, {"name": "Ben Zakkay", "country_iso2": "IL", "state": "Central", "is_capital": false, "latitude": 31.8833, "longitude": 34.7333, "population": 42314}, {"name": "Bené Beraq", "country_iso2": "IL", "state": "Tel Aviv", "is_capital": false, "latitude": 32.0807, "longitude": 34.8338, "population": 193774}, {"name": "Bet Shemesh", "country_iso2": "IL", "state": "Jerusalem", "is_capital": false, "latitude": 31.7514, "longitude": 34.9886, "population": 118700}, {"name": "Bet She’an", "country_iso2": "IL", "state": "Northern", "is_capital": false, "latitude": 32.5, "longitude": 35.5, "population": 18200}, {"name": "Be’er Ya‘aqov", "country_iso2": "IL", "state": "Central", "is_capital": false, "latitude": 31.9436, "longitude": 34.8392, "population": 29852}, {"name": "Dimona", "country_iso2": "IL", "state": "Southern", "is_capital": false, "latitude": 31.07, "longitude": 35.03, "population": 34135}, {"name": "Eilat", "country_iso2": "IL", "state": "Southern", "is_capital": false, "latitude": 29.55, "longitude": 34.95, "population": 51935}, {"name": "El‘ad", "country_iso2": "IL", "state": "Central", "is_capital": false, "latitude": 32.0523, "longitude": 34.9512, "population": 48763}, {"name": "Eṭ Ṭaiyiba", "country_iso2": "IL", "state": "Central", "is_capital": false, "latitude": 32.2667, "longitude": 35.0, "population": 43100}, {"name": "Eṭ Ṭīra", "country_iso2": "IL", "state": "Central", "is_capital": false, "latitude": 32.2328, "longitude": 34.9503, "population": 26200}, {"name": "Gan Yavne", "country_iso2": "IL", "state": "Central", "is_capital": false, "latitude": 31.7886, "longitude": 34.7053, "population": 22453}, {"name": "Gedera", "country_iso2": "IL", "state": "Central", "is_capital": false, "latitude": 31.8139, "longitude": 34.7783, "population": 26217}, {"name": "Givatayim", "country_iso2": "IL", "state": "Tel Aviv", "is_capital": false, "latitude": 32.0697, "longitude": 34.8117, "population": 59518}, {"name": "Giv‘at Shemu’él", "country_iso2": "IL", "state": "Central", "is_capital": false, "latitude": 32.0781, "longitude": 34.8489, "population": 25298}, {"name": "Hadera", "country_iso2": "IL", "state": "Haifa", "is_capital": false, "latitude": 32.45, "longitude": 34.9167, "population": 95700}, {"name": "Haifa", "country_iso2": "IL", "state": "Haifa", "is_capital": true, "latitude": 32.8192, "longitude": 34.9992, "population": 600000}, {"name": "Herẕliyya", "country_iso2": "IL", "state": "Tel Aviv", "is_capital": false, "latitude": 32.1556, "longitude": 34.8422, "population": 93989}, {"name": "Hod HaSharon", "country_iso2": "IL", "state": "Central", "is_capital": false, "latitude": 32.15, "longitude": 34.8833, "population": 56659}, {"name": "Holon", "country_iso2": "IL", "state": "Tel Aviv", "is_capital": false, "latitude": 32.0167, "longitude": 34.7667, "population": 194300}, {"name": "Jerusalem", "country_iso2": "IL", "state": "Jerusalem", "is_capital": true, "latitude": 31.7789, "longitude": 35.2256, "population": 936425}, {"name": "Jisr ez Zarqā", "country_iso2": "IL", "state": "Haifa", "is_capital": false, "latitude": 32.5381, "longitude": 34.9122, "population": 14930}, {"name": "Kafr Qāsim", "country_iso2": "IL", "state": "Central", "is_capital": false, "latitude": 32.1142, "longitude": 34.9772, "population": 21848}, {"name": "Karmiel", "country_iso2": "IL", "state": "Northern", "is_capital": false, "latitude": 32.9136, "longitude": 35.2961, "population": 45300}, {"name": "Kefar Sava", "country_iso2": "IL", "state": "Central", "is_capital": false, "latitude": 32.1858, "longitude": 34.9077, "population": 100800}, {"name": "Kefar Yona", "country_iso2": "IL", "state": "Central", "is_capital": false, "latitude": 32.3171, "longitude": 34.9358, "population": 28025}, {"name": "Lod", "country_iso2": "IL", "state": "Central", "is_capital": false, "latitude": 31.95, "longitude": 34.9, "population": 75700}, {"name": "Majdal Shams", "country_iso2": "IL", "state": "Northern", "is_capital": false, "latitude": 33.2667, "longitude": 35.7667, "population": 11405}, {"name": "Ma‘alot Tarshīḥā", "country_iso2": "IL", "state": "Northern", "is_capital": false, "latitude": 33.0167, "longitude": 35.2708, "population": 23550}, {"name": "Migdal Ha‘Emeq", "country_iso2": "IL", "state": "Northern", "is_capital": false, "latitude": 32.6714, "longitude": 35.2406, "population": 25600}, {"name": "Modi‘in Makkabbim Re‘ut", "country_iso2": "IL", "state": "Central", "is_capital": false, "latitude": 31.9339, "longitude": 34.9856, "population": 97097}, {"name": "Nahariyya", "country_iso2": "IL", "state": "Northern", "is_capital": false, "latitude": 33.0058, "longitude": 35.0989, "population": 60000}, {"name": "Nazareth", "country_iso2": "IL", "state": "Northern", "is_capital": true, "latitude": 32.7019, "longitude": 35.3033, "population": 83400}, {"name": "Nes Ẕiyyona", "country_iso2": "IL", "state": "Central", "is_capital": false, "latitude": 31.9333, "longitude": 34.8, "population": 50200}, {"name": "Nesher", "country_iso2": "IL", "state": "Haifa", "is_capital": false, "latitude": 32.7711, "longitude": 35.0394, "population": 23700}, {"name": "Netanya", "country_iso2": "IL", "state": "Central", "is_capital": false, "latitude": 32.3286, "longitude": 34.8567, "population": 217200}, {"name": "Netivot", "country_iso2": "IL", "state": "Southern", "is_capital": false, "latitude": 31.4167, "longitude": 34.5833, "population": 31314}, {"name": "Ofaqim", "country_iso2": "IL", "state": "Southern", "is_capital": false, "latitude": 31.2833, "longitude": 34.6167, "population": 29000}, {"name": "Or Yehuda", "country_iso2": "IL", "state": "Tel Aviv", "is_capital": false, "latitude": 32.0333, "longitude": 34.85, "population": 36706}, {"name": "Or ‘Aqiva", "country_iso2": "IL", "state": "Haifa", "is_capital": false, "latitude": 32.5, "longitude": 34.9167, "population": 17759}, {"name": "Pardés H̱anna Karkur", "country_iso2": "IL", "state": "Haifa", "is_capital": false, "latitude": 32.4711, "longitude": 34.9675, "population": 42100}, {"name": "Petaẖ Tiqwa", "country_iso2": "IL", "state": "Central", "is_capital": false, "latitude": 32.0833, "longitude": 34.8833, "population": 236169}, {"name": "Qalansuwa", "country_iso2": "IL", "state": "Central", "is_capital": false, "latitude": 32.285, "longitude": 34.9811, "population": 21451}, {"name": "Qiryat Ata", "country_iso2": "IL", "state": "Haifa", "is_capital": false, "latitude": 32.8, "longitude": 35.1, "population": 55464}, {"name": "Qiryat Bialik", "country_iso2": "IL", "state": "Haifa", "is_capital": false, "latitude": 32.8333, "longitude": 35.0833, "population": 39900}, {"name": "Qiryat Gat", "country_iso2": "IL", "state": "Southern", "is_capital": false, "latitude": 31.61, "longitude": 34.7642, "population": 65610}, {"name": "Qiryat Mal’akhi", "country_iso2": "IL", "state": "Southern", "is_capital": false, "latitude": 31.7333, "longitude": 34.75, "population": 23100}, {"name": "Qiryat Moẕqin", "country_iso2": "IL", "state": "Haifa", "is_capital": false, "latitude": 32.8333, "longitude": 35.0833, "population": 42000}, {"name": "Qiryat Ono", "country_iso2": "IL", "state": "Tel Aviv", "is_capital": false, "latitude": 32.0636, "longitude": 34.8553, "population": 41900}, {"name": "Qiryat Shemona", "country_iso2": "IL", "state": "Northern", "is_capital": false, "latitude": 33.2075, "longitude": 35.5697, "population": 23076}, {"name": "Qiryat Yam", "country_iso2": "IL", "state": "Haifa", "is_capital": false, "latitude": 32.8333, "longitude": 35.0667, "population": 39416}, {"name": "Rahat", "country_iso2": "IL", "state": "Southern", "is_capital": false, "latitude": 31.3925, "longitude": 34.7544, "population": 64462}, {"name": "Rama", "country_iso2": "IL", "state": "Northern", "is_capital": false, "latitude": 32.8511, "longitude": 35.3386, "population": 26641}, {"name": "Ramat Gan", "country_iso2": "IL", "state": "Tel Aviv", "is_capital": false, "latitude": 32.07, "longitude": 34.8235, "population": 159200}, {"name": "Ramat HaSharon", "country_iso2": "IL", "state": "Tel Aviv", "is_capital": false, "latitude": 32.1461, "longitude": 34.8394, "population": 46700}, {"name": "Ramla", "country_iso2": "IL", "state": "Central", "is_capital": true, "latitude": 31.9275, "longitude": 34.8625, "population": 75500}, {"name": "Ra‘ananna", "country_iso2": "IL", "state": "Central", "is_capital": false, "latitude": 32.1833, "longitude": 34.8667, "population": 74000}, {"name": "Reẖovot", "country_iso2": "IL", "state": "Central", "is_capital": false, "latitude": 31.8914, "longitude": 34.8078, "population": 132671}, {"name": "Rishon LeẔiyyon", "country_iso2": "IL", "state": "Central", "is_capital": false, "latitude": 31.95, "longitude": 34.8, "population": 249860}, {"name": "Rosh Ha‘Ayin", "country_iso2": "IL", "state": "Central", "is_capital": false, "latitude": 32.0833, "longitude": 34.95, "population": 56300}, {"name": "Sakhnīn", "country_iso2": "IL", "state": "Northern", "is_capital": false, "latitude": 32.8667, "longitude": 35.3, "population": 31100}, {"name": "Sederot", "country_iso2": "IL", "state": "Southern", "is_capital": false, "latitude": 31.525, "longitude": 34.5969, "population": 23090}, {"name": "Shefar‘am", "country_iso2": "IL", "state": "Northern", "is_capital": false, "latitude": 32.8056, "longitude": 35.1694, "population": 41600}, {"name": "Tamra", "country_iso2": "IL", "state": "Northern", "is_capital": false, "latitude": 32.8536, "longitude": 35.1978, "population": 34000}, {"name": "Tel Aviv-Yafo", "country_iso2": "IL", "state": "Tel Aviv", "is_capital": true, "latitude": 32.08, "longitude": 34.78, "population": 467875}, {"name": "Tiberias", "country_iso2": "IL", "state": "Northern", "is_capital": false, "latitude": 32.7944, "longitude": 35.5333, "population": 44200}, {"name": "Tirat Karmel", "country_iso2": "IL", "state": "Haifa", "is_capital": false, "latitude": 32.7667, "longitude": 34.9667, "population": 22200}, {"name": "Umm el Faḥm", "country_iso2": "IL", "state": "Haifa", "is_capital": false, "latitude": 32.5194, "longitude": 35.1536, "population": 55300}, {"name": "Yehud", "country_iso2": "IL", "state": "Central", "is_capital": false, "latitude": 32.0333, "longitude": 34.8833, "population": 29146}, {"name": "Yoqne‘am ‘Illit", "country_iso2": "IL", "state": "Northern", "is_capital": false, "latitude": 32.6594, "longitude": 35.11, "population": 24158}, {"name": "Ẕefat", "country_iso2": "IL", "state": "Northern", "is_capital": false, "latitude": 32.9658, "longitude": 35.4983, "population": 35700}, {"name": "‘Akko", "country_iso2": "IL", "state": "Northern", "is_capital": false, "latitude": 32.9278, "longitude": 35.0817, "population": 48900}]