[{"name": "Abarkūh", "country_iso2": "IR", "state": "Yazd", "is_capital": false, "latitude": 31.1256, "longitude": 53.2625, "population": 27524}, {"name": "Abhar", "country_iso2": "IR", "state": "Zanjān", "is_capital": false, "latitude": 36.1464, "longitude": 49.2225, "population": 99285}, {"name": "Abrandābād-e Shāhedīyeh", "country_iso2": "IR", "state": "Yazd", "is_capital": false, "latitude": 31.9383, "longitude": 54.2786, "population": 18309}, {"name": "Abrīsham", "country_iso2": "IR", "state": "Eşfahān", "is_capital": false, "latitude": 32.5675, "longitude": 51.5733, "population": 19406}, {"name": "Abūz̄ar-e Ghaffārī", "country_iso2": "IR", "state": "Khūzestān", "is_capital": false, "latitude": 32.1806, "longitude": 48.2778, "population": 9272}, {"name": "Ahar", "country_iso2": "IR", "state": "Āz̄arbāyjān-e Sharqī", "is_capital": false, "latitude": 38.4797, "longitude": 47.0669, "population": 100641}, {"name": "Ahram", "country_iso2": "IR", "state": "Būshehr", "is_capital": false, "latitude": 28.8828, "longitude": 51.2756, "population": 15198}, {"name": "Ahvāz", "country_iso2": "IR", "state": "Khūzestān", "is_capital": true, "latitude": 31.3047, "longitude": 48.6783, "population": 1325000}, {"name": "Aleshtar", "country_iso2": "IR", "state": "Lorestān", "is_capital": false, "latitude": 33.8653, "longitude": 48.2622, "population": 33558}, {"name": "Alvand", "country_iso2": "IR", "state": "Qazvīn", "is_capital": false, "latitude": 36.1867, "longitude": 50.0639, "population": 93836}, {"name": "Alīgūdarz", "country_iso2": "IR", "state": "Lorestān", "is_capital": false, "latitude": 33.4025, "longitude": 49.6903, "population": 78690}, {"name": "Amlash", "country_iso2": "IR", "state": "Gīlān", "is_capital": false, "latitude": 37.0944, "longitude": 50.1928, "population": 15047}, {"name": "Amīr Kolā", "country_iso2": "IR", "state": "Māzandarān", "is_capital": false, "latitude": 36.5967, "longitude": 52.6658, "population": 30478}, {"name": "Andīmeshk", "country_iso2": "IR", "state": "Khūzestān", "is_capital": false, "latitude": 32.4714, "longitude": 48.3489, "population": 240113}, {"name": "Anār", "country_iso2": "IR", "state": "Kermān", "is_capital": false, "latitude": 30.8656, "longitude": 55.2703, "population": 15532}, {"name": "Arakvāz-e Malekshāhī", "country_iso2": "IR", "state": "Īlām", "is_capital": false, "latitude": 33.3847, "longitude": 46.5997, "population": 11977}, {"name": "Ardabīl", "country_iso2": "IR", "state": "Ardabīl", "is_capital": true, "latitude": 38.2517, "longitude": 48.2975, "population": 529374}, {"name": "Ardakān", "country_iso2": "IR", "state": "Yazd", "is_capital": false, "latitude": 32.3094, "longitude": 54.0186, "population": 75271}, {"name": "Ardal", "country_iso2": "IR", "state": "Chahār Maḩāl va Bakhtīārī", "is_capital": false, "latitude": 31.9986, "longitude": 50.6622, "population": 10113}, {"name": "Ardestān", "country_iso2": "IR", "state": "Eşfahān", "is_capital": false, "latitude": 33.3731, "longitude": 52.3689, "population": 15744}, {"name": "Arsanjān", "country_iso2": "IR", "state": "Fārs", "is_capital": false, "latitude": 29.9142, "longitude": 53.3058, "population": 17642}, {"name": "Arvand Kenār", "country_iso2": "IR", "state": "Khūzestān", "is_capital": false, "latitude": 29.9789, "longitude": 48.5206, "population": 11173}, {"name": "Arvand Kenār", "country_iso2": "IR", "state": "Khūzestān", "is_capital": false, "latitude": 29.9786, "longitude": 48.5189, "population": 11173}, {"name": "Arāk", "country_iso2": "IR", "state": "Markazī", "is_capital": true, "latitude": 34.0914, "longitude": 49.6933, "population": 520944}, {"name": "Asadābād", "country_iso2": "IR", "state": "Hamadān", "is_capital": false, "latitude": 34.7825, "longitude": 48.1219, "population": 55703}, {"name": "Asfarvarīn", "country_iso2": "IR", "state": "Qazvīn", "is_capital": false, "latitude": 35.9331, "longitude": 49.7469, "population": 12371}, {"name": "Ashkezar", "country_iso2": "IR", "state": "Yazd", "is_capital": false, "latitude": 31.9997, "longitude": 54.2075, "population": 19123}, {"name": "Asālem", "country_iso2": "IR", "state": "Gīlān", "is_capital": false, "latitude": 37.7211, "longitude": 48.9583, "population": 10720}, {"name": "Azandarīān", "country_iso2": "IR", "state": "Hamadān", "is_capital": false, "latitude": 34.5036, "longitude": 48.6906, "population": 8685}, {"name": "Aznā", "country_iso2": "IR", "state": "Lorestān", "is_capital": false, "latitude": 33.4597, "longitude": 49.4547, "population": 47489}, {"name": "Bahābād", "country_iso2": "IR", "state": "Yazd", "is_capital": false, "latitude": 31.8706, "longitude": 56.0253, "population": 9232}, {"name": "Bahār", "country_iso2": "IR", "state": "Hamadān", "is_capital": false, "latitude": 34.9078, "longitude": 48.4394, "population": 673405}, {"name": "Bahārestān", "country_iso2": "IR", "state": "Eşfahān", "is_capital": false, "latitude": 32.4867, "longitude": 51.7808, "population": 79023}, {"name": "Bajestān", "country_iso2": "IR", "state": "Khorāsān-e Raẕavī", "is_capital": false, "latitude": 34.5178, "longitude": 58.1844, "population": 11741}, {"name": "Bam", "country_iso2": "IR", "state": "Kermān", "is_capital": false, "latitude": 29.0994, "longitude": 58.3436, "population": 127396}, {"name": "Bampūr", "country_iso2": "IR", "state": "Sīstān va Balūchestān", "is_capital": false, "latitude": 27.195, "longitude": 60.4547, "population": 12217}, {"name": "Banak", "country_iso2": "IR", "state": "Būshehr", "is_capital": false, "latitude": 27.8714, "longitude": 52.0272, "population": 8753}, {"name": "Bandar Emām", "country_iso2": "IR", "state": "Khūzestān", "is_capital": false, "latitude": 30.5058, "longitude": 49.0742, "population": 78353}, {"name": "Bandar ‘Abbās", "country_iso2": "IR", "state": "Hormozgān", "is_capital": true, "latitude": 27.1961, "longitude": 56.2878, "population": 526648}, {"name": "Bandar-e Anzalī", "country_iso2": "IR", "state": "Gīlān", "is_capital": false, "latitude": 37.4708, "longitude": 49.47, "population": 118564}, {"name": "Bandar-e Būshehr", "country_iso2": "IR", "state": "Būshehr", "is_capital": true, "latitude": 28.9264, "longitude": 50.8514, "population": 223504}, {"name": "Bandar-e Deylam", "country_iso2": "IR", "state": "Būshehr", "is_capital": false, "latitude": 30.055, "longitude": 50.1653, "population": 25730}, {"name": "Bandar-e Emām Khomeynī", "country_iso2": "IR", "state": "Khūzestān", "is_capital": false, "latitude": 30.5491, "longitude": 49.0586, "population": 78353}, {"name": "Bandar-e Gaz", "country_iso2": "IR", "state": "Golestān", "is_capital": false, "latitude": 36.7739, "longitude": 53.9481, "population": 20742}, {"name": "Bandar-e Genāveh", "country_iso2": "IR", "state": "Būshehr", "is_capital": false, "latitude": 29.5808, "longitude": 50.5172, "population": 73472}, {"name": "Bandar-e Khamīr", "country_iso2": "IR", "state": "Hormozgān", "is_capital": false, "latitude": 26.9533, "longitude": 55.5853, "population": 15320}, {"name": "Bandar-e Kong", "country_iso2": "IR", "state": "Hormozgān", "is_capital": false, "latitude": 26.5947, "longitude": 54.9381, "population": 19213}, {"name": "Bandar-e Lengeh", "country_iso2": "IR", "state": "Hormozgān", "is_capital": false, "latitude": 26.5594, "longitude": 54.885, "population": 30435}, {"name": "Bandar-e Māhshahr", "country_iso2": "IR", "state": "Khūzestān", "is_capital": false, "latitude": 30.5567, "longitude": 49.1897, "population": 162797}, {"name": "Bandar-e Torkaman", "country_iso2": "IR", "state": "Golestān", "is_capital": false, "latitude": 36.9014, "longitude": 54.0736, "population": 53970}, {"name": "Bandar-e ‘Asalūyeh", "country_iso2": "IR", "state": "Būshehr", "is_capital": false, "latitude": 27.4744, "longitude": 52.6114, "population": 13557}, {"name": "Banārūyeh", "country_iso2": "IR", "state": "Fārs", "is_capital": false, "latitude": 28.0864, "longitude": 54.0481, "population": 9077}, {"name": "Baravāt", "country_iso2": "IR", "state": "Kermān", "is_capital": false, "latitude": 29.0656, "longitude": 58.4039, "population": 22761}, {"name": "Bardaskan", "country_iso2": "IR", "state": "Khorāsān-e Raẕavī", "is_capital": false, "latitude": 35.2625, "longitude": 57.9703, "population": 28233}, {"name": "Bardsīr", "country_iso2": "IR", "state": "Kermān", "is_capital": false, "latitude": 29.9275, "longitude": 56.5764, "population": 25152}, {"name": "Bastak", "country_iso2": "IR", "state": "Hormozgān", "is_capital": false, "latitude": 27.1953, "longitude": 54.3678, "population": 9959}, {"name": "Bavānāt", "country_iso2": "IR", "state": "Fārs", "is_capital": false, "latitude": 30.4717, "longitude": 53.6261, "population": 9776}, {"name": "Behbahān", "country_iso2": "IR", "state": "Khūzestān", "is_capital": false, "latitude": 30.5942, "longitude": 50.2433, "population": 122604}, {"name": "Behshahr", "country_iso2": "IR", "state": "Māzandarān", "is_capital": false, "latitude": 36.6936, "longitude": 53.5531, "population": 94702}, {"name": "Ben", "country_iso2": "IR", "state": "Chahār Maḩāl va Bakhtīārī", "is_capital": false, "latitude": 32.5447, "longitude": 50.7475, "population": 12971}, {"name": "Bojnūrd", "country_iso2": "IR", "state": "Khorāsān-e Shomālī", "is_capital": true, "latitude": 37.4722, "longitude": 57.3289, "population": 228931}, {"name": "Boldājī", "country_iso2": "IR", "state": "Chahār Maḩāl va Bakhtīārī", "is_capital": false, "latitude": 31.9356, "longitude": 51.0544, "population": 11980}, {"name": "Bonāb", "country_iso2": "IR", "state": "Āz̄arbāyjān-e Sharqī", "is_capital": false, "latitude": 37.3383, "longitude": 46.0539, "population": 75332}, {"name": "Borvāyeh-ye Al Bū ‘Azīz", "country_iso2": "IR", "state": "Khūzestān", "is_capital": false, "latitude": 31.6283, "longitude": 48.6147, "population": 690000}, {"name": "Borāzjān", "country_iso2": "IR", "state": "Būshehr", "is_capital": false, "latitude": 29.2694, "longitude": 51.22, "population": 155567}, {"name": "Borūjen", "country_iso2": "IR", "state": "Chahār Maḩāl va Bakhtīārī", "is_capital": false, "latitude": 31.9719, "longitude": 51.2917, "population": 57071}, {"name": "Borūjerd", "country_iso2": "IR", "state": "Lorestān", "is_capital": false, "latitude": 33.9111, "longitude": 48.7522, "population": 234997}, {"name": "Boshrūyeh", "country_iso2": "IR", "state": "Khorāsān-e Jonūbī", "is_capital": false, "latitude": 33.8681, "longitude": 57.4286, "population": 16426}, {"name": "Bozmargī", "country_iso2": "IR", "state": "Khorāsān-e Raẕavī", "is_capital": false, "latitude": 36.5325, "longitude": 59.3636, "population": 29751}, {"name": "Bābol", "country_iso2": "IR", "state": "Māzandarān", "is_capital": false, "latitude": 36.5475, "longitude": 52.6783, "population": 250217}, {"name": "Bābolsar", "country_iso2": "IR", "state": "Māzandarān", "is_capital": false, "latitude": 36.7006, "longitude": 52.65, "population": 59966}, {"name": "Bāfq", "country_iso2": "IR", "state": "Yazd", "is_capital": false, "latitude": 31.605, "longitude": 55.4056, "population": 45453}, {"name": "Bāft", "country_iso2": "IR", "state": "Kermān", "is_capital": false, "latitude": 29.235, "longitude": 56.5989, "population": 34517}, {"name": "Bāgh-e Malek", "country_iso2": "IR", "state": "Khūzestān", "is_capital": false, "latitude": 31.5247, "longitude": 49.8869, "population": 26343}, {"name": "Bāghīn", "country_iso2": "IR", "state": "Kermān", "is_capital": false, "latitude": 30.1839, "longitude": 56.8075, "population": 10407}, {"name": "Bāneh", "country_iso2": "IR", "state": "Kordestān", "is_capital": false, "latitude": 35.9969, "longitude": 45.8853, "population": 110218}, {"name": "Bāqershahr", "country_iso2": "IR", "state": "Tehrān", "is_capital": false, "latitude": 35.5344, "longitude": 51.4058, "population": 65388}, {"name": "Bāsht", "country_iso2": "IR", "state": "Kohgīlūyeh va Bowyer Aḩmad", "is_capital": false, "latitude": 30.3611, "longitude": 51.1558, "population": 10764}, {"name": "Bāsmenj", "country_iso2": "IR", "state": "Āz̄arbāyjān-e Sharqī", "is_capital": false, "latitude": 37.9961, "longitude": 46.4722, "population": 12692}, {"name": "Bāzeh Kalāgh", "country_iso2": "IR", "state": "Khorāsān-e Raẕavī", "is_capital": false, "latitude": 36.5325, "longitude": 59.3636, "population": 29751}, {"name": "Bīdestān", "country_iso2": "IR", "state": "Qazvīn", "is_capital": false, "latitude": 36.2308, "longitude": 50.1236, "population": 18060}, {"name": "Bīdkhūn", "country_iso2": "IR", "state": "Būshehr", "is_capital": false, "latitude": 27.4803, "longitude": 52.6681, "population": 8886}, {"name": "Bījār", "country_iso2": "IR", "state": "Kordestān", "is_capital": false, "latitude": 35.8729, "longitude": 47.5993, "population": 53871}, {"name": "Bīleh Savār", "country_iso2": "IR", "state": "Ardabīl", "is_capital": false, "latitude": 39.3794, "longitude": 48.3542, "population": 16188}, {"name": "Bīrjand", "country_iso2": "IR", "state": "Khorāsān-e Jonūbī", "is_capital": true, "latitude": 32.8781, "longitude": 59.2161, "population": 203636}, {"name": "Būkān", "country_iso2": "IR", "state": "Āz̄arbāyjān-e Gharbī", "is_capital": false, "latitude": 36.515, "longitude": 46.2075, "population": 193501}, {"name": "Būmahen", "country_iso2": "IR", "state": "Tehrān", "is_capital": false, "latitude": 35.7322, "longitude": 51.8672, "population": 79034}, {"name": "Chahchaheh", "country_iso2": "IR", "state": "Khorāsān-e Raẕavī", "is_capital": false, "latitude": 36.5325, "longitude": 59.3636, "population": 29751}, {"name": "Chahār Borj-e Qadīm", "country_iso2": "IR", "state": "Āz̄arbāyjān-e Gharbī", "is_capital": false, "latitude": 37.1256, "longitude": 45.9783, "population": 9406}, {"name": "Chahār Dangeh", "country_iso2": "IR", "state": "Tehrān", "is_capital": false, "latitude": 35.6056, "longitude": 51.3092, "population": 49950}, {"name": "Chamestān", "country_iso2": "IR", "state": "Māzandarān", "is_capital": false, "latitude": 36.4792, "longitude": 52.1194, "population": 11194}, {"name": "Chamgardān", "country_iso2": "IR", "state": "Eşfahān", "is_capital": false, "latitude": 32.3931, "longitude": 51.3392, "population": 15574}, {"name": "Charmahīn", "country_iso2": "IR", "state": "Eşfahān", "is_capital": false, "latitude": 32.3333, "longitude": 51.1897, "population": 12292}, {"name": "Charām", "country_iso2": "IR", "state": "Kohgīlūyeh va Bowyer Aḩmad", "is_capital": false, "latitude": 30.7461, "longitude": 50.7461, "population": 15218}, {"name": "Chenārān", "country_iso2": "IR", "state": "Khorāsān-e Raẕavī", "is_capital": false, "latitude": 36.6406, "longitude": 59.1186, "population": 53879}, {"name": "Choghādak", "country_iso2": "IR", "state": "Būshehr", "is_capital": false, "latitude": 28.9858, "longitude": 51.0392, "population": 18702}, {"name": "Chābahār", "country_iso2": "IR", "state": "Sīstān va Balūchestān", "is_capital": false, "latitude": 25.2928, "longitude": 60.6497, "population": 106739}, {"name": "Dakhān", "country_iso2": "IR", "state": "Markazī", "is_capital": false, "latitude": 35.125, "longitude": 49.5175, "population": 10664}, {"name": "Dalgān", "country_iso2": "IR", "state": "Sīstān va Balūchestān", "is_capital": false, "latitude": 27.4825, "longitude": 59.4464, "population": 10292}, {"name": "Damāvand", "country_iso2": "IR", "state": "Tehrān", "is_capital": false, "latitude": 35.6961, "longitude": 52.0467, "population": 48380}, {"name": "Darb-e Behesht", "country_iso2": "IR", "state": "Kermān", "is_capital": false, "latitude": 29.2331, "longitude": 57.3397, "population": 10670}, {"name": "Darcheh", "country_iso2": "IR", "state": "Eşfahān", "is_capital": false, "latitude": 32.6131, "longitude": 51.5531, "population": 43183}, {"name": "Dargahān", "country_iso2": "IR", "state": "Hormozgān", "is_capital": false, "latitude": 26.9667, "longitude": 56.0708, "population": 14525}, {"name": "Dargaz", "country_iso2": "IR", "state": "Khorāsān-e Raẕavī", "is_capital": false, "latitude": 37.4425, "longitude": 59.1072, "population": 36762}, {"name": "Darreh Shahr", "country_iso2": "IR", "state": "Īlām", "is_capital": false, "latitude": 33.1431, "longitude": 47.3794, "population": 21900}, {"name": "Dastgerd", "country_iso2": "IR", "state": "Eşfahān", "is_capital": false, "latitude": 32.8008, "longitude": 51.6647, "population": 17775}, {"name": "Deh Bakrī", "country_iso2": "IR", "state": "Kermān", "is_capital": false, "latitude": 29.0478, "longitude": 57.9119, "population": 10726}, {"name": "Dehdasht", "country_iso2": "IR", "state": "Kohgīlūyeh va Bowyer Aḩmad", "is_capital": false, "latitude": 30.7964, "longitude": 50.5658, "population": 57036}, {"name": "Dehgolān", "country_iso2": "IR", "state": "Kordestān", "is_capital": false, "latitude": 35.2778, "longitude": 47.4175, "population": 25992}, {"name": "Dehlorān", "country_iso2": "IR", "state": "Īlām", "is_capital": false, "latitude": 32.6892, "longitude": 47.2689, "population": 32941}, {"name": "Dehāqān", "country_iso2": "IR", "state": "Eşfahān", "is_capital": false, "latitude": 31.9386, "longitude": 51.6475, "population": 16899}, {"name": "Delījān", "country_iso2": "IR", "state": "Markazī", "is_capital": false, "latitude": 33.9903, "longitude": 50.6836, "population": 40902}, {"name": "Deyr", "country_iso2": "IR", "state": "Būshehr", "is_capital": false, "latitude": 27.8403, "longitude": 51.94, "population": 24083}, {"name": "Dezfūl", "country_iso2": "IR", "state": "Khūzestān", "is_capital": false, "latitude": 32.3786, "longitude": 48.4144, "population": 264709}, {"name": "Do Gonbadān", "country_iso2": "IR", "state": "Kohgīlūyeh va Bowyer Aḩmad", "is_capital": false, "latitude": 30.36, "longitude": 50.7839, "population": 96728}, {"name": "Dorūd", "country_iso2": "IR", "state": "Lorestān", "is_capital": false, "latitude": 33.4994, "longitude": 49.0531, "population": 121608}, {"name": "Dowbarān", "country_iso2": "IR", "state": "Fārs", "is_capital": false, "latitude": 28.405, "longitude": 54.1878, "population": 13809}, {"name": "Dowlatābād", "country_iso2": "IR", "state": "Eşfahān", "is_capital": false, "latitude": 32.8003, "longitude": 51.6958, "population": 40945}, {"name": "Dowlatābād", "country_iso2": "IR", "state": "Khorāsān-e Raẕavī", "is_capital": false, "latitude": 35.2842, "longitude": 59.5225, "population": 9329}, {"name": "Dāmghān", "country_iso2": "IR", "state": "Semnān", "is_capital": false, "latitude": 36.1642, "longitude": 54.3408, "population": 59106}, {"name": "Dānesfahān", "country_iso2": "IR", "state": "Qazvīn", "is_capital": false, "latitude": 35.8117, "longitude": 49.7431, "population": 9434}, {"name": "Dīvāndarreh", "country_iso2": "IR", "state": "Kordestān", "is_capital": false, "latitude": 35.9158, "longitude": 47.0228, "population": 34007}, {"name": "Dīzīcheh", "country_iso2": "IR", "state": "Eşfahān", "is_capital": false, "latitude": 32.3869, "longitude": 51.5122, "population": 17966}, {"name": "Eqbālīyeh", "country_iso2": "IR", "state": "Qazvīn", "is_capital": false, "latitude": 36.2306, "longitude": 49.9225, "population": 55066}, {"name": "Eqlīd", "country_iso2": "IR", "state": "Fārs", "is_capital": false, "latitude": 30.8928, "longitude": 52.6889, "population": 44341}, {"name": "Esfarāyen", "country_iso2": "IR", "state": "Khorāsān-e Shomālī", "is_capital": false, "latitude": 37.0706, "longitude": 57.5056, "population": 59490}, {"name": "Eshkanān", "country_iso2": "IR", "state": "Fārs", "is_capital": false, "latitude": 27.2264, "longitude": 53.6064, "population": 9115}, {"name": "Eshtehārd", "country_iso2": "IR", "state": "Alborz", "is_capital": false, "latitude": 35.725, "longitude": 50.365, "population": 29993}, {"name": "Eslāmshahr", "country_iso2": "IR", "state": "Tehrān", "is_capital": false, "latitude": 35.5386, "longitude": 51.2228, "population": 448129}, {"name": "Eslāmābād-e Gharb", "country_iso2": "IR", "state": "Kermānshāh", "is_capital": false, "latitude": 34.1103, "longitude": 46.5275, "population": 90559}, {"name": "Estahbān", "country_iso2": "IR", "state": "Fārs", "is_capital": false, "latitude": 29.1269, "longitude": 54.0394, "population": 36410}, {"name": "Evaz", "country_iso2": "IR", "state": "Fārs", "is_capital": false, "latitude": 27.76, "longitude": 54.0067, "population": 19987}, {"name": "Eyvān", "country_iso2": "IR", "state": "Īlām", "is_capital": false, "latitude": 33.8278, "longitude": 46.3061, "population": 31299}, {"name": "Eyvānekey", "country_iso2": "IR", "state": "Semnān", "is_capital": false, "latitude": 35.3444, "longitude": 52.0714, "population": 12462}, {"name": "Eşfahān", "country_iso2": "IR", "state": "Eşfahān", "is_capital": true, "latitude": 32.6653, "longitude": 51.6703, "population": 2219343}, {"name": "Falāvarjān", "country_iso2": "IR", "state": "Eşfahān", "is_capital": false, "latitude": 32.5558, "longitude": 51.5106, "population": 37704}, {"name": "Fannūj", "country_iso2": "IR", "state": "Sīstān va Balūchestān", "is_capital": false, "latitude": 26.5753, "longitude": 59.6403, "population": 13070}, {"name": "Fardīs", "country_iso2": "IR", "state": "Alborz", "is_capital": false, "latitude": 35.73, "longitude": 50.9822, "population": 181174}, {"name": "Farrokh Shahr", "country_iso2": "IR", "state": "Chahār Maḩāl va Bakhtīārī", "is_capital": false, "latitude": 32.2733, "longitude": 50.98, "population": 31739}, {"name": "Farādonbeh", "country_iso2": "IR", "state": "Chahār Maḩāl va Bakhtīārī", "is_capital": false, "latitude": 32.0064, "longitude": 51.2175, "population": 13317}, {"name": "Farāshband", "country_iso2": "IR", "state": "Fārs", "is_capital": false, "latitude": 28.8617, "longitude": 52.0936, "population": 20320}, {"name": "Farīmān", "country_iso2": "IR", "state": "Khorāsān-e Raẕavī", "is_capital": false, "latitude": 35.7011, "longitude": 59.8464, "population": 39515}, {"name": "Fasā", "country_iso2": "IR", "state": "Fārs", "is_capital": false, "latitude": 28.9503, "longitude": 53.6272, "population": 110825}, {"name": "Ferdows", "country_iso2": "IR", "state": "Khorāsān-e Jonūbī", "is_capital": false, "latitude": 34.0192, "longitude": 58.1731, "population": 28695}, {"name": "Fereydūn Kenār", "country_iso2": "IR", "state": "Māzandarān", "is_capital": false, "latitude": 36.685, "longitude": 52.5208, "population": 38154}, {"name": "Fereydūnshahr", "country_iso2": "IR", "state": "Eşfahān", "is_capital": false, "latitude": 32.9419, "longitude": 50.1203, "population": 13475}, {"name": "Feyẕābād", "country_iso2": "IR", "state": "Khorāsān-e Raẕavī", "is_capital": false, "latitude": 35.0183, "longitude": 58.7839, "population": 18120}, {"name": "Fāmenīn", "country_iso2": "IR", "state": "Hamadān", "is_capital": false, "latitude": 35.1139, "longitude": 48.9725, "population": 14019}, {"name": "Fārsān", "country_iso2": "IR", "state": "Chahār Maḩāl va Bakhtīārī", "is_capital": false, "latitude": 32.255, "longitude": 50.5631, "population": 30504}, {"name": "Fūlād Shahr", "country_iso2": "IR", "state": "Eşfahān", "is_capital": false, "latitude": 32.4906, "longitude": 51.4211, "population": 88426}, {"name": "Fūman", "country_iso2": "IR", "state": "Gīlān", "is_capital": false, "latitude": 37.2242, "longitude": 49.3125, "population": 27763}, {"name": "Galleh Dār", "country_iso2": "IR", "state": "Fārs", "is_capital": false, "latitude": 27.6578, "longitude": 52.6594, "population": 9982}, {"name": "Galūgāh", "country_iso2": "IR", "state": "Māzandarān", "is_capital": false, "latitude": 36.7269, "longitude": 53.8089, "population": 21352}, {"name": "Garmdarreh", "country_iso2": "IR", "state": "Alborz", "is_capital": false, "latitude": 35.7478, "longitude": 51.0678, "population": 22726}, {"name": "Garmeh", "country_iso2": "IR", "state": "Khorāsān-e Shomālī", "is_capital": false, "latitude": 36.9864, "longitude": 56.2881, "population": 10933}, {"name": "Garmsār", "country_iso2": "IR", "state": "Semnān", "is_capital": false, "latitude": 35.2206, "longitude": 52.3389, "population": 48672}, {"name": "Gaz", "country_iso2": "IR", "state": "Eşfahān", "is_capital": false, "latitude": 32.8061, "longitude": 51.6206, "population": 24433}, {"name": "Gerd Farāmarz Shāhedīyeh", "country_iso2": "IR", "state": "Yazd", "is_capital": false, "latitude": 31.9417, "longitude": 54.2677, "population": 18309}, {"name": "Germī", "country_iso2": "IR", "state": "Ardabīl", "is_capital": false, "latitude": 39.0297, "longitude": 48.0803, "population": 28967}, {"name": "Gerāsh", "country_iso2": "IR", "state": "Fārs", "is_capital": false, "latitude": 27.6667, "longitude": 54.1411, "population": 34469}, {"name": "Gol Tappeh", "country_iso2": "IR", "state": "Tehrān", "is_capital": false, "latitude": 35.4867, "longitude": 51.565, "population": 10850}, {"name": "Golbāf", "country_iso2": "IR", "state": "Kermān", "is_capital": false, "latitude": 29.8828, "longitude": 57.7322, "population": 9205}, {"name": "Goldasht", "country_iso2": "IR", "state": "Eşfahān", "is_capital": false, "latitude": 32.6244, "longitude": 51.4383, "population": 22693}, {"name": "Golpāyegān", "country_iso2": "IR", "state": "Eşfahān", "is_capital": false, "latitude": 33.4508, "longitude": 50.2817, "population": 47849}, {"name": "Gomīshān", "country_iso2": "IR", "state": "Golestān", "is_capital": false, "latitude": 37.07, "longitude": 54.0769, "population": 19191}, {"name": "Gonbad-e Kāvūs", "country_iso2": "IR", "state": "Golestān", "is_capital": false, "latitude": 37.2436, "longitude": 55.1658, "population": 151910}, {"name": "Gonābād", "country_iso2": "IR", "state": "Khorāsān-e Raẕavī", "is_capital": false, "latitude": 34.3575, "longitude": 58.6783, "population": 40773}, {"name": "Gorgāb", "country_iso2": "IR", "state": "Eşfahān", "is_capital": false, "latitude": 32.8661, "longitude": 51.5972, "population": 9690}, {"name": "Gorgān", "country_iso2": "IR", "state": "Golestān", "is_capital": true, "latitude": 36.8369, "longitude": 54.4372, "population": 312223}, {"name": "Gotvand", "country_iso2": "IR", "state": "Khūzestān", "is_capital": false, "latitude": 32.2433, "longitude": 48.8136, "population": 24216}, {"name": "Gālīkesh", "country_iso2": "IR", "state": "Golestān", "is_capital": false, "latitude": 37.2728, "longitude": 55.4328, "population": 23394}, {"name": "Gīlān-e Gharb", "country_iso2": "IR", "state": "Kermānshāh", "is_capital": false, "latitude": 34.1406, "longitude": 45.9183, "population": 22331}, {"name": "Hachīrūd", "country_iso2": "IR", "state": "Māzandarān", "is_capital": false, "latitude": 36.6856, "longitude": 51.345, "population": 10398}, {"name": "Hafshejān", "country_iso2": "IR", "state": "Chahār Maḩāl va Bakhtīārī", "is_capital": false, "latitude": 32.2253, "longitude": 50.7961, "population": 21352}, {"name": "Haftkel", "country_iso2": "IR", "state": "Khūzestān", "is_capital": false, "latitude": 31.4444, "longitude": 49.5314, "population": 15802}, {"name": "Hamadān", "country_iso2": "IR", "state": "Hamadān", "is_capital": true, "latitude": 34.8064, "longitude": 48.5161, "population": 554406}, {"name": "Hamadānak", "country_iso2": "IR", "state": "Tehrān", "is_capital": false, "latitude": 35.5422, "longitude": 51.1383, "population": 11216}, {"name": "Harsīn", "country_iso2": "IR", "state": "Kermānshāh", "is_capital": false, "latitude": 34.2706, "longitude": 47.5803, "population": 44146}, {"name": "Hashtgerd", "country_iso2": "IR", "state": "Alborz", "is_capital": false, "latitude": 35.9628, "longitude": 50.6794, "population": 55640}, {"name": "Hashtpar", "country_iso2": "IR", "state": "Gīlān", "is_capital": false, "latitude": 37.7975, "longitude": 48.9042, "population": 54178}, {"name": "Hashtrūd", "country_iso2": "IR", "state": "Āz̄arbāyjān-e Sharqī", "is_capital": false, "latitude": 37.4758, "longitude": 47.0497, "population": 20572}, {"name": "Hendījān", "country_iso2": "IR", "state": "Khūzestān", "is_capital": false, "latitude": 30.2383, "longitude": 49.7075, "population": 29015}, {"name": "Herīs", "country_iso2": "IR", "state": "Āz̄arbāyjān-e Sharqī", "is_capital": false, "latitude": 38.2475, "longitude": 47.1164, "population": 10515}, {"name": "Hoveyzeh", "country_iso2": "IR", "state": "Khūzestān", "is_capital": false, "latitude": 31.4606, "longitude": 48.0781, "population": 19481}, {"name": "Hādīshahr", "country_iso2": "IR", "state": "Āz̄arbāyjān-e Sharqī", "is_capital": false, "latitude": 38.84, "longitude": 45.6647, "population": 27842}, {"name": "Hīdaj", "country_iso2": "IR", "state": "Zanjān", "is_capital": false, "latitude": 36.2558, "longitude": 49.1314, "population": 13840}, {"name": "Jahrom", "country_iso2": "IR", "state": "Fārs", "is_capital": false, "latitude": 28.5147, "longitude": 53.5731, "population": 141634}, {"name": "Jam", "country_iso2": "IR", "state": "Būshehr", "is_capital": false, "latitude": 27.8211, "longitude": 52.3306, "population": 31436}, {"name": "Jannat Shahr", "country_iso2": "IR", "state": "Fārs", "is_capital": false, "latitude": 28.655, "longitude": 54.6844, "population": 13598}, {"name": "Javānrūd", "country_iso2": "IR", "state": "Kermānshāh", "is_capital": false, "latitude": 34.8078, "longitude": 46.4939, "population": 54354}, {"name": "Ja‘farīyeh", "country_iso2": "IR", "state": "Qom", "is_capital": false, "latitude": 34.7739, "longitude": 50.5164, "population": 9387}, {"name": "Joghtāy", "country_iso2": "IR", "state": "Khorāsān-e Raẕavī", "is_capital": false, "latitude": 36.6383, "longitude": 57.0717, "population": 9268}, {"name": "Jolfā", "country_iso2": "IR", "state": "Āz̄arbāyjān-e Sharqī", "is_capital": false, "latitude": 38.9386, "longitude": 45.6253, "population": 8810}, {"name": "Jājarm", "country_iso2": "IR", "state": "Khorāsān-e Shomālī", "is_capital": false, "latitude": 36.95, "longitude": 56.38, "population": 19580}, {"name": "Jāsk", "country_iso2": "IR", "state": "Hormozgān", "is_capital": false, "latitude": 25.6531, "longitude": 57.7817, "population": 16860}, {"name": "Jīroft", "country_iso2": "IR", "state": "Kermān", "is_capital": false, "latitude": 28.6797, "longitude": 57.7447, "population": 130429}, {"name": "Jūnqān", "country_iso2": "IR", "state": "Chahār Maḩāl va Bakhtīārī", "is_capital": false, "latitude": 32.1522, "longitude": 50.6911, "population": 14433}, {"name": "Jūraqān", "country_iso2": "IR", "state": "Hamadān", "is_capital": false, "latitude": 34.885, "longitude": 48.5561, "population": 9234}, {"name": "Kabūdarāhang", "country_iso2": "IR", "state": "Hamadān", "is_capital": false, "latitude": 35.2069, "longitude": 48.7228, "population": 19216}, {"name": "Kahnūj", "country_iso2": "IR", "state": "Kermān", "is_capital": false, "latitude": 27.9406, "longitude": 57.6992, "population": 52624}, {"name": "Kahrīzak", "country_iso2": "IR", "state": "Tehrān", "is_capital": false, "latitude": 35.5169, "longitude": 51.3603, "population": 37527}, {"name": "Kaleybar", "country_iso2": "IR", "state": "Āz̄arbāyjān-e Sharqī", "is_capital": false, "latitude": 38.8664, "longitude": 47.0406, "population": 9324}, {"name": "Kalā Chāy", "country_iso2": "IR", "state": "Gīlān", "is_capital": false, "latitude": 37.0789, "longitude": 50.3953, "population": 12379}, {"name": "Kalāleh", "country_iso2": "IR", "state": "Golestān", "is_capital": false, "latitude": 37.3789, "longitude": 55.4889, "population": 36176}, {"name": "Kalārdasht", "country_iso2": "IR", "state": "Māzandarān", "is_capital": false, "latitude": 36.5056, "longitude": 51.1589, "population": 13401}, {"name": "Kalāteh-ye Mīr Āb", "country_iso2": "IR", "state": "Khorāsān-e Raẕavī", "is_capital": false, "latitude": 36.5325, "longitude": 59.3636, "population": 29751}, {"name": "Kamālshahr", "country_iso2": "IR", "state": "Alborz", "is_capital": false, "latitude": 35.8658, "longitude": 50.8717, "population": 141166}, {"name": "Kangān", "country_iso2": "IR", "state": "Būshehr", "is_capital": false, "latitude": 27.8392, "longitude": 52.0608, "population": 60187}, {"name": "Karahrūd", "country_iso2": "IR", "state": "Markazī", "is_capital": false, "latitude": 34.0628, "longitude": 49.6461, "population": 29721}, {"name": "Karaj", "country_iso2": "IR", "state": "Alborz", "is_capital": true, "latitude": 35.8292, "longitude": 50.9675, "population": 1973470}, {"name": "Kashaf", "country_iso2": "IR", "state": "Khorāsān-e Raẕavī", "is_capital": false, "latitude": 36.3678, "longitude": 59.5767, "population": 11459}, {"name": "Kavār", "country_iso2": "IR", "state": "Fārs", "is_capital": false, "latitude": 29.2017, "longitude": 52.6917, "population": 31711}, {"name": "Kelīshād va Sūdarjān", "country_iso2": "IR", "state": "Eşfahān", "is_capital": false, "latitude": 32.5489, "longitude": 51.5286, "population": 23203}, {"name": "Kermān", "country_iso2": "IR", "state": "Kermān", "is_capital": true, "latitude": 30.2625, "longitude": 57.0575, "population": 738374}, {"name": "Kermānshāh", "country_iso2": "IR", "state": "Kermānshāh", "is_capital": true, "latitude": 34.3369, "longitude": 47.0911, "population": 946651}, {"name": "Khalkhāl", "country_iso2": "IR", "state": "Ardabīl", "is_capital": false, "latitude": 37.6147, "longitude": 48.5314, "population": 38521}, {"name": "Kharv-e Soflá", "country_iso2": "IR", "state": "Khorāsān-e Raẕavī", "is_capital": false, "latitude": 36.1422, "longitude": 59.0158, "population": 13535}, {"name": "Kherāmeh", "country_iso2": "IR", "state": "Fārs", "is_capital": false, "latitude": 29.4992, "longitude": 53.3131, "population": 18477}, {"name": "Khesht", "country_iso2": "IR", "state": "Fārs", "is_capital": false, "latitude": 29.5633, "longitude": 51.335, "population": 9599}, {"name": "Khodābandeh", "country_iso2": "IR", "state": "Khorāsān-e Raẕavī", "is_capital": false, "latitude": 36.0, "longitude": 48.4167, "population": 164493}, {"name": "Khodābandeh", "country_iso2": "IR", "state": "Zanjān", "is_capital": false, "latitude": 36.1194, "longitude": 48.5917, "population": 34921}, {"name": "Khomeyn", "country_iso2": "IR", "state": "Markazī", "is_capital": false, "latitude": 33.6422, "longitude": 50.0789, "population": 72882}, {"name": "Khomeynī Shahr", "country_iso2": "IR", "state": "Eşfahān", "is_capital": false, "latitude": 32.6803, "longitude": 51.5361, "population": 247128}, {"name": "Khomām", "country_iso2": "IR", "state": "Gīlān", "is_capital": false, "latitude": 37.3911, "longitude": 49.6597, "population": 12901}, {"name": "Khonj", "country_iso2": "IR", "state": "Fārs", "is_capital": false, "latitude": 27.8897, "longitude": 53.4308, "population": 19217}, {"name": "Khorramdarreh", "country_iso2": "IR", "state": "Zanjān", "is_capital": false, "latitude": 36.2061, "longitude": 49.2003, "population": 55368}, {"name": "Khorramshahr", "country_iso2": "IR", "state": "Khūzestān", "is_capital": false, "latitude": 30.4394, "longitude": 48.1817, "population": 133097}, {"name": "Khorramābād", "country_iso2": "IR", "state": "Lorestān", "is_capital": true, "latitude": 33.4875, "longitude": 48.3561, "population": 200000}, {"name": "Khorramābād", "country_iso2": "IR", "state": "Māzandarān", "is_capital": false, "latitude": 36.7822, "longitude": 50.8714, "population": 11542}, {"name": "Khosrowshahr", "country_iso2": "IR", "state": "Āz̄arbāyjān-e Sharqī", "is_capital": false, "latitude": 37.9514, "longitude": 46.0508, "population": 21972}, {"name": "Khowrmūj", "country_iso2": "IR", "state": "Būshehr", "is_capital": false, "latitude": 28.6572, "longitude": 51.3811, "population": 40722}, {"name": "Khowrzūq", "country_iso2": "IR", "state": "Eşfahān", "is_capital": false, "latitude": 32.7783, "longitude": 51.6478, "population": 20301}, {"name": "Khowrāsgān", "country_iso2": "IR", "state": "Eşfahān", "is_capital": false, "latitude": 32.6528, "longitude": 51.7589, "population": 86063}, {"name": "Khowy", "country_iso2": "IR", "state": "Āz̄arbāyjān-e Gharbī", "is_capital": false, "latitude": 38.5464, "longitude": 44.9542, "population": 198845}, {"name": "Khvāf", "country_iso2": "IR", "state": "Khorāsān-e Raẕavī", "is_capital": false, "latitude": 34.5711, "longitude": 60.1439, "population": 33189}, {"name": "Khvānsār", "country_iso2": "IR", "state": "Eşfahān", "is_capital": false, "latitude": 33.2208, "longitude": 50.3153, "population": 20490}, {"name": "Khān Bebīn", "country_iso2": "IR", "state": "Golestān", "is_capital": false, "latitude": 37.0097, "longitude": 54.9858, "population": 10878}, {"name": "Khāsh", "country_iso2": "IR", "state": "Sīstān va Balūchestān", "is_capital": false, "latitude": 28.22, "longitude": 61.2114, "population": 56584}, {"name": "Komījān", "country_iso2": "IR", "state": "Markazī", "is_capital": false, "latitude": 34.7181, "longitude": 49.325, "population": 8776}, {"name": "Kond Rūd", "country_iso2": "IR", "state": "Āz̄arbāyjān-e Sharqī", "is_capital": false, "latitude": 38.0094, "longitude": 46.4778, "population": 8518}, {"name": "Konārak", "country_iso2": "IR", "state": "Sīstān va Balūchestān", "is_capital": false, "latitude": 25.3589, "longitude": 60.3992, "population": 43258}, {"name": "Kord Kūy", "country_iso2": "IR", "state": "Golestān", "is_capital": false, "latitude": 36.7931, "longitude": 54.1122, "population": 39881}, {"name": "Kārīz", "country_iso2": "IR", "state": "Khorāsān-e Raẕavī", "is_capital": false, "latitude": 34.8117, "longitude": 60.8239, "population": 11102}, {"name": "Kāshmar", "country_iso2": "IR", "state": "Khorāsān-e Raẕavī", "is_capital": false, "latitude": 35.2447, "longitude": 58.4608, "population": 102282}, {"name": "Kāshān", "country_iso2": "IR", "state": "Eşfahān", "is_capital": false, "latitude": 33.9825, "longitude": 51.4325, "population": 304487}, {"name": "Kāzerūn", "country_iso2": "IR", "state": "Fārs", "is_capital": false, "latitude": 29.6156, "longitude": 51.6567, "population": 96683}, {"name": "Kīsh", "country_iso2": "IR", "state": "Hormozgān", "is_capital": false, "latitude": 26.5553, "longitude": 53.985, "population": 39853}, {"name": "Kīāshahr", "country_iso2": "IR", "state": "Gīlān", "is_capital": false, "latitude": 37.4214, "longitude": 49.9408, "population": 14022}, {"name": "Kūcheşfahān", "country_iso2": "IR", "state": "Gīlān", "is_capital": false, "latitude": 37.2783, "longitude": 49.7728, "population": 10026}, {"name": "Kūhbanān", "country_iso2": "IR", "state": "Kermān", "is_capital": false, "latitude": 31.41, "longitude": 56.2825, "population": 10761}, {"name": "Kūhdasht", "country_iso2": "IR", "state": "Lorestān", "is_capital": false, "latitude": 33.5294, "longitude": 47.6092, "population": 89091}, {"name": "Kūshk", "country_iso2": "IR", "state": "Eşfahān", "is_capital": false, "latitude": 32.6419, "longitude": 51.4997, "population": 11264}, {"name": "Kūt-e ‘Abdollāh", "country_iso2": "IR", "state": "Khūzestān", "is_capital": false, "latitude": 31.2447, "longitude": 48.6594, "population": 56252}, {"name": "Landeh", "country_iso2": "IR", "state": "Kohgīlūyeh va Bowyer Aḩmad", "is_capital": false, "latitude": 30.9808, "longitude": 50.4214, "population": 12772}, {"name": "Langarūd", "country_iso2": "IR", "state": "Gīlān", "is_capital": false, "latitude": 37.1911, "longitude": 50.1556, "population": 79445}, {"name": "Lasht-e Neshā", "country_iso2": "IR", "state": "Gīlān", "is_capital": false, "latitude": 37.3608, "longitude": 49.8611, "population": 10539}, {"name": "Lavandevīl", "country_iso2": "IR", "state": "Gīlān", "is_capital": false, "latitude": 38.3089, "longitude": 48.8703, "population": 11235}, {"name": "Lavāsān", "country_iso2": "IR", "state": "Tehrān", "is_capital": false, "latitude": 35.8208, "longitude": 51.6342, "population": 18146}, {"name": "Lordegān", "country_iso2": "IR", "state": "Chahār Maḩāl va Bakhtīārī", "is_capital": false, "latitude": 31.5094, "longitude": 50.8344, "population": 40528}, {"name": "Lowshān", "country_iso2": "IR", "state": "Gīlān", "is_capital": false, "latitude": 36.6278, "longitude": 49.5114, "population": 13032}, {"name": "Lālejīn", "country_iso2": "IR", "state": "Hamadān", "is_capital": false, "latitude": 34.9742, "longitude": 48.4756, "population": 14916}, {"name": "Lāmerd", "country_iso2": "IR", "state": "Fārs", "is_capital": false, "latitude": 27.3336, "longitude": 53.1886, "population": 29380}, {"name": "Līkak", "country_iso2": "IR", "state": "Kohgīlūyeh va Bowyer Aḩmad", "is_capital": false, "latitude": 30.8928, "longitude": 50.0928, "population": 19857}, {"name": "Madan", "country_iso2": "IR", "state": "Khūzestān", "is_capital": false, "latitude": 30.3469, "longitude": 48.2825, "population": 231476}, {"name": "Mahdīshahr", "country_iso2": "IR", "state": "Semnān", "is_capital": false, "latitude": 35.7144, "longitude": 53.3569, "population": 24485}, {"name": "Mahābād", "country_iso2": "IR", "state": "Āz̄arbāyjān-e Gharbī", "is_capital": false, "latitude": 36.7678, "longitude": 45.7339, "population": 168393}, {"name": "Mahājerān-e Kamar", "country_iso2": "IR", "state": "Markazī", "is_capital": false, "latitude": 34.0486, "longitude": 49.4311, "population": 19346}, {"name": "Malekān", "country_iso2": "IR", "state": "Āz̄arbāyjān-e Sharqī", "is_capital": false, "latitude": 37.1428, "longitude": 46.1053, "population": 27431}, {"name": "Malārd", "country_iso2": "IR", "state": "Tehrān", "is_capital": false, "latitude": 35.6806, "longitude": 50.9783, "population": 281027}, {"name": "Malāyer", "country_iso2": "IR", "state": "Hamadān", "is_capital": false, "latitude": 34.3, "longitude": 48.8178, "population": 170237}, {"name": "Mamqān", "country_iso2": "IR", "state": "Āz̄arbāyjān-e Sharqī", "is_capital": false, "latitude": 37.8458, "longitude": 45.9719, "population": 11892}, {"name": "Manjīl", "country_iso2": "IR", "state": "Gīlān", "is_capital": false, "latitude": 36.7447, "longitude": 49.4014, "population": 15630}, {"name": "Manūjān", "country_iso2": "IR", "state": "Kermān", "is_capital": false, "latitude": 27.4031, "longitude": 57.4917, "population": 15634}, {"name": "Marand", "country_iso2": "IR", "state": "Āz̄arbāyjān-e Sharqī", "is_capital": false, "latitude": 38.4308, "longitude": 45.7742, "population": 130825}, {"name": "Marvast", "country_iso2": "IR", "state": "Yazd", "is_capital": false, "latitude": 30.4775, "longitude": 54.2128, "population": 9379}, {"name": "Marvdasht", "country_iso2": "IR", "state": "Fārs", "is_capital": false, "latitude": 29.8786, "longitude": 52.8067, "population": 148858}, {"name": "Maryānaj", "country_iso2": "IR", "state": "Hamadān", "is_capital": false, "latitude": 34.8308, "longitude": 48.4603, "population": 10848}, {"name": "Marāgheh", "country_iso2": "IR", "state": "Āz̄arbāyjān-e Sharqī", "is_capital": false, "latitude": 37.3894, "longitude": 46.2378, "population": 272400}, {"name": "Marāveh Tappeh", "country_iso2": "IR", "state": "Golestān", "is_capital": false, "latitude": 37.9031, "longitude": 55.9567, "population": 8671}, {"name": "Marīvān", "country_iso2": "IR", "state": "Kordestān", "is_capital": false, "latitude": 35.5217, "longitude": 46.1806, "population": 136654}, {"name": "Mashhad", "country_iso2": "IR", "state": "Khorāsān-e Raẕavī", "is_capital": true, "latitude": 36.3264, "longitude": 59.5433, "population": 3700000}, {"name": "Mashhad Rīzeh", "country_iso2": "IR", "state": "Khorāsān-e Raẕavī", "is_capital": false, "latitude": 34.7947, "longitude": 60.5144, "population": 10105}, {"name": "Masjed Soleymān", "country_iso2": "IR", "state": "Khūzestān", "is_capital": false, "latitude": 31.96, "longitude": 49.2881, "population": 100497}, {"name": "Maḩalleh-ye Shīrīnū", "country_iso2": "IR", "state": "Būshehr", "is_capital": false, "latitude": 27.6256, "longitude": 52.475, "population": 9976}, {"name": "Maḩallāt", "country_iso2": "IR", "state": "Markazī", "is_capital": false, "latitude": 33.9056, "longitude": 50.4572, "population": 43245}, {"name": "Maḩmūdābād Nemūneh", "country_iso2": "IR", "state": "Qazvīn", "is_capital": false, "latitude": 36.2903, "longitude": 49.8994, "population": 19669}, {"name": "Ma’mūnīyeh", "country_iso2": "IR", "state": "Markazī", "is_capital": false, "latitude": 35.305, "longitude": 50.4975, "population": 21814}, {"name": "Mehrān", "country_iso2": "IR", "state": "Īlām", "is_capital": false, "latitude": 33.1208, "longitude": 46.1642, "population": 17435}, {"name": "Meshgīn Shahr", "country_iso2": "IR", "state": "Ardabīl", "is_capital": false, "latitude": 38.3906, "longitude": 47.6742, "population": 74109}, {"name": "Meshkīn Dasht", "country_iso2": "IR", "state": "Tehrān", "is_capital": false, "latitude": 35.7514, "longitude": 50.9397, "population": 62005}, {"name": "Meybod", "country_iso2": "IR", "state": "Yazd", "is_capital": false, "latitude": 32.2456, "longitude": 54.0153, "population": 80712}, {"name": "Meymand", "country_iso2": "IR", "state": "Fārs", "is_capital": false, "latitude": 28.8683, "longitude": 52.7525, "population": 10120}, {"name": "Mobārakeh", "country_iso2": "IR", "state": "Eşfahān", "is_capital": false, "latitude": 32.3494, "longitude": 51.5, "population": 62454}, {"name": "Mollās̄ānī", "country_iso2": "IR", "state": "Khūzestān", "is_capital": false, "latitude": 31.585, "longitude": 48.885, "population": 17337}, {"name": "Morteẕá Gerd", "country_iso2": "IR", "state": "Tehrān", "is_capital": false, "latitude": 35.6022, "longitude": 51.3486, "population": 15506}, {"name": "Moslem Ebn-e ‘Aqīl", "country_iso2": "IR", "state": "Khūzestān", "is_capital": false, "latitude": 32.0561, "longitude": 48.3056, "population": 8833}, {"name": "Moḩammad Shahr", "country_iso2": "IR", "state": "Alborz", "is_capital": false, "latitude": 35.7533, "longitude": 50.9014, "population": 119418}, {"name": "Moḩammad Yār", "country_iso2": "IR", "state": "Āz̄arbāyjān-e Gharbī", "is_capital": false, "latitude": 36.9819, "longitude": 45.5222, "population": 9313}, {"name": "Moḩammadābād", "country_iso2": "IR", "state": "Kermān", "is_capital": false, "latitude": 28.6517, "longitude": 59.0158, "population": 20720}, {"name": "Māhdāsht", "country_iso2": "IR", "state": "Tehrān", "is_capital": false, "latitude": 35.7278, "longitude": 50.8089, "population": 62910}, {"name": "Mīlājerd", "country_iso2": "IR", "state": "Markazī", "is_capital": false, "latitude": 34.6214, "longitude": 49.2081, "population": 9288}, {"name": "Mīnūdasht", "country_iso2": "IR", "state": "Golestān", "is_capital": false, "latitude": 37.2306, "longitude": 55.3736, "population": 30085}, {"name": "Mīrjāveh", "country_iso2": "IR", "state": "Sīstān va Balūchestān", "is_capital": false, "latitude": 29.0147, "longitude": 61.4503, "population": 9359}, {"name": "Mīāndasht", "country_iso2": "IR", "state": "Eşfahān", "is_capital": false, "latitude": 33.0758, "longitude": 50.1631, "population": 9933}, {"name": "Mīāneh", "country_iso2": "IR", "state": "Āz̄arbāyjān-e Sharqī", "is_capital": false, "latitude": 37.4233, "longitude": 47.7136, "population": 98973}, {"name": "Nahāvand", "country_iso2": "IR", "state": "Hamadān", "is_capital": false, "latitude": 34.1928, "longitude": 48.3731, "population": 76162}, {"name": "Najafābād", "country_iso2": "IR", "state": "Eşfahān", "is_capital": false, "latitude": 32.6331, "longitude": 51.365, "population": 235281}, {"name": "Nakhl-e Taqī", "country_iso2": "IR", "state": "Būshehr", "is_capital": false, "latitude": 27.5003, "longitude": 52.5822, "population": 18837}, {"name": "Nalās", "country_iso2": "IR", "state": "Āz̄arbāyjān-e Gharbī", "is_capital": false, "latitude": 36.2631, "longitude": 45.4933, "population": 8503}, {"name": "Namīn", "country_iso2": "IR", "state": "Ardabīl", "is_capital": false, "latitude": 38.4264, "longitude": 48.4822, "population": 13659}, {"name": "Naqadeh", "country_iso2": "IR", "state": "Āz̄arbāyjān-e Gharbī", "is_capital": false, "latitude": 36.9547, "longitude": 45.3881, "population": 72975}, {"name": "Nashtīfān", "country_iso2": "IR", "state": "Khorāsān-e Raẕavī", "is_capital": false, "latitude": 34.435, "longitude": 60.1811, "population": 9176}, {"name": "Nasīm Shahr", "country_iso2": "IR", "state": "Tehrān", "is_capital": false, "latitude": 35.5617, "longitude": 51.1617, "population": 200393}, {"name": "Naz̧arābād", "country_iso2": "IR", "state": "Alborz", "is_capital": false, "latitude": 35.9561, "longitude": 50.6044, "population": 119512}, {"name": "Naţanz", "country_iso2": "IR", "state": "Eşfahān", "is_capital": false, "latitude": 33.5072, "longitude": 51.9136, "population": 14122}, {"name": "Nehbandān", "country_iso2": "IR", "state": "Khorāsān-e Jonūbī", "is_capital": false, "latitude": 31.5411, "longitude": 60.0397, "population": 18304}, {"name": "Nekā", "country_iso2": "IR", "state": "Māzandarān", "is_capital": false, "latitude": 36.65, "longitude": 53.2972, "population": 60991}, {"name": "Neqāb", "country_iso2": "IR", "state": "Khorāsān-e Raẕavī", "is_capital": false, "latitude": 36.7108, "longitude": 57.41, "population": 14723}, {"name": "Neyrīz", "country_iso2": "IR", "state": "Fārs", "is_capital": false, "latitude": 29.1928, "longitude": 54.3197, "population": 49850}, {"name": "Neyshābūr", "country_iso2": "IR", "state": "Khorāsān-e Raẕavī", "is_capital": false, "latitude": 36.22, "longitude": 58.82, "population": 221700}, {"name": "Nowshahr", "country_iso2": "IR", "state": "Māzandarān", "is_capital": false, "latitude": 36.6475, "longitude": 51.4931, "population": 49403}, {"name": "Nāysar", "country_iso2": "IR", "state": "Kordestān", "is_capital": false, "latitude": 35.3267, "longitude": 47.0686, "population": 12480}, {"name": "Nīkshahr", "country_iso2": "IR", "state": "Sīstān va Balūchestān", "is_capital": false, "latitude": 26.2253, "longitude": 60.2167, "population": 17732}, {"name": "Nūkān", "country_iso2": "IR", "state": "Kermānshāh", "is_capital": false, "latitude": 34.3608, "longitude": 47.1725, "population": 10377}, {"name": "Omīdīyeh", "country_iso2": "IR", "state": "Khūzestān", "is_capital": false, "latitude": 30.7583, "longitude": 49.705, "population": 67427}, {"name": "Orūmīyeh", "country_iso2": "IR", "state": "Āz̄arbāyjān-e Gharbī", "is_capital": true, "latitude": 37.5439, "longitude": 45.0647, "population": 736224}, {"name": "Oshnavīyeh", "country_iso2": "IR", "state": "Āz̄arbāyjān-e Gharbī", "is_capital": false, "latitude": 37.0364, "longitude": 45.0956, "population": 32723}, {"name": "Oskū", "country_iso2": "IR", "state": "Āz̄arbāyjān-e Sharqī", "is_capital": false, "latitude": 37.9161, "longitude": 46.1244, "population": 18459}, {"name": "Pardanjān", "country_iso2": "IR", "state": "Chahār Maḩāl va Bakhtīārī", "is_capital": false, "latitude": 32.2539, "longitude": 50.5975, "population": 8699}, {"name": "Poldasht", "country_iso2": "IR", "state": "Āz̄arbāyjān-e Gharbī", "is_capital": false, "latitude": 39.3447, "longitude": 45.0681, "population": 11472}, {"name": "Poldokhtar", "country_iso2": "IR", "state": "Lorestān", "is_capital": false, "latitude": 33.1489, "longitude": 47.7164, "population": 26352}, {"name": "Pākdasht", "country_iso2": "IR", "state": "Tehrān", "is_capital": false, "latitude": 35.4828, "longitude": 51.6814, "population": 236319}, {"name": "Pāveh", "country_iso2": "IR", "state": "Kermānshāh", "is_capital": false, "latitude": 35.0433, "longitude": 46.355, "population": 25771}, {"name": "Pā’īn Chāf", "country_iso2": "IR", "state": "Gīlān", "is_capital": false, "latitude": 37.2294, "longitude": 50.2544, "population": 8840}, {"name": "Pīr Bakrān", "country_iso2": "IR", "state": "Eşfahān", "is_capital": false, "latitude": 32.4678, "longitude": 51.5556, "population": 10851}, {"name": "Pīrānshahr", "country_iso2": "IR", "state": "Āz̄arbāyjān-e Gharbī", "is_capital": false, "latitude": 36.6956, "longitude": 45.1456, "population": 91515}, {"name": "Qahderījān", "country_iso2": "IR", "state": "Eşfahān", "is_capital": false, "latitude": 32.5772, "longitude": 51.4539, "population": 30002}, {"name": "Qahjāvarestān", "country_iso2": "IR", "state": "Eşfahān", "is_capital": false, "latitude": 32.7044, "longitude": 51.8336, "population": 9712}, {"name": "Qal‘eh Chan‘ān", "country_iso2": "IR", "state": "Khūzestān", "is_capital": false, "latitude": 31.2403, "longitude": 48.7011, "population": 10764}, {"name": "Qal‘eh Ganj", "country_iso2": "IR", "state": "Kermān", "is_capital": false, "latitude": 27.525, "longitude": 57.88, "population": 13169}, {"name": "Qal‘eh Tall", "country_iso2": "IR", "state": "Khūzestān", "is_capital": false, "latitude": 31.6331, "longitude": 49.8897, "population": 10698}, {"name": "Qarah Ẕīā’ od Dīn", "country_iso2": "IR", "state": "Āz̄arbāyjān-e Gharbī", "is_capital": false, "latitude": 38.89, "longitude": 45.0283, "population": 26767}, {"name": "Qarchak", "country_iso2": "IR", "state": "Tehrān", "is_capital": false, "latitude": 35.4267, "longitude": 51.5842, "population": 231075}, {"name": "Qazvīn", "country_iso2": "IR", "state": "Qazvīn", "is_capital": true, "latitude": 36.2886, "longitude": 50.0069, "population": 402748}, {"name": "Qaşr-e Qand", "country_iso2": "IR", "state": "Sīstān va Balūchestān", "is_capital": false, "latitude": 26.2356, "longitude": 60.7408, "population": 11605}, {"name": "Qaşr-e Qomsheh", "country_iso2": "IR", "state": "Fārs", "is_capital": false, "latitude": 29.7756, "longitude": 52.4417, "population": 10890}, {"name": "Qaşr-e Shīrīn", "country_iso2": "IR", "state": "Kermānshāh", "is_capital": false, "latitude": 34.5117, "longitude": 45.5792, "population": 18473}, {"name": "Qeshm", "country_iso2": "IR", "state": "Hormozgān", "is_capital": false, "latitude": 26.9494, "longitude": 56.2681, "population": 40678}, {"name": "Qom", "country_iso2": "IR", "state": "Qom", "is_capital": true, "latitude": 34.64, "longitude": 50.8764, "population": 1201158}, {"name": "Qorveh", "country_iso2": "IR", "state": "Kordestān", "is_capital": false, "latitude": 35.1678, "longitude": 47.8008, "population": 78276}, {"name": "Qorveh", "country_iso2": "IR", "state": "Hamadān", "is_capital": false, "latitude": 35.3089, "longitude": 49.1011, "population": 9540}, {"name": "Qārī Kolā-ye Araţeh", "country_iso2": "IR", "state": "Māzandarān", "is_capital": false, "latitude": 36.4917, "longitude": 52.9531, "population": 10327}, {"name": "Qā’em Shahr", "country_iso2": "IR", "state": "Māzandarān", "is_capital": false, "latitude": 36.4636, "longitude": 52.8581, "population": 247953}, {"name": "Qā’emīyeh", "country_iso2": "IR", "state": "Fārs", "is_capital": false, "latitude": 29.8525, "longitude": 51.5842, "population": 26918}, {"name": "Qā’en", "country_iso2": "IR", "state": "Khorāsān-e Jonūbī", "is_capital": false, "latitude": 33.7333, "longitude": 59.1811, "population": 42323}, {"name": "Qūchān", "country_iso2": "IR", "state": "Khorāsān-e Raẕavī", "is_capital": false, "latitude": 37.106, "longitude": 58.5095, "population": 145531}, {"name": "Rafsanjān", "country_iso2": "IR", "state": "Kermān", "is_capital": false, "latitude": 30.3983, "longitude": 55.9919, "population": 161909}, {"name": "Rasht", "country_iso2": "IR", "state": "Gīlān", "is_capital": true, "latitude": 37.2744, "longitude": 49.5889, "population": 679995}, {"name": "Ravānsar", "country_iso2": "IR", "state": "Kermānshāh", "is_capital": false, "latitude": 34.7156, "longitude": 46.6519, "population": 24527}, {"name": "Razan", "country_iso2": "IR", "state": "Hamadān", "is_capital": false, "latitude": 35.3925, "longitude": 49.0331, "population": 14275}, {"name": "Reẕvānshahr", "country_iso2": "IR", "state": "Gīlān", "is_capital": false, "latitude": 37.5481, "longitude": 49.1356, "population": 12355}, {"name": "Robāţ Karīm", "country_iso2": "IR", "state": "Tehrān", "is_capital": false, "latitude": 35.4819, "longitude": 51.0808, "population": 105393}, {"name": "Rostam Kolā", "country_iso2": "IR", "state": "Māzandarān", "is_capital": false, "latitude": 36.6789, "longitude": 53.4297, "population": 11686}, {"name": "Rostamābād", "country_iso2": "IR", "state": "Gīlān", "is_capital": false, "latitude": 36.8994, "longitude": 49.4931, "population": 13746}, {"name": "Rābor", "country_iso2": "IR", "state": "Kermān", "is_capital": false, "latitude": 29.2903, "longitude": 56.9133, "population": 13263}, {"name": "Rāmhormoz", "country_iso2": "IR", "state": "Khūzestān", "is_capital": false, "latitude": 31.2753, "longitude": 49.6044, "population": 74285}, {"name": "Rāmsar", "country_iso2": "IR", "state": "Māzandarān", "is_capital": false, "latitude": 36.9225, "longitude": 50.6431, "population": 35997}, {"name": "Rāmshīr", "country_iso2": "IR", "state": "Khūzestān", "is_capital": false, "latitude": 30.8936, "longitude": 49.4086, "population": 25009}, {"name": "Rāsak", "country_iso2": "IR", "state": "Sīstān va Balūchestān", "is_capital": false, "latitude": 26.2356, "longitude": 61.4014, "population": 10115}, {"name": "Rāvar", "country_iso2": "IR", "state": "Kermān", "is_capital": false, "latitude": 31.2633, "longitude": 56.8072, "population": 22729}, {"name": "Rāyen", "country_iso2": "IR", "state": "Kermān", "is_capital": false, "latitude": 29.5981, "longitude": 57.4383, "population": 10286}, {"name": "Rūdehen", "country_iso2": "IR", "state": "Tehrān", "is_capital": false, "latitude": 35.7356, "longitude": 51.9072, "population": 28533}, {"name": "Rūdsar", "country_iso2": "IR", "state": "Gīlān", "is_capital": false, "latitude": 37.1444, "longitude": 50.2936, "population": 37998}, {"name": "Sabzevār", "country_iso2": "IR", "state": "Khorāsān-e Raẕavī", "is_capital": false, "latitude": 36.2125, "longitude": 57.6764, "population": 243700}, {"name": "Salmānshahr", "country_iso2": "IR", "state": "Māzandarān", "is_capital": false, "latitude": 36.7058, "longitude": 51.1975, "population": 9656}, {"name": "Salmās", "country_iso2": "IR", "state": "Āz̄arbāyjān-e Gharbī", "is_capital": false, "latitude": 38.2028, "longitude": 44.7669, "population": 127864}, {"name": "Sanandaj", "country_iso2": "IR", "state": "Kordestān", "is_capital": true, "latitude": 35.3114, "longitude": 46.9961, "population": 412767}, {"name": "Sangar", "country_iso2": "IR", "state": "Gīlān", "is_capital": false, "latitude": 37.1797, "longitude": 49.6942, "population": 12583}, {"name": "Sangān", "country_iso2": "IR", "state": "Khorāsān-e Raẕavī", "is_capital": false, "latitude": 34.3961, "longitude": 60.2572, "population": 12443}, {"name": "Saqqez", "country_iso2": "IR", "state": "Kordestān", "is_capital": false, "latitude": 36.2411, "longitude": 46.2706, "population": 165258}, {"name": "Sarakhs", "country_iso2": "IR", "state": "Khorāsān-e Raẕavī", "is_capital": false, "latitude": 36.5425, "longitude": 61.1589, "population": 42179}, {"name": "Sarbīsheh", "country_iso2": "IR", "state": "Khorāsān-e Jonūbī", "is_capital": false, "latitude": 32.5775, "longitude": 59.7961, "population": 8715}, {"name": "Sardasht", "country_iso2": "IR", "state": "Āz̄arbāyjān-e Gharbī", "is_capital": false, "latitude": 36.1553, "longitude": 45.48, "population": 46412}, {"name": "Sardrūd", "country_iso2": "IR", "state": "Āz̄arbāyjān-e Sharqī", "is_capital": false, "latitude": 38.0267, "longitude": 46.1528, "population": 29739}, {"name": "Sarpol-e Z̄ahāb", "country_iso2": "IR", "state": "Kermānshāh", "is_capital": false, "latitude": 34.4589, "longitude": 45.8614, "population": 34632}, {"name": "Sartā", "country_iso2": "IR", "state": "Māzandarān", "is_capital": false, "latitude": 36.4486, "longitude": 53.3233, "population": 271467}, {"name": "Sarvestān", "country_iso2": "IR", "state": "Fārs", "is_capital": false, "latitude": 29.2739, "longitude": 53.2203, "population": 18187}, {"name": "Sarāb", "country_iso2": "IR", "state": "Āz̄arbāyjān-e Sharqī", "is_capital": false, "latitude": 37.9422, "longitude": 47.5361, "population": 42057}, {"name": "Sarāb-e Tāveh-ye ‘Olyā", "country_iso2": "IR", "state": "Kohgīlūyeh va Bowyer Aḩmad", "is_capital": false, "latitude": 30.5981, "longitude": 51.5761, "population": 11195}, {"name": "Sarābleh", "country_iso2": "IR", "state": "Īlām", "is_capital": false, "latitude": 33.7683, "longitude": 46.5619, "population": 12393}, {"name": "Sarāvān", "country_iso2": "IR", "state": "Sīstān va Balūchestān", "is_capital": false, "latitude": 27.3708, "longitude": 62.3325, "population": 60014}, {"name": "Sarāyān", "country_iso2": "IR", "state": "Khorāsān-e Jonūbī", "is_capital": false, "latitude": 33.8636, "longitude": 58.5211, "population": 13795}, {"name": "Sa‘ādat Shahr", "country_iso2": "IR", "state": "Fārs", "is_capital": false, "latitude": 30.0772, "longitude": 53.1328, "population": 17131}, {"name": "Sa‘īdī", "country_iso2": "IR", "state": "Kermān", "is_capital": false, "latitude": 30.3364, "longitude": 57.0994, "population": 8626}, {"name": "Sedeh Lanjān", "country_iso2": "IR", "state": "Eşfahān", "is_capital": false, "latitude": 32.3786, "longitude": 51.3178, "population": 17335}, {"name": "Semnān", "country_iso2": "IR", "state": "Semnān", "is_capital": true, "latitude": 35.5811, "longitude": 53.3833, "population": 185129}, {"name": "Semīrom", "country_iso2": "IR", "state": "Eşfahān", "is_capital": false, "latitude": 31.4094, "longitude": 51.5736, "population": 26260}, {"name": "Senjān", "country_iso2": "IR", "state": "Markazī", "is_capital": false, "latitude": 34.0506, "longitude": 49.6214, "population": 12249}, {"name": "Sepīdān", "country_iso2": "IR", "state": "Fārs", "is_capital": false, "latitude": 30.2594, "longitude": 51.9853, "population": 14633}, {"name": "Seyah Cheshmeh", "country_iso2": "IR", "state": "Āz̄arbāyjān-e Gharbī", "is_capital": false, "latitude": 39.0619, "longitude": 44.3825, "population": 17804}, {"name": "Seyyedān", "country_iso2": "IR", "state": "Fārs", "is_capital": false, "latitude": 30.0019, "longitude": 53.0033, "population": 8574}, {"name": "Shabestar", "country_iso2": "IR", "state": "Āz̄arbāyjān-e Sharqī", "is_capital": false, "latitude": 38.18, "longitude": 45.7031, "population": 22181}, {"name": "Shahmīrzād", "country_iso2": "IR", "state": "Semnān", "is_capital": false, "latitude": 35.77, "longitude": 53.3336, "population": 11191}, {"name": "Shahr-e Bābak", "country_iso2": "IR", "state": "Kermān", "is_capital": false, "latitude": 30.1214, "longitude": 55.1228, "population": 43916}, {"name": "Shahr-e Herāt", "country_iso2": "IR", "state": "Yazd", "is_capital": false, "latitude": 30.0547, "longitude": 54.3717, "population": 13032}, {"name": "Shahr-e Kord", "country_iso2": "IR", "state": "Chahār Maḩāl va Bakhtīārī", "is_capital": true, "latitude": 32.3322, "longitude": 50.8564, "population": 190441}, {"name": "Shahr-e Majlesī", "country_iso2": "IR", "state": "Eşfahān", "is_capital": false, "latitude": 32.1936, "longitude": 51.5006, "population": 9363}, {"name": "Shahr-e Pīr", "country_iso2": "IR", "state": "Fārs", "is_capital": false, "latitude": 28.3122, "longitude": 54.3328, "population": 8927}, {"name": "Shahr-e Qods", "country_iso2": "IR", "state": "Tehrān", "is_capital": false, "latitude": 35.7103, "longitude": 51.1131, "population": 309605}, {"name": "Shahrak-e Enqelāb", "country_iso2": "IR", "state": "Tehrān", "is_capital": false, "latitude": 35.5156, "longitude": 51.6867, "population": 10344}, {"name": "Shahrak-e Ja‘farīyeh", "country_iso2": "IR", "state": "Tehrān", "is_capital": false, "latitude": 35.6617, "longitude": 50.9947, "population": 9452}, {"name": "Shahrak-e Pārs", "country_iso2": "IR", "state": "Tehrān", "is_capital": false, "latitude": 35.6075, "longitude": 51.3797, "population": 8625}, {"name": "Shahreẕā", "country_iso2": "IR", "state": "Eşfahān", "is_capital": false, "latitude": 32.0122, "longitude": 51.8594, "population": 134952}, {"name": "Shahrābād", "country_iso2": "IR", "state": "Tehrān", "is_capital": false, "latitude": 35.6883, "longitude": 50.8397, "population": 32476}, {"name": "Shahrīār", "country_iso2": "IR", "state": "Tehrān", "is_capital": false, "latitude": 35.6531, "longitude": 51.06, "population": 309607}, {"name": "Shamsābād", "country_iso2": "IR", "state": "Khūzestān", "is_capital": false, "latitude": 32.2978, "longitude": 48.4283, "population": 10858}, {"name": "Sheybān", "country_iso2": "IR", "state": "Khūzestān", "is_capital": false, "latitude": 31.4061, "longitude": 48.7944, "population": 23211}, {"name": "Showţ", "country_iso2": "IR", "state": "Āz̄arbāyjān-e Gharbī", "is_capital": false, "latitude": 39.2197, "longitude": 44.7722, "population": 25381}, {"name": "Shādegān", "country_iso2": "IR", "state": "Khūzestān", "is_capital": false, "latitude": 30.6492, "longitude": 48.6653, "population": 41733}, {"name": "Shāhedshahr", "country_iso2": "IR", "state": "Tehrān", "is_capital": false, "latitude": 35.5731, "longitude": 51.0869, "population": 25544}, {"name": "Shāhrūd", "country_iso2": "IR", "state": "Semnān", "is_capital": false, "latitude": 36.4133, "longitude": 54.9781, "population": 165000}, {"name": "Shāhīn Dezh", "country_iso2": "IR", "state": "Āz̄arbāyjān-e Gharbī", "is_capital": false, "latitude": 36.6806, "longitude": 46.5681, "population": 34204}, {"name": "Shāhīn Shahr", "country_iso2": "IR", "state": "Eşfahān", "is_capital": false, "latitude": 32.8606, "longitude": 51.5531, "population": 173329}, {"name": "Shāl", "country_iso2": "IR", "state": "Qazvīn", "is_capital": false, "latitude": 35.8992, "longitude": 49.7689, "population": 15290}, {"name": "Shāndīz", "country_iso2": "IR", "state": "Khorāsān-e Raẕavī", "is_capital": false, "latitude": 36.3961, "longitude": 59.3092, "population": 13987}, {"name": "Shāzand", "country_iso2": "IR", "state": "Markazī", "is_capital": false, "latitude": 33.9292, "longitude": 49.4103, "population": 21181}, {"name": "Shīrvān", "country_iso2": "IR", "state": "Khorāsān-e Shomālī", "is_capital": false, "latitude": 37.4019, "longitude": 57.9281, "population": 82689}, {"name": "Shīrāz", "country_iso2": "IR", "state": "Fārs", "is_capital": true, "latitude": 29.61, "longitude": 52.5425, "population": 1565572}, {"name": "Shūsh", "country_iso2": "IR", "state": "Khūzestān", "is_capital": false, "latitude": 32.1947, "longitude": 48.2475, "population": 77148}, {"name": "Shūshtar", "country_iso2": "IR", "state": "Khūzestān", "is_capital": false, "latitude": 32.045, "longitude": 48.8594, "population": 101878}, {"name": "Sonqor", "country_iso2": "IR", "state": "Kermānshāh", "is_capital": false, "latitude": 34.7828, "longitude": 47.5983, "population": 44256}, {"name": "Sorkheh", "country_iso2": "IR", "state": "Semnān", "is_capital": false, "latitude": 35.4644, "longitude": 53.2086, "population": 9951}, {"name": "Sārī", "country_iso2": "IR", "state": "Māzandarān", "is_capital": true, "latitude": 36.5633, "longitude": 53.0601, "population": null}, {"name": "Sāveh", "country_iso2": "IR", "state": "Markazī", "is_capital": false, "latitude": 35.0278, "longitude": 50.3611, "population": 220762}, {"name": "Sīmīn Shahr", "country_iso2": "IR", "state": "Golestān", "is_capital": false, "latitude": 37.0264, "longitude": 54.2214, "population": 17205}, {"name": "Sīrjān", "country_iso2": "IR", "state": "Kermān", "is_capital": false, "latitude": 29.437, "longitude": 55.6802, "population": 175000}, {"name": "Sīāhkal", "country_iso2": "IR", "state": "Gīlān", "is_capital": false, "latitude": 37.1536, "longitude": 49.8711, "population": 19924}, {"name": "Sūrak", "country_iso2": "IR", "state": "Māzandarān", "is_capital": false, "latitude": 36.5939, "longitude": 53.2086, "population": 9208}, {"name": "Sūreshjān", "country_iso2": "IR", "state": "Chahār Maḩāl va Bakhtīārī", "is_capital": false, "latitude": 32.3167, "longitude": 50.6764, "population": 12308}, {"name": "Sūrān", "country_iso2": "IR", "state": "Sīstān va Balūchestān", "is_capital": false, "latitude": 27.2883, "longitude": 61.9997, "population": 13580}, {"name": "Sūsangerd", "country_iso2": "IR", "state": "Khūzestān", "is_capital": false, "latitude": 31.5569, "longitude": 48.1894, "population": 51431}, {"name": "Tabrīz", "country_iso2": "IR", "state": "Āz̄arbāyjān-e Sharqī", "is_capital": true, "latitude": 38.0817, "longitude": 46.2992, "population": 1558693}, {"name": "Tafresh", "country_iso2": "IR", "state": "Markazī", "is_capital": false, "latitude": 34.6942, "longitude": 50.0211, "population": 16493}, {"name": "Taft", "country_iso2": "IR", "state": "Yazd", "is_capital": false, "latitude": 31.7494, "longitude": 54.2089, "population": 18464}, {"name": "Tajrīsh", "country_iso2": "IR", "state": "Tehrān", "is_capital": false, "latitude": 35.8056, "longitude": 51.4381, "population": 86000}, {"name": "Takāb", "country_iso2": "IR", "state": "Āz̄arbāyjān-e Gharbī", "is_capital": false, "latitude": 36.4008, "longitude": 47.1108, "population": 43702}, {"name": "Tehran", "country_iso2": "IR", "state": "Tehrān", "is_capital": true, "latitude": 35.6889, "longitude": 51.3897, "population": 14148000}, {"name": "Tonekābon", "country_iso2": "IR", "state": "Māzandarān", "is_capital": false, "latitude": 36.8153, "longitude": 50.8711, "population": 55434}, {"name": "Torbat-e Jām", "country_iso2": "IR", "state": "Khorāsān-e Raẕavī", "is_capital": false, "latitude": 35.2431, "longitude": 60.625, "population": 100449}, {"name": "Torbat-e Ḩeydarīyeh", "country_iso2": "IR", "state": "Khorāsān-e Raẕavī", "is_capital": false, "latitude": 35.2872, "longitude": 59.2219, "population": 140019}, {"name": "Tākestān", "country_iso2": "IR", "state": "Qazvīn", "is_capital": false, "latitude": 36.0672, "longitude": 49.6958, "population": 80299}, {"name": "Tāybād", "country_iso2": "IR", "state": "Khorāsān-e Raẕavī", "is_capital": false, "latitude": 34.7408, "longitude": 60.7792, "population": 56562}, {"name": "Tīrān", "country_iso2": "IR", "state": "Eşfahān", "is_capital": false, "latitude": 32.7039, "longitude": 51.1525, "population": 15673}, {"name": "Tūyserkān", "country_iso2": "IR", "state": "Hamadān", "is_capital": false, "latitude": 34.5528, "longitude": 48.4417, "population": 50455}, {"name": "Varzaneh", "country_iso2": "IR", "state": "Eşfahān", "is_capital": false, "latitude": 32.4197, "longitude": 52.6478, "population": 12714}, {"name": "Varāmīn", "country_iso2": "IR", "state": "Tehrān", "is_capital": false, "latitude": 35.3503, "longitude": 51.6364, "population": 225628}, {"name": "Vaḩdattīyeh", "country_iso2": "IR", "state": "Būshehr", "is_capital": false, "latitude": 29.4842, "longitude": 51.2319, "population": 11222}, {"name": "Veys", "country_iso2": "IR", "state": "Khūzestān", "is_capital": false, "latitude": 31.4861, "longitude": 48.8747, "population": 15312}, {"name": "Yazd", "country_iso2": "IR", "state": "Yazd", "is_capital": true, "latitude": 31.8822, "longitude": 54.3397, "population": 529673}, {"name": "Yāsūj", "country_iso2": "IR", "state": "Kohgīlūyeh va Bowyer Aḩmad", "is_capital": true, "latitude": 30.6672, "longitude": 51.5797, "population": 108505}, {"name": "Zanjān", "country_iso2": "IR", "state": "Zanjān", "is_capital": true, "latitude": 36.6864, "longitude": 48.4953, "population": 386851}, {"name": "Zarand", "country_iso2": "IR", "state": "Kermān", "is_capital": false, "latitude": 30.8108, "longitude": 56.5658, "population": 57749}, {"name": "Zarqān", "country_iso2": "IR", "state": "Fārs", "is_capital": false, "latitude": 29.7683, "longitude": 52.7186, "population": 32261}, {"name": "Zarrīn Shahr", "country_iso2": "IR", "state": "Eşfahān", "is_capital": false, "latitude": 32.3889, "longitude": 51.3733, "population": 55817}, {"name": "Zehak", "country_iso2": "IR", "state": "Sīstān va Balūchestān", "is_capital": false, "latitude": 30.8933, "longitude": 61.6789, "population": 13357}, {"name": "Zeydābād", "country_iso2": "IR", "state": "Kermān", "is_capital": false, "latitude": 29.6008, "longitude": 55.5367, "population": 9112}, {"name": "Zābol", "country_iso2": "IR", "state": "Sīstān va Balūchestān", "is_capital": false, "latitude": 31.0339, "longitude": 61.4878, "population": 134950}, {"name": "Zābolī", "country_iso2": "IR", "state": "Sīstān va Balūchestān", "is_capital": false, "latitude": 27.1283, "longitude": 61.6722, "population": 12245}, {"name": "Zāhed Shahr", "country_iso2": "IR", "state": "Fārs", "is_capital": false, "latitude": 28.7461, "longitude": 53.8039, "population": 9719}, {"name": "Zāhedān", "country_iso2": "IR", "state": "Sīstān va Balūchestān", "is_capital": true, "latitude": 29.5025, "longitude": 60.8558, "population": 587730}, {"name": "Zārach", "country_iso2": "IR", "state": "Yazd", "is_capital": false, "latitude": 31.9908, "longitude": 54.2319, "population": 11691}, {"name": "Āb Pakhsh", "country_iso2": "IR", "state": "Būshehr", "is_capital": false, "latitude": 29.3611, "longitude": 51.0717, "population": 18913}, {"name": "Ābyek", "country_iso2": "IR", "state": "Qazvīn", "is_capital": false, "latitude": 36.0411, "longitude": 50.5306, "population": 60107}, {"name": "Āmol", "country_iso2": "IR", "state": "Māzandarān", "is_capital": false, "latitude": 36.4703, "longitude": 52.3467, "population": 237528}, {"name": "Ārān Bīdgol", "country_iso2": "IR", "state": "Eşfahān", "is_capital": false, "latitude": 34.0589, "longitude": 51.4817, "population": 65404}, {"name": "Āshkhāneh", "country_iso2": "IR", "state": "Khorāsān-e Shomālī", "is_capital": false, "latitude": 37.5578, "longitude": 56.9258, "population": 25104}, {"name": "Āshtīān", "country_iso2": "IR", "state": "Markazī", "is_capital": false, "latitude": 34.5222, "longitude": 50.0069, "population": 8763}, {"name": "Āstāneh-ye Ashrafīyeh", "country_iso2": "IR", "state": "Gīlān", "is_capital": false, "latitude": 37.2658, "longitude": 49.9431, "population": 44941}, {"name": "Āzādshahr", "country_iso2": "IR", "state": "Golestān", "is_capital": false, "latitude": 37.0869, "longitude": 55.1742, "population": 43760}, {"name": "Āz̄arshahr", "country_iso2": "IR", "state": "Āz̄arbāyjān-e Sharqī", "is_capital": false, "latitude": 37.7628, "longitude": 45.9758, "population": 44887}, {"name": "Īlkhchī", "country_iso2": "IR", "state": "Āz̄arbāyjān-e Sharqī", "is_capital": false, "latitude": 37.9373, "longitude": 45.979, "population": 16574}, {"name": "Īlkhechī", "country_iso2": "IR", "state": "Āz̄arbāyjān-e Sharqī", "is_capital": false, "latitude": 37.9358, "longitude": 45.9794, "population": 16574}, {"name": "Īlām", "country_iso2": "IR", "state": "Īlām", "is_capital": true, "latitude": 33.6374, "longitude": 46.4227, "population": null}, {"name": "Īrānshahr", "country_iso2": "IR", "state": "Sīstān va Balūchestān", "is_capital": false, "latitude": 27.1978, "longitude": 60.6836, "population": 113750}, {"name": "Şabbāshahr", "country_iso2": "IR", "state": "Tehrān", "is_capital": false, "latitude": 35.5817, "longitude": 51.1119, "population": 53971}, {"name": "Şafāshahr", "country_iso2": "IR", "state": "Fārs", "is_capital": false, "latitude": 30.6133, "longitude": 53.1928, "population": 26933}, {"name": "Şaḩneh", "country_iso2": "IR", "state": "Kermānshāh", "is_capital": false, "latitude": 34.4819, "longitude": 47.69, "population": 35508}, {"name": "Şowme‘eh Sarā", "country_iso2": "IR", "state": "Gīlān", "is_capital": false, "latitude": 37.3, "longitude": 49.3142, "population": 47083}, {"name": "Şā’īn Qal‘eh", "country_iso2": "IR", "state": "Zanjān", "is_capital": false, "latitude": 36.3044, "longitude": 49.0722, "population": 11083}, {"name": "Şūfīān", "country_iso2": "IR", "state": "Āz̄arbāyjān-e Sharqī", "is_capital": false, "latitude": 38.2775, "longitude": 45.9808, "population": 9963}, {"name": "Ţabas", "country_iso2": "IR", "state": "Khorāsān-e Jonūbī", "is_capital": false, "latitude": 33.5961, "longitude": 56.9281, "population": 39676}, {"name": "Ţorqabeh", "country_iso2": "IR", "state": "Khorāsān-e Raẕavī", "is_capital": false, "latitude": 36.3142, "longitude": 59.3725, "population": 20998}, {"name": "Ţālkhvoncheh", "country_iso2": "IR", "state": "Eşfahān", "is_capital": false, "latitude": 32.2622, "longitude": 51.5603, "population": 9924}, {"name": "Ḩamīdīyeh", "country_iso2": "IR", "state": "Khūzestān", "is_capital": false, "latitude": 31.4811, "longitude": 48.435, "population": 22057}, {"name": "Ḩaşşeh", "country_iso2": "IR", "state": "Eşfahān", "is_capital": false, "latitude": 32.7067, "longitude": 51.7556, "population": 10942}, {"name": "Ḩeşārcheh-ye Pā’īn", "country_iso2": "IR", "state": "Khorāsān-e Shomālī", "is_capital": false, "latitude": 38.18, "longitude": 56.45, "population": 9826}, {"name": "Ḩorr-e Rīāḩī", "country_iso2": "IR", "state": "Khūzestān", "is_capital": false, "latitude": 32.1444, "longitude": 48.3906, "population": 9177}, {"name": "‘Ajab Shīr", "country_iso2": "IR", "state": "Āz̄arbāyjān-e Sharqī", "is_capital": false, "latitude": 37.4833, "longitude": 45.8911, "population": 33606}, {"name": "‘Alīābād-e Katūl", "country_iso2": "IR", "state": "Golestān", "is_capital": false, "latitude": 36.9075, "longitude": 54.8667, "population": 52838}, {"name": "‘Anbarābād", "country_iso2": "IR", "state": "Kermān", "is_capital": false, "latitude": 28.4794, "longitude": 57.8414, "population": 18185}, {"name": "‘Ālī Shahr", "country_iso2": "IR", "state": "Būshehr", "is_capital": false, "latitude": 28.9269, "longitude": 51.0653, "population": 23178}]