[{"name": "Al Fuḩayş", "country_iso2": "JO", "state": "Al Balqā’", "is_capital": false, "latitude": 32.0167, "longitude": 35.7667, "population": 21908}, {"name": "Al Juwayyidah", "country_iso2": "JO", "state": "Al ‘Āşimah", "is_capital": false, "latitude": 31.9167, "longitude": 35.95, "population": 176400}, {"name": "Al Jīzah", "country_iso2": "JO", "state": "Al ‘Āşimah", "is_capital": false, "latitude": 31.6833, "longitude": 35.95, "population": 110097}, {"name": "Al Karak", "country_iso2": "JO", "state": "Al Karak", "is_capital": true, "latitude": 31.1833, "longitude": 35.7, "population": 21678}, {"name": "Al Mafraq", "country_iso2": "JO", "state": "Al Mafraq", "is_capital": true, "latitude": 32.3399, "longitude": 36.2052, "population": 580000}, {"name": "Al Mazār ash Shamālī", "country_iso2": "JO", "state": "Irbid", "is_capital": false, "latitude": 32.4725, "longitude": 35.7928, "population": 16000}, {"name": "Al Ḩişn", "country_iso2": "JO", "state": "Irbid", "is_capital": false, "latitude": 32.4583, "longitude": 35.8583, "population": 35085}, {"name": "Al ‘Aqabah", "country_iso2": "JO", "state": "Al ‘Aqabah", "is_capital": true, "latitude": 29.5322, "longitude": 35.0061, "population": 140000}, {"name": "Amman", "country_iso2": "JO", "state": "Al ‘Āşimah", "is_capital": true, "latitude": 31.9497, "longitude": 35.9328, "population": 4007526}, {"name": "Ar Ramthā", "country_iso2": "JO", "state": "Irbid", "is_capital": false, "latitude": 32.5589, "longitude": 36.0147, "population": 155693}, {"name": "Ar Ruşayfah", "country_iso2": "JO", "state": "Az Zarqā’", "is_capital": false, "latitude": 32.0178, "longitude": 36.0464, "population": 472604}, {"name": "As Salţ", "country_iso2": "JO", "state": "Al Balqā’", "is_capital": true, "latitude": 32.0333, "longitude": 35.7333, "population": 88900}, {"name": "Ash Shajarah", "country_iso2": "JO", "state": "Irbid", "is_capital": false, "latitude": 32.6417, "longitude": 35.9417, "population": 27902}, {"name": "Ash Shūnah ash Shamālīyah", "country_iso2": "JO", "state": "Irbid", "is_capital": false, "latitude": 32.61, "longitude": 35.6081, "population": 25000}, {"name": "Az Zarqā’", "country_iso2": "JO", "state": "Az Zarqā’", "is_capital": true, "latitude": 32.0833, "longitude": 36.1, "population": 481300}, {"name": "Aţ Ţafīlah", "country_iso2": "JO", "state": "Aţ Ţafīlah", "is_capital": true, "latitude": 30.8375, "longitude": 35.6044, "population": 23512}, {"name": "Aţ Ţurrah", "country_iso2": "JO", "state": "Irbid", "is_capital": false, "latitude": 32.6368, "longitude": 35.99, "population": 34948}, {"name": "Buşayrā", "country_iso2": "JO", "state": "Aţ Ţafīlah", "is_capital": false, "latitude": 30.7326, "longitude": 35.6094, "population": 10587}, {"name": "Dayr Abū Sa‘īd", "country_iso2": "JO", "state": "Irbid", "is_capital": false, "latitude": 32.5025, "longitude": 35.6922, "population": 29590}, {"name": "Irbid", "country_iso2": "JO", "state": "Irbid", "is_capital": true, "latitude": 32.55, "longitude": 35.85, "population": 569068}, {"name": "Jarash", "country_iso2": "JO", "state": "Jarash", "is_capital": true, "latitude": 32.2806, "longitude": 35.8972, "population": 50745}, {"name": "Kafr al Mā’", "country_iso2": "JO", "state": "Irbid", "is_capital": false, "latitude": 32.4839, "longitude": 35.6969, "population": 17919}, {"name": "Kafr ‘Awān", "country_iso2": "JO", "state": "Irbid", "is_capital": false, "latitude": 32.4167, "longitude": 35.6833, "population": 13056}, {"name": "Malkā", "country_iso2": "JO", "state": "Irbid", "is_capital": false, "latitude": 32.6653, "longitude": 35.7333, "population": 11706}, {"name": "Ma‘ān", "country_iso2": "JO", "state": "Ma‘ān", "is_capital": true, "latitude": 30.1962, "longitude": 35.7341, "population": 50350}, {"name": "Muthallath al Azraq", "country_iso2": "JO", "state": "Az Zarqā’", "is_capital": false, "latitude": 31.8342, "longitude": 36.815, "population": 14800}, {"name": "Mu’tah", "country_iso2": "JO", "state": "Al Karak", "is_capital": false, "latitude": 31.1, "longitude": 35.7, "population": 27426}, {"name": "Mādabā", "country_iso2": "JO", "state": "Mādabā", "is_capital": true, "latitude": 31.7167, "longitude": 35.8, "population": 84600}, {"name": "Māḩiş", "country_iso2": "JO", "state": "Al Balqā’", "is_capital": false, "latitude": 31.9833, "longitude": 35.7667, "population": 17754}, {"name": "Saḩāb", "country_iso2": "JO", "state": "Al ‘Āşimah", "is_capital": false, "latitude": 31.8667, "longitude": 36.0, "population": 169434}, {"name": "Sākib", "country_iso2": "JO", "state": "Jarash", "is_capital": false, "latitude": 32.2854, "longitude": 35.8113, "population": 11586}, {"name": "Şammā", "country_iso2": "JO", "state": "Irbid", "is_capital": false, "latitude": 32.57, "longitude": 35.69, "population": 18659}, {"name": "Ḩalāwah", "country_iso2": "JO", "state": "‘Ajlūn", "is_capital": false, "latitude": 32.3828, "longitude": 35.6619, "population": 8647}, {"name": "‘Ajlūn", "country_iso2": "JO", "state": "‘Ajlūn", "is_capital": true, "latitude": 32.3325, "longitude": 35.7517, "population": 148870}]