[{"name": "Abashiri", "country_iso2": "JP", "state": "Hokkaidō", "is_capital": false, "latitude": 44.0167, "longitude": 144.2667, "population": 34640}, {"name": "Abiko", "country_iso2": "JP", "state": "Chiba", "is_capital": false, "latitude": 35.8667, "longitude": 140.0333, "population": 130290}, {"name": "Adachi", "country_iso2": "JP", "state": "Tōkyō", "is_capital": false, "latitude": 35.7833, "longitude": 139.8, "population": 682326}, {"name": "Agano", "country_iso2": "JP", "state": "Niigata", "is_capital": false, "latitude": 37.8344, "longitude": 139.226, "population": 40382}, {"name": "Ageoshimo", "country_iso2": "JP", "state": "Saitama", "is_capital": false, "latitude": 35.9774, "longitude": 139.5932, "population": 226616}, {"name": "Agui", "country_iso2": "JP", "state": "Aichi", "is_capital": false, "latitude": 34.9333, "longitude": 136.9167, "population": 28176}, {"name": "Ainan", "country_iso2": "JP", "state": "Ehime", "is_capital": false, "latitude": 32.9667, "longitude": 132.5833, "population": 19131}, {"name": "Aioi", "country_iso2": "JP", "state": "Hyōgo", "is_capital": false, "latitude": 34.8, "longitude": 134.4667, "population": 28350}, {"name": "Aira", "country_iso2": "JP", "state": "Kagoshima", "is_capital": false, "latitude": 31.7283, "longitude": 130.6278, "population": 76610}, {"name": "Aisai", "country_iso2": "JP", "state": "Aichi", "is_capital": false, "latitude": 35.1528, "longitude": 136.7282, "population": 60914}, {"name": "Aishō", "country_iso2": "JP", "state": "Shiga", "is_capital": false, "latitude": 35.1667, "longitude": 136.2167, "population": 20913}, {"name": "Aizawa", "country_iso2": "JP", "state": "Kanagawa", "is_capital": false, "latitude": 35.5289, "longitude": 139.3217, "population": 39763}, {"name": "Aizubange", "country_iso2": "JP", "state": "Fukushima", "is_capital": false, "latitude": 37.5615, "longitude": 139.8216, "population": 14906}, {"name": "Aizumi", "country_iso2": "JP", "state": "Tokushima", "is_capital": false, "latitude": 34.1266, "longitude": 134.4951, "population": 35269}, {"name": "Aizumisato", "country_iso2": "JP", "state": "Fukushima", "is_capital": false, "latitude": 37.4599, "longitude": 139.8411, "population": 19078}, {"name": "Aizuwakamatsu", "country_iso2": "JP", "state": "Fukushima", "is_capital": false, "latitude": 37.4948, "longitude": 139.9298, "population": 117924}, {"name": "Akabira", "country_iso2": "JP", "state": "Hokkaidō", "is_capital": false, "latitude": 43.55, "longitude": 142.05, "population": 9644}, {"name": "Akaiwa", "country_iso2": "JP", "state": "Okayama", "is_capital": false, "latitude": 34.7553, "longitude": 134.0189, "population": 42341}, {"name": "Akayu", "country_iso2": "JP", "state": "Yamagata", "is_capital": false, "latitude": 38.05, "longitude": 140.1833, "population": 12860}, {"name": "Aki", "country_iso2": "JP", "state": "Kōchi", "is_capital": false, "latitude": 33.5, "longitude": 133.9, "population": 16370}, {"name": "Akiruno", "country_iso2": "JP", "state": "Tōkyō", "is_capital": false, "latitude": 35.7289, "longitude": 139.2941, "population": 79600}, {"name": "Akishima", "country_iso2": "JP", "state": "Tōkyō", "is_capital": false, "latitude": 35.7057, "longitude": 139.3535, "population": 112110}, {"name": "Akita", "country_iso2": "JP", "state": "Akita", "is_capital": true, "latitude": 39.72, "longitude": 140.1026, "population": 302984}, {"name": "Akitakata", "country_iso2": "JP", "state": "Hiroshima", "is_capital": false, "latitude": 34.6631, "longitude": 132.7064, "population": 27249}, {"name": "Akune", "country_iso2": "JP", "state": "Kagoshima", "is_capital": false, "latitude": 32.0144, "longitude": 130.1928, "population": 19009}, {"name": "Ama", "country_iso2": "JP", "state": "Aichi", "is_capital": false, "latitude": 35.2004, "longitude": 136.7832, "population": 87668}, {"name": "Amagasaki", "country_iso2": "JP", "state": "Hyōgo", "is_capital": false, "latitude": 34.7333, "longitude": 135.4, "population": 455555}, {"name": "Amakusa", "country_iso2": "JP", "state": "Kumamoto", "is_capital": false, "latitude": 32.4586, "longitude": 130.1931, "population": 74861}, {"name": "Amami", "country_iso2": "JP", "state": "Okinawa", "is_capital": false, "latitude": 28.3783, "longitude": 129.4944, "population": 41049}, {"name": "Ami", "country_iso2": "JP", "state": "Ibaraki", "is_capital": false, "latitude": 36.0308, "longitude": 140.2148, "population": 48072}, {"name": "Anan", "country_iso2": "JP", "state": "Tokushima", "is_capital": false, "latitude": 33.9167, "longitude": 134.6667, "population": 69259}, {"name": "Anjōmachi", "country_iso2": "JP", "state": "Aichi", "is_capital": false, "latitude": 34.9587, "longitude": 137.0803, "population": 188801}, {"name": "Annaka", "country_iso2": "JP", "state": "Gunma", "is_capital": false, "latitude": 36.3263, "longitude": 138.8871, "population": 54607}, {"name": "Anpachi", "country_iso2": "JP", "state": "Gifu", "is_capital": false, "latitude": 35.3353, "longitude": 136.6654, "population": 14330}, {"name": "Aomori", "country_iso2": "JP", "state": "Aomori", "is_capital": true, "latitude": 40.8228, "longitude": 140.7469, "population": 425962}, {"name": "Arai", "country_iso2": "JP", "state": "Shizuoka", "is_capital": false, "latitude": 34.6833, "longitude": 137.5667, "population": 16975}, {"name": "Arakawa", "country_iso2": "JP", "state": "Tōkyō", "is_capital": false, "latitude": 35.7333, "longitude": 139.7833, "population": 217891}, {"name": "Arakawa", "country_iso2": "JP", "state": "Niigata", "is_capital": false, "latitude": 38.1241, "longitude": 139.4438, "population": 10792}, {"name": "Arao", "country_iso2": "JP", "state": "Kumamoto", "is_capital": false, "latitude": 32.9867, "longitude": 130.4331, "population": 50570}, {"name": "Arida", "country_iso2": "JP", "state": "Wakayama", "is_capital": false, "latitude": 34.0833, "longitude": 135.1333, "population": 25737}, {"name": "Aridagawa", "country_iso2": "JP", "state": "Wakayama", "is_capital": false, "latitude": 34.05, "longitude": 135.2167, "population": 25169}, {"name": "Arita", "country_iso2": "JP", "state": "Saga", "is_capital": false, "latitude": 33.2106, "longitude": 129.8492, "population": 18867}, {"name": "Asagiri", "country_iso2": "JP", "state": "Kumamoto", "is_capital": false, "latitude": 32.2403, "longitude": 130.8978, "population": 14448}, {"name": "Asago", "country_iso2": "JP", "state": "Hyōgo", "is_capital": false, "latitude": 35.3333, "longitude": 134.85, "population": 28802}, {"name": "Asahi", "country_iso2": "JP", "state": "Chiba", "is_capital": false, "latitude": 35.7167, "longitude": 140.65, "population": 63507}, {"name": "Asahi", "country_iso2": "JP", "state": "Mie", "is_capital": false, "latitude": 35.0333, "longitude": 136.6667, "population": 11070}, {"name": "Asahi", "country_iso2": "JP", "state": "Toyama", "is_capital": false, "latitude": 36.9462, "longitude": 137.5599, "population": 10852}, {"name": "Asahikawa", "country_iso2": "JP", "state": "Hokkaidō", "is_capital": false, "latitude": 43.7667, "longitude": 142.3667, "population": 331392}, {"name": "Asaka", "country_iso2": "JP", "state": "Saitama", "is_capital": false, "latitude": 35.7972, "longitude": 139.5939, "population": 143915}, {"name": "Asakuchi", "country_iso2": "JP", "state": "Okayama", "is_capital": false, "latitude": 34.5247, "longitude": 133.5875, "population": 33382}, {"name": "Asakura", "country_iso2": "JP", "state": "Fukuoka", "is_capital": false, "latitude": 33.4233, "longitude": 130.6656, "population": 49254}, {"name": "Ashibetsu", "country_iso2": "JP", "state": "Hokkaidō", "is_capital": false, "latitude": 43.5167, "longitude": 142.1833, "population": 12775}, {"name": "Ashikaga", "country_iso2": "JP", "state": "Tochigi", "is_capital": false, "latitude": 36.3402, "longitude": 139.4497, "population": 142882}, {"name": "Ashikita", "country_iso2": "JP", "state": "Kumamoto", "is_capital": false, "latitude": 32.2994, "longitude": 130.4931, "population": 15621}, {"name": "Ashiya", "country_iso2": "JP", "state": "Hyōgo", "is_capital": false, "latitude": 34.7278, "longitude": 135.3033, "population": 94116}, {"name": "Ashiya", "country_iso2": "JP", "state": "Fukuoka", "is_capital": false, "latitude": 33.8939, "longitude": 130.6639, "population": 13559}, {"name": "Aso", "country_iso2": "JP", "state": "Kumamoto", "is_capital": false, "latitude": 32.9519, "longitude": 131.1214, "population": 24820}, {"name": "Asuke", "country_iso2": "JP", "state": "Aichi", "is_capital": false, "latitude": 35.134, "longitude": 137.1454, "population": 9699}, {"name": "Atami", "country_iso2": "JP", "state": "Shizuoka", "is_capital": false, "latitude": 35.096, "longitude": 139.0716, "population": 34233}, {"name": "Atsugichō", "country_iso2": "JP", "state": "Kanagawa", "is_capital": false, "latitude": 35.4333, "longitude": 139.3667, "population": 223815}, {"name": "Awa", "country_iso2": "JP", "state": "Tokushima", "is_capital": false, "latitude": 34.1014, "longitude": 134.2964, "population": 35631}, {"name": "Awaji", "country_iso2": "JP", "state": "Hyōgo", "is_capital": false, "latitude": 34.4333, "longitude": 134.9167, "population": 42597}, {"name": "Awara", "country_iso2": "JP", "state": "Fukui", "is_capital": false, "latitude": 36.2113, "longitude": 136.229, "population": 27107}, {"name": "Ayabe", "country_iso2": "JP", "state": "Kyōto", "is_capital": false, "latitude": 35.3, "longitude": 135.2667, "population": 31537}, {"name": "Ayagawa", "country_iso2": "JP", "state": "Kagawa", "is_capital": false, "latitude": 34.25, "longitude": 133.9167, "population": 22730}, {"name": "Ayase", "country_iso2": "JP", "state": "Kanagawa", "is_capital": false, "latitude": 35.4333, "longitude": 139.4333, "population": 84257}, {"name": "Azumino", "country_iso2": "JP", "state": "Nagano", "is_capital": false, "latitude": 36.3039, "longitude": 137.9058, "population": 93927}, {"name": "Bandō", "country_iso2": "JP", "state": "Ibaraki", "is_capital": false, "latitude": 36.0484, "longitude": 139.8887, "population": 51511}, {"name": "Beppu", "country_iso2": "JP", "state": "Ōita", "is_capital": false, "latitude": 33.2847, "longitude": 131.4914, "population": 115992}, {"name": "Betsukai", "country_iso2": "JP", "state": "Hokkaidō", "is_capital": false, "latitude": 43.4, "longitude": 145.1167, "population": 14828}, {"name": "Bibai", "country_iso2": "JP", "state": "Hokkaidō", "is_capital": false, "latitude": 43.3333, "longitude": 141.85, "population": 20507}, {"name": "Biei", "country_iso2": "JP", "state": "Hokkaidō", "is_capital": false, "latitude": 43.5833, "longitude": 142.4667, "population": 9775}, {"name": "Bizen", "country_iso2": "JP", "state": "Okayama", "is_capital": false, "latitude": 34.7453, "longitude": 134.1889, "population": 32019}, {"name": "Bungotakada", "country_iso2": "JP", "state": "Ōita", "is_capital": false, "latitude": 33.5561, "longitude": 131.4469, "population": 21901}, {"name": "Bungoōno", "country_iso2": "JP", "state": "Ōita", "is_capital": false, "latitude": 32.9775, "longitude": 131.5842, "population": 33066}, {"name": "Bunkyō-ku", "country_iso2": "JP", "state": "Tōkyō", "is_capital": false, "latitude": 35.7167, "longitude": 139.75, "population": 240069}, {"name": "Buzen", "country_iso2": "JP", "state": "Fukuoka", "is_capital": false, "latitude": 33.6114, "longitude": 131.1303, "population": 24369}, {"name": "Chatan", "country_iso2": "JP", "state": "Okinawa", "is_capital": false, "latitude": 26.32, "longitude": 127.7639, "population": 28167}, {"name": "Chiba", "country_iso2": "JP", "state": "Chiba", "is_capital": true, "latitude": 35.6073, "longitude": 140.1064, "population": 975014}, {"name": "Chichibu", "country_iso2": "JP", "state": "Saitama", "is_capital": false, "latitude": 35.9918, "longitude": 139.0855, "population": 59101}, {"name": "Chigasaki", "country_iso2": "JP", "state": "Kanagawa", "is_capital": false, "latitude": 35.3333, "longitude": 139.4, "population": 242347}, {"name": "Chikugo", "country_iso2": "JP", "state": "Fukuoka", "is_capital": false, "latitude": 33.2122, "longitude": 130.5019, "population": 48794}, {"name": "Chikuma", "country_iso2": "JP", "state": "Nagano", "is_capital": false, "latitude": 36.5339, "longitude": 138.12, "population": 58755}, {"name": "Chikura", "country_iso2": "JP", "state": "Chiba", "is_capital": false, "latitude": 34.95, "longitude": 139.95, "population": 12527}, {"name": "Chikusei", "country_iso2": "JP", "state": "Ibaraki", "is_capital": false, "latitude": 36.3071, "longitude": 139.9831, "population": 98384}, {"name": "Chikushino", "country_iso2": "JP", "state": "Fukuoka", "is_capital": false, "latitude": 33.4875, "longitude": 130.5258, "population": 103185}, {"name": "Chikuzen", "country_iso2": "JP", "state": "Fukuoka", "is_capital": false, "latitude": 33.4569, "longitude": 130.5953, "population": 29608}, {"name": "Chino", "country_iso2": "JP", "state": "Nagano", "is_capital": false, "latitude": 35.9955, "longitude": 138.1588, "population": 55018}, {"name": "Chiran", "country_iso2": "JP", "state": "Kagoshima", "is_capital": false, "latitude": 31.3783, "longitude": 130.4416, "population": 13667}, {"name": "Chiryū", "country_iso2": "JP", "state": "Aichi", "is_capital": false, "latitude": 35.0014, "longitude": 137.0506, "population": 71907}, {"name": "Chita", "country_iso2": "JP", "state": "Aichi", "is_capital": false, "latitude": 35.0, "longitude": 136.8667, "population": 83881}, {"name": "Chitose", "country_iso2": "JP", "state": "Hokkaidō", "is_capital": false, "latitude": 42.8167, "longitude": 141.65, "population": 97945}, {"name": "Chiyoda", "country_iso2": "JP", "state": "Gunma", "is_capital": false, "latitude": 36.2178, "longitude": 139.4424, "population": 10831}, {"name": "Chiyoda-ku", "country_iso2": "JP", "state": "Tōkyō", "is_capital": false, "latitude": 35.694, "longitude": 139.7536, "population": 67036}, {"name": "Choshi", "country_iso2": "JP", "state": "Chiba", "is_capital": false, "latitude": 35.7346, "longitude": 140.8268, "population": 54570}, {"name": "Chōfugaoka", "country_iso2": "JP", "state": "Tōkyō", "is_capital": false, "latitude": 35.6506, "longitude": 139.5407, "population": 238087}, {"name": "Chōsei", "country_iso2": "JP", "state": "Chiba", "is_capital": false, "latitude": 35.4167, "longitude": 140.35, "population": 13656}, {"name": "Chūō", "country_iso2": "JP", "state": "Yamanashi", "is_capital": false, "latitude": 35.5996, "longitude": 138.6339, "population": 30660}, {"name": "Chūō-ku", "country_iso2": "JP", "state": "Tōkyō", "is_capital": false, "latitude": 35.6667, "longitude": 139.7667, "population": 169179}, {"name": "Daigo", "country_iso2": "JP", "state": "Ibaraki", "is_capital": false, "latitude": 36.7681, "longitude": 140.3552, "population": 15491}, {"name": "Daisen", "country_iso2": "JP", "state": "Akita", "is_capital": false, "latitude": 39.4531, "longitude": 140.4754, "population": 76164}, {"name": "Daisen", "country_iso2": "JP", "state": "Tottori", "is_capital": false, "latitude": 35.5, "longitude": 133.5, "population": 15336}, {"name": "Daitōchō", "country_iso2": "JP", "state": "Ōsaka", "is_capital": false, "latitude": 34.7167, "longitude": 135.6167, "population": 118812}, {"name": "Daiwanishi", "country_iso2": "JP", "state": "Hyōgo", "is_capital": false, "latitude": 34.8892, "longitude": 135.4167, "population": 155165}, {"name": "Date", "country_iso2": "JP", "state": "Fukushima", "is_capital": false, "latitude": 37.8191, "longitude": 140.563, "population": 59625}, {"name": "Date", "country_iso2": "JP", "state": "Hokkaidō", "is_capital": false, "latitude": 42.4667, "longitude": 140.8667, "population": 33404}, {"name": "Dazaifu", "country_iso2": "JP", "state": "Fukuoka", "is_capital": false, "latitude": 33.5128, "longitude": 130.5239, "population": 72430}, {"name": "Ebetsu", "country_iso2": "JP", "state": "Hokkaidō", "is_capital": false, "latitude": 43.1, "longitude": 141.5333, "population": 119819}, {"name": "Ebina", "country_iso2": "JP", "state": "Kanagawa", "is_capital": false, "latitude": 35.4464, "longitude": 139.3908, "population": 135557}, {"name": "Ebino", "country_iso2": "JP", "state": "Miyazaki", "is_capital": false, "latitude": 32.0453, "longitude": 130.8108, "population": 17508}, {"name": "Echizen", "country_iso2": "JP", "state": "Fukui", "is_capital": false, "latitude": 35.9035, "longitude": 136.1687, "population": 80264}, {"name": "Echizen", "country_iso2": "JP", "state": "Fukui", "is_capital": false, "latitude": 35.9742, "longitude": 136.1298, "population": 19708}, {"name": "Edogawa", "country_iso2": "JP", "state": "Chiba", "is_capital": false, "latitude": 35.7, "longitude": 139.8833, "population": 697932}, {"name": "Eiheiji", "country_iso2": "JP", "state": "Fukui", "is_capital": false, "latitude": 36.0922, "longitude": 136.2987, "population": 18921}, {"name": "Ena", "country_iso2": "JP", "state": "Gifu", "is_capital": false, "latitude": 35.4492, "longitude": 137.4128, "population": 47999}, {"name": "Eniwa", "country_iso2": "JP", "state": "Hokkaidō", "is_capital": false, "latitude": 42.8833, "longitude": 141.5833, "population": 70102}, {"name": "Etajima", "country_iso2": "JP", "state": "Hiroshima", "is_capital": false, "latitude": 34.2167, "longitude": 132.45, "population": 24596}, {"name": "Fuchū", "country_iso2": "JP", "state": "Tōkyō", "is_capital": false, "latitude": 35.6689, "longitude": 139.4776, "population": 260508}, {"name": "Fuchū", "country_iso2": "JP", "state": "Hiroshima", "is_capital": false, "latitude": 34.3925, "longitude": 132.5044, "population": 51096}, {"name": "Fuchūchō", "country_iso2": "JP", "state": "Hiroshima", "is_capital": false, "latitude": 34.565, "longitude": 133.2419, "population": 36326}, {"name": "Fuefuki", "country_iso2": "JP", "state": "Yamanashi", "is_capital": false, "latitude": 35.6473, "longitude": 138.6397, "population": 67396}, {"name": "Fuji", "country_iso2": "JP", "state": "Shizuoka", "is_capital": false, "latitude": 35.1613, "longitude": 138.6763, "population": 243739}, {"name": "Fujiidera", "country_iso2": "JP", "state": "Ōsaka", "is_capital": false, "latitude": 34.5667, "longitude": 135.6, "population": 63338}, {"name": "Fujikawa", "country_iso2": "JP", "state": "Yamanashi", "is_capital": false, "latitude": 35.5611, "longitude": 138.4614, "population": 14004}, {"name": "Fujikawaguchiko", "country_iso2": "JP", "state": "Yamanashi", "is_capital": false, "latitude": 35.4973, "longitude": 138.7549, "population": 25495}, {"name": "Fujimi", "country_iso2": "JP", "state": "Saitama", "is_capital": false, "latitude": 35.8566, "longitude": 139.5492, "population": 111858}, {"name": "Fujimi", "country_iso2": "JP", "state": "Nagano", "is_capital": false, "latitude": 35.9146, "longitude": 138.2407, "population": 13844}, {"name": "Fujimino", "country_iso2": "JP", "state": "Saitama", "is_capital": false, "latitude": 35.8795, "longitude": 139.5198, "population": 113490}, {"name": "Fujino", "country_iso2": "JP", "state": "Kanagawa", "is_capital": false, "latitude": 35.606, "longitude": 139.143, "population": 10720}, {"name": "Fujioka", "country_iso2": "JP", "state": "Gunma", "is_capital": false, "latitude": 36.2587, "longitude": 139.0746, "population": 64539}, {"name": "Fujioka", "country_iso2": "JP", "state": "Shizuoka", "is_capital": false, "latitude": 35.15, "longitude": 138.6167, "population": 16359}, {"name": "Fujisaki", "country_iso2": "JP", "state": "Aomori", "is_capital": false, "latitude": 40.6561, "longitude": 140.5028, "population": 14478}, {"name": "Fujisawa", "country_iso2": "JP", "state": "Kanagawa", "is_capital": false, "latitude": 35.35, "longitude": 139.4667, "population": 439728}, {"name": "Fujisawachō-niinuma", "country_iso2": "JP", "state": "Iwate", "is_capital": false, "latitude": 38.867, "longitude": 141.35, "population": 9112}, {"name": "Fujita", "country_iso2": "JP", "state": "Shizuoka", "is_capital": false, "latitude": 34.8674, "longitude": 138.2577, "population": 145032}, {"name": "Fujiyoshida", "country_iso2": "JP", "state": "Yamanashi", "is_capital": false, "latitude": 35.4875, "longitude": 138.8077, "population": 46659}, {"name": "Fukagawa", "country_iso2": "JP", "state": "Hokkaidō", "is_capital": false, "latitude": 43.7178, "longitude": 142.0403, "population": 20039}, {"name": "Fukayachō", "country_iso2": "JP", "state": "Saitama", "is_capital": false, "latitude": 36.1975, "longitude": 139.2815, "population": 140930}, {"name": "Fukuchiyama", "country_iso2": "JP", "state": "Kyōto", "is_capital": false, "latitude": 35.3, "longitude": 135.1333, "population": 77150}, {"name": "Fukude", "country_iso2": "JP", "state": "Shizuoka", "is_capital": false, "latitude": 34.6781, "longitude": 137.8797, "population": 19512}, {"name": "Fukui", "country_iso2": "JP", "state": "Fukui", "is_capital": true, "latitude": 36.0641, "longitude": 136.2196, "population": 261474}, {"name": "Fukuoka", "country_iso2": "JP", "state": "Fukuoka", "is_capital": true, "latitude": 33.59, "longitude": 130.4017, "population": 2286000}, {"name": "Fukuroi", "country_iso2": "JP", "state": "Shizuoka", "is_capital": false, "latitude": 34.7502, "longitude": 137.9247, "population": 86851}, {"name": "Fukusaki", "country_iso2": "JP", "state": "Hyōgo", "is_capital": false, "latitude": 34.95, "longitude": 134.7667, "population": 19143}, {"name": "Fukushima", "country_iso2": "JP", "state": "Fukushima", "is_capital": true, "latitude": 37.7608, "longitude": 140.4747, "population": 284282}, {"name": "Fukutsu", "country_iso2": "JP", "state": "Fukuoka", "is_capital": false, "latitude": 33.7669, "longitude": 130.4911, "population": 65770}, {"name": "Fukuyama", "country_iso2": "JP", "state": "Hiroshima", "is_capital": false, "latitude": 34.4858, "longitude": 133.3622, "population": 459576}, {"name": "Fukuyoshi", "country_iso2": "JP", "state": "Fukuoka", "is_capital": false, "latitude": 33.6833, "longitude": 130.78, "population": 21360}, {"name": "Funato", "country_iso2": "JP", "state": "Wakayama", "is_capital": false, "latitude": 34.25, "longitude": 135.3167, "population": 53714}, {"name": "Furano", "country_iso2": "JP", "state": "Hokkaidō", "is_capital": false, "latitude": 43.35, "longitude": 142.3833, "population": 21071}, {"name": "Furukawa", "country_iso2": "JP", "state": "Gifu", "is_capital": false, "latitude": 36.2381, "longitude": 137.1862, "population": 22585}, {"name": "Furukawamen", "country_iso2": "JP", "state": "Nagasaki", "is_capital": false, "latitude": 33.2378, "longitude": 129.6547, "population": 13942}, {"name": "Fussa", "country_iso2": "JP", "state": "Tōkyō", "is_capital": false, "latitude": 35.7333, "longitude": 139.3333, "population": 56786}, {"name": "Fusō", "country_iso2": "JP", "state": "Aichi", "is_capital": false, "latitude": 35.3591, "longitude": 136.9132, "population": 34268}, {"name": "Futami", "country_iso2": "JP", "state": "Mie", "is_capital": false, "latitude": 34.5062, "longitude": 136.7795, "population": 9095}, {"name": "Futtsu", "country_iso2": "JP", "state": "Chiba", "is_capital": false, "latitude": 35.3041, "longitude": 139.857, "population": 42280}, {"name": "Gamagōri", "country_iso2": "JP", "state": "Aichi", "is_capital": false, "latitude": 34.8431, "longitude": 137.2196, "population": 80063}, {"name": "Gifu", "country_iso2": "JP", "state": "Gifu", "is_capital": true, "latitude": 35.4232, "longitude": 136.7608, "population": 400118}, {"name": "Ginan", "country_iso2": "JP", "state": "Gifu", "is_capital": false, "latitude": 35.3896, "longitude": 136.7825, "population": 25752}, {"name": "Ginowan", "country_iso2": "JP", "state": "Okinawa", "is_capital": false, "latitude": 26.2817, "longitude": 127.7783, "population": 99256}, {"name": "Gobō", "country_iso2": "JP", "state": "Wakayama", "is_capital": false, "latitude": 33.8833, "longitude": 135.15, "population": 21260}, {"name": "Gojō", "country_iso2": "JP", "state": "Nara", "is_capital": false, "latitude": 34.3564, "longitude": 135.6956, "population": 26998}, {"name": "Gonohe", "country_iso2": "JP", "state": "Aomori", "is_capital": false, "latitude": 40.5312, "longitude": 141.308, "population": 15761}, {"name": "Gose", "country_iso2": "JP", "state": "Nara", "is_capital": false, "latitude": 34.4633, "longitude": 135.7403, "population": 24317}, {"name": "Gosen", "country_iso2": "JP", "state": "Niigata", "is_capital": false, "latitude": 37.7444, "longitude": 139.1826, "population": 47262}, {"name": "Goshikichō-aihara-minamidani", "country_iso2": "JP", "state": "Hyōgo", "is_capital": false, "latitude": 34.3, "longitude": 134.7833, "population": 43914}, {"name": "Goshogawara", "country_iso2": "JP", "state": "Aomori", "is_capital": false, "latitude": 40.808, "longitude": 140.4401, "population": 50757}, {"name": "Gotenba", "country_iso2": "JP", "state": "Shizuoka", "is_capital": false, "latitude": 35.3087, "longitude": 138.9346, "population": 86334}, {"name": "Gotō", "country_iso2": "JP", "state": "Nagasaki", "is_capital": false, "latitude": 32.7, "longitude": 128.8333, "population": 34425}, {"name": "Gujō", "country_iso2": "JP", "state": "Gifu", "is_capital": false, "latitude": 35.7486, "longitude": 136.9643, "population": 38747}, {"name": "Gyōda", "country_iso2": "JP", "state": "Saitama", "is_capital": false, "latitude": 36.1389, "longitude": 139.4556, "population": 78488}, {"name": "Gōdo", "country_iso2": "JP", "state": "Gifu", "is_capital": false, "latitude": 35.4174, "longitude": 136.6252, "population": 19361}, {"name": "Gōtsuchō", "country_iso2": "JP", "state": "Shimane", "is_capital": false, "latitude": 35.0117, "longitude": 132.2178, "population": 21913}, {"name": "Habikino", "country_iso2": "JP", "state": "Ōsaka", "is_capital": false, "latitude": 34.55, "longitude": 135.6, "population": 108370}, {"name": "Hachimantai", "country_iso2": "JP", "state": "Iwate", "is_capital": false, "latitude": 39.9561, "longitude": 141.0711, "population": 23742}, {"name": "Hachinohe", "country_iso2": "JP", "state": "Aomori", "is_capital": false, "latitude": 40.5123, "longitude": 141.4884, "population": 222799}, {"name": "Hachiōji", "country_iso2": "JP", "state": "Tōkyō", "is_capital": false, "latitude": 35.6664, "longitude": 139.316, "population": 575721}, {"name": "Hadano", "country_iso2": "JP", "state": "Kanagawa", "is_capital": false, "latitude": 35.3667, "longitude": 139.2167, "population": 164292}, {"name": "Haga", "country_iso2": "JP", "state": "Tochigi", "is_capital": false, "latitude": 36.5483, "longitude": 140.0582, "population": 14833}, {"name": "Hagi", "country_iso2": "JP", "state": "Yamaguchi", "is_capital": false, "latitude": 34.4081, "longitude": 131.3992, "population": 44118}, {"name": "Hakodate", "country_iso2": "JP", "state": "Hokkaidō", "is_capital": false, "latitude": 41.7686, "longitude": 140.7289, "population": 251891}, {"name": "Hakone", "country_iso2": "JP", "state": "Kanagawa", "is_capital": false, "latitude": 35.1894, "longitude": 139.0247, "population": 10925}, {"name": "Hakubachō", "country_iso2": "JP", "state": "Nagano", "is_capital": false, "latitude": 36.6981, "longitude": 137.8619, "population": 8621}, {"name": "Hakui", "country_iso2": "JP", "state": "Ishikawa", "is_capital": false, "latitude": 36.8936, "longitude": 136.779, "population": 20031}, {"name": "Hamada", "country_iso2": "JP", "state": "Shimane", "is_capital": false, "latitude": 34.8992, "longitude": 132.0964, "population": 50176}, {"name": "Hamakita", "country_iso2": "JP", "state": "Shizuoka", "is_capital": false, "latitude": 34.7931, "longitude": 137.79, "population": 86653}, {"name": "Hamamatsu", "country_iso2": "JP", "state": "Shizuoka", "is_capital": false, "latitude": 34.7108, "longitude": 137.7275, "population": 788211}, {"name": "Hamura", "country_iso2": "JP", "state": "Saitama", "is_capital": false, "latitude": 35.7672, "longitude": 139.3109, "population": 53970}, {"name": "Hanamaki Onsen", "country_iso2": "JP", "state": "Iwate", "is_capital": false, "latitude": 39.3886, "longitude": 141.1169, "population": 94691}, {"name": "Hanawa", "country_iso2": "JP", "state": "Akita", "is_capital": false, "latitude": 40.2158, "longitude": 140.7884, "population": 28929}, {"name": "Handa", "country_iso2": "JP", "state": "Aichi", "is_capital": false, "latitude": 34.8919, "longitude": 136.9381, "population": 117544}, {"name": "Hannan", "country_iso2": "JP", "state": "Ōsaka", "is_capital": false, "latitude": 34.3597, "longitude": 135.2394, "population": 49794}, {"name": "Hannō", "country_iso2": "JP", "state": "Saitama", "is_capital": false, "latitude": 35.8557, "longitude": 139.3277, "population": 80099}, {"name": "Hanyū", "country_iso2": "JP", "state": "Saitama", "is_capital": false, "latitude": 36.1726, "longitude": 139.5485, "population": 52740}, {"name": "Haramachida", "country_iso2": "JP", "state": "Tōkyō", "is_capital": false, "latitude": 35.5434, "longitude": 139.4452, "population": 14257}, {"name": "Harima", "country_iso2": "JP", "state": "Hyōgo", "is_capital": false, "latitude": 34.7167, "longitude": 134.8667, "population": 33822}, {"name": "Hasami", "country_iso2": "JP", "state": "Nagasaki", "is_capital": false, "latitude": 33.1381, "longitude": 129.8956, "population": 14332}, {"name": "Hashikami", "country_iso2": "JP", "state": "Aomori", "is_capital": false, "latitude": 40.4525, "longitude": 141.6211, "population": 13176}, {"name": "Hashima", "country_iso2": "JP", "state": "Gifu", "is_capital": false, "latitude": 35.3199, "longitude": 136.7033, "population": 66312}, {"name": "Hashimoto", "country_iso2": "JP", "state": "Wakayama", "is_capital": false, "latitude": 34.3167, "longitude": 135.6, "population": 61063}, {"name": "Hasuda", "country_iso2": "JP", "state": "Saitama", "is_capital": false, "latitude": 35.9945, "longitude": 139.6624, "population": 61473}, {"name": "Hatogaya-honchō", "country_iso2": "JP", "state": "Saitama", "is_capital": false, "latitude": 35.8333, "longitude": 139.7333, "population": 61781}, {"name": "Hatoyama", "country_iso2": "JP", "state": "Saitama", "is_capital": false, "latitude": 35.9814, "longitude": 139.3341, "population": 13365}, {"name": "Hatsukaichi", "country_iso2": "JP", "state": "Hiroshima", "is_capital": false, "latitude": 34.3483, "longitude": 132.3317, "population": 114699}, {"name": "Hayama", "country_iso2": "JP", "state": "Kanagawa", "is_capital": false, "latitude": 35.2725, "longitude": 139.5861, "population": 31546}, {"name": "Hayashima", "country_iso2": "JP", "state": "Okayama", "is_capital": false, "latitude": 34.6006, "longitude": 133.8283, "population": 12584}, {"name": "Heguri", "country_iso2": "JP", "state": "Nara", "is_capital": false, "latitude": 34.6292, "longitude": 135.7006, "population": 18088}, {"name": "Hekinan", "country_iso2": "JP", "state": "Aichi", "is_capital": false, "latitude": 34.8847, "longitude": 136.9934, "population": 72480}, {"name": "Hidaka", "country_iso2": "JP", "state": "Saitama", "is_capital": false, "latitude": 35.9078, "longitude": 139.3391, "population": 54728}, {"name": "Hidaka", "country_iso2": "JP", "state": "Hokkaidō", "is_capital": false, "latitude": 42.4833, "longitude": 142.0667, "population": 11648}, {"name": "Higashi-Hiroshima", "country_iso2": "JP", "state": "Hiroshima", "is_capital": false, "latitude": 34.4264, "longitude": 132.7433, "population": 197347}, {"name": "Higashi-Matsuyama", "country_iso2": "JP", "state": "Saitama", "is_capital": false, "latitude": 36.0422, "longitude": 139.3999, "population": 91818}, {"name": "Higashi-ōsaka", "country_iso2": "JP", "state": "Ōsaka", "is_capital": false, "latitude": 34.6794, "longitude": 135.6008, "population": 490819}, {"name": "Higashiagatsuma", "country_iso2": "JP", "state": "Gunma", "is_capital": false, "latitude": 36.5714, "longitude": 138.8203, "population": 12356}, {"name": "Higashiizu", "country_iso2": "JP", "state": "Shizuoka", "is_capital": false, "latitude": 34.7667, "longitude": 139.0333, "population": 11389}, {"name": "Higashikagawa", "country_iso2": "JP", "state": "Kagawa", "is_capital": false, "latitude": 34.25, "longitude": 134.3667, "population": 28305}, {"name": "Higashikagura", "country_iso2": "JP", "state": "Hokkaidō", "is_capital": false, "latitude": 43.7, "longitude": 142.45, "population": 10152}, {"name": "Higashimatsushima", "country_iso2": "JP", "state": "Miyagi", "is_capital": false, "latitude": 38.4263, "longitude": 141.2104, "population": 38880}, {"name": "Higashimiyoshi", "country_iso2": "JP", "state": "Tokushima", "is_capital": false, "latitude": 34.0333, "longitude": 133.9333, "population": 13776}, {"name": "Higashimurayama", "country_iso2": "JP", "state": "Tōkyō", "is_capital": false, "latitude": 35.7546, "longitude": 139.4685, "population": 150458}, {"name": "Higashine", "country_iso2": "JP", "state": "Yamagata", "is_capital": false, "latitude": 38.4313, "longitude": 140.3911, "population": 47747}, {"name": "Higashiura", "country_iso2": "JP", "state": "Aichi", "is_capital": false, "latitude": 34.97, "longitude": 136.9561, "population": 49252}, {"name": "Higashiyamato", "country_iso2": "JP", "state": "Saitama", "is_capital": false, "latitude": 35.75, "longitude": 139.4264, "population": 84260}, {"name": "Higashiōmi", "country_iso2": "JP", "state": "Shiga", "is_capital": false, "latitude": 35.1167, "longitude": 136.2, "population": 112459}, {"name": "Hiji", "country_iso2": "JP", "state": "Ōita", "is_capital": false, "latitude": 33.3694, "longitude": 131.5322, "population": 27887}, {"name": "Hikari", "country_iso2": "JP", "state": "Yamaguchi", "is_capital": false, "latitude": 33.9619, "longitude": 131.9422, "population": 49100}, {"name": "Hikawa", "country_iso2": "JP", "state": "Shimane", "is_capital": false, "latitude": 35.3833, "longitude": 132.8333, "population": 27641}, {"name": "Hikawadai", "country_iso2": "JP", "state": "Kumamoto", "is_capital": false, "latitude": 32.5825, "longitude": 130.6736, "population": 11038}, {"name": "Hikone", "country_iso2": "JP", "state": "Shiga", "is_capital": false, "latitude": 35.2667, "longitude": 136.2667, "population": 113191}, {"name": "Himeji", "country_iso2": "JP", "state": "Hyōgo", "is_capital": false, "latitude": 34.8167, "longitude": 134.6833, "population": 527596}, {"name": "Himi", "country_iso2": "JP", "state": "Toyama", "is_capital": false, "latitude": 36.8567, "longitude": 136.9731, "population": 43747}, {"name": "Hino", "country_iso2": "JP", "state": "Tōkyō", "is_capital": false, "latitude": 35.6713, "longitude": 139.3951, "population": 190598}, {"name": "Hino", "country_iso2": "JP", "state": "Shiga", "is_capital": false, "latitude": 35.0167, "longitude": 136.25, "population": 20945}, {"name": "Hinode", "country_iso2": "JP", "state": "Tōkyō", "is_capital": false, "latitude": 35.7421, "longitude": 139.2546, "population": 17016}, {"name": "Hioki", "country_iso2": "JP", "state": "Kagoshima", "is_capital": false, "latitude": 31.6336, "longitude": 130.4025, "population": 46671}, {"name": "Hirado", "country_iso2": "JP", "state": "Nagasaki", "is_capital": false, "latitude": 33.3681, "longitude": 129.5536, "population": 28822}, {"name": "Hirakata", "country_iso2": "JP", "state": "Ōsaka", "is_capital": false, "latitude": 34.8167, "longitude": 135.65, "population": 396694}, {"name": "Hirakawachō", "country_iso2": "JP", "state": "Aomori", "is_capital": false, "latitude": 40.5841, "longitude": 140.5665, "population": 30326}, {"name": "Hiranai", "country_iso2": "JP", "state": "Aomori", "is_capital": false, "latitude": 40.9259, "longitude": 140.9559, "population": 9964}, {"name": "Hirao", "country_iso2": "JP", "state": "Yamaguchi", "is_capital": false, "latitude": 33.9381, "longitude": 132.0733, "population": 11831}, {"name": "Hiratsuka", "country_iso2": "JP", "state": "Kanagawa", "is_capital": false, "latitude": 35.3167, "longitude": 139.35, "population": 257662}, {"name": "Hirayama", "country_iso2": "JP", "state": "Fukuoka", "is_capital": false, "latitude": 33.6467, "longitude": 130.5, "population": 8986}, {"name": "Hirokawa", "country_iso2": "JP", "state": "Fukuoka", "is_capital": false, "latitude": 33.2417, "longitude": 130.5514, "population": 19801}, {"name": "Hirono", "country_iso2": "JP", "state": "Iwate", "is_capital": false, "latitude": 40.4085, "longitude": 141.7187, "population": 14757}, {"name": "Hirosaki", "country_iso2": "JP", "state": "Aomori", "is_capital": false, "latitude": 40.6031, "longitude": 140.4638, "population": 167803}, {"name": "Hiroshima", "country_iso2": "JP", "state": "Hiroshima", "is_capital": true, "latitude": 34.3914, "longitude": 132.4519, "population": 1198021}, {"name": "Hita", "country_iso2": "JP", "state": "Ōita", "is_capital": false, "latitude": 33.3214, "longitude": 130.9411, "population": 61755}, {"name": "Hitachi", "country_iso2": "JP", "state": "Ibaraki", "is_capital": false, "latitude": 36.5991, "longitude": 140.6515, "population": 172709}, {"name": "Hitachi-Naka", "country_iso2": "JP", "state": "Ibaraki", "is_capital": false, "latitude": 36.3967, "longitude": 140.5347, "population": 154311}, {"name": "Hitachi-ota", "country_iso2": "JP", "state": "Ibaraki", "is_capital": false, "latitude": 36.5383, "longitude": 140.5309, "population": 47586}, {"name": "Hitachiomiya", "country_iso2": "JP", "state": "Ibaraki", "is_capital": false, "latitude": 36.5425, "longitude": 140.4109, "population": 38836}, {"name": "Hitoyoshi", "country_iso2": "JP", "state": "Kumamoto", "is_capital": false, "latitude": 32.2103, "longitude": 130.7625, "population": 31332}, {"name": "Hokota", "country_iso2": "JP", "state": "Ibaraki", "is_capital": false, "latitude": 36.1587, "longitude": 140.5164, "population": 45910}, {"name": "Hokuei", "country_iso2": "JP", "state": "Tottori", "is_capital": false, "latitude": 35.4833, "longitude": 133.7667, "population": 14010}, {"name": "Hokuto", "country_iso2": "JP", "state": "Hokkaidō", "is_capital": false, "latitude": 41.8242, "longitude": 140.6528, "population": 45661}, {"name": "Hokuto", "country_iso2": "JP", "state": "Yamanashi", "is_capital": false, "latitude": 35.7765, "longitude": 138.4236, "population": 43452}, {"name": "Honchō", "country_iso2": "JP", "state": "Chiba", "is_capital": false, "latitude": 35.6946, "longitude": 139.9826, "population": 644668}, {"name": "Honchō", "country_iso2": "JP", "state": "Saitama", "is_capital": false, "latitude": 35.758, "longitude": 139.5299, "population": 116477}, {"name": "Honchō", "country_iso2": "JP", "state": "Hokkaidō", "is_capital": false, "latitude": 41.9, "longitude": 140.7, "population": 28073}, {"name": "Honjō", "country_iso2": "JP", "state": "Saitama", "is_capital": false, "latitude": 36.2436, "longitude": 139.1904, "population": 77900}, {"name": "Honmachi", "country_iso2": "JP", "state": "Kumamoto", "is_capital": false, "latitude": 32.5075, "longitude": 130.6017, "population": 120389}, {"name": "Honmachi", "country_iso2": "JP", "state": "Fukui", "is_capital": false, "latitude": 36.0609, "longitude": 136.5006, "population": 22047}, {"name": "Honmachi", "country_iso2": "JP", "state": "Hokkaidō", "is_capital": false, "latitude": 43.9167, "longitude": 144.6667, "population": 11302}, {"name": "Hyūga", "country_iso2": "JP", "state": "Miyazaki", "is_capital": false, "latitude": 32.4228, "longitude": 131.6239, "population": 59276}, {"name": "Hōdatsushimizu", "country_iso2": "JP", "state": "Ishikawa", "is_capital": false, "latitude": 36.8627, "longitude": 136.7976, "population": 12061}, {"name": "Hōfu", "country_iso2": "JP", "state": "Yamaguchi", "is_capital": false, "latitude": 34.0514, "longitude": 131.5625, "population": 114846}, {"name": "Hōki", "country_iso2": "JP", "state": "Tottori", "is_capital": false, "latitude": 35.3856, "longitude": 133.4072, "population": 10491}, {"name": "Hōyachō", "country_iso2": "JP", "state": "Tōkyō", "is_capital": false, "latitude": 35.7483, "longitude": 139.5675, "population": 102720}, {"name": "Ibara", "country_iso2": "JP", "state": "Okayama", "is_capital": false, "latitude": 34.6, "longitude": 133.4667, "population": 38236}, {"name": "Ibaraki", "country_iso2": "JP", "state": "Ōsaka", "is_capital": false, "latitude": 34.8164, "longitude": 135.5686, "population": 283835}, {"name": "Ibaraki", "country_iso2": "JP", "state": "Ibaraki", "is_capital": false, "latitude": 36.2869, "longitude": 140.4245, "population": 31278}, {"name": "Ibigawa", "country_iso2": "JP", "state": "Gifu", "is_capital": false, "latitude": 35.4873, "longitude": 136.5686, "population": 19519}, {"name": "Ibusuki", "country_iso2": "JP", "state": "Kagoshima", "is_capital": false, "latitude": 31.2528, "longitude": 130.6331, "population": 38571}, {"name": "Ichihara", "country_iso2": "JP", "state": "Chiba", "is_capital": false, "latitude": 35.4981, "longitude": 140.1154, "population": 268038}, {"name": "Ichikai", "country_iso2": "JP", "state": "Tochigi", "is_capital": false, "latitude": 36.55, "longitude": 140.1, "population": 11205}, {"name": "Ichikawa", "country_iso2": "JP", "state": "Chiba", "is_capital": false, "latitude": 35.7219, "longitude": 139.9311, "population": 492749}, {"name": "Ichikawa", "country_iso2": "JP", "state": "Hyōgo", "is_capital": false, "latitude": 34.9833, "longitude": 134.7667, "population": 11023}, {"name": "Ichikawamisato", "country_iso2": "JP", "state": "Yamanashi", "is_capital": false, "latitude": 35.5653, "longitude": 138.5025, "population": 14458}, {"name": "Ichikikushikino", "country_iso2": "JP", "state": "Kagoshima", "is_capital": false, "latitude": 31.7144, "longitude": 130.2719, "population": 27080}, {"name": "Ichinohe", "country_iso2": "JP", "state": "Iwate", "is_capital": false, "latitude": 40.2129, "longitude": 141.2954, "population": 11296}, {"name": "Ichinomiya", "country_iso2": "JP", "state": "Aichi", "is_capital": false, "latitude": 35.3039, "longitude": 136.8031, "population": 378108}, {"name": "Ichinomiya", "country_iso2": "JP", "state": "Chiba", "is_capital": false, "latitude": 35.3667, "longitude": 140.3667, "population": 11622}, {"name": "Ichinoseki", "country_iso2": "JP", "state": "Iwate", "is_capital": false, "latitude": 38.9347, "longitude": 141.1266, "population": 111824}, {"name": "Iga", "country_iso2": "JP", "state": "Mie", "is_capital": false, "latitude": 34.7667, "longitude": 136.1333, "population": 85883}, {"name": "Iida", "country_iso2": "JP", "state": "Nagano", "is_capital": false, "latitude": 35.515, "longitude": 137.8214, "population": 96642}, {"name": "Iijima", "country_iso2": "JP", "state": "Nagano", "is_capital": false, "latitude": 35.6767, "longitude": 137.9198, "population": 9038}, {"name": "Iioka", "country_iso2": "JP", "state": "Chiba", "is_capital": false, "latitude": 35.7, "longitude": 140.7167, "population": 10954}, {"name": "Iiyama", "country_iso2": "JP", "state": "Nagano", "is_capital": false, "latitude": 36.8516, "longitude": 138.3655, "population": 19279}, {"name": "Iizuka", "country_iso2": "JP", "state": "Fukuoka", "is_capital": false, "latitude": 33.6467, "longitude": 130.6911, "population": 126136}, {"name": "Iizuna", "country_iso2": "JP", "state": "Nagano", "is_capital": false, "latitude": 36.7548, "longitude": 138.2355, "population": 10134}, {"name": "Ikaruga", "country_iso2": "JP", "state": "Nara", "is_capital": false, "latitude": 34.6089, "longitude": 135.7306, "population": 27330}, {"name": "Ikeda", "country_iso2": "JP", "state": "Hyōgo", "is_capital": false, "latitude": 34.8217, "longitude": 135.4286, "population": 104148}, {"name": "Ikeda", "country_iso2": "JP", "state": "Gifu", "is_capital": false, "latitude": 35.4423, "longitude": 136.573, "population": 23310}, {"name": "Ikeda", "country_iso2": "JP", "state": "Nagano", "is_capital": false, "latitude": 36.4212, "longitude": 137.8746, "population": 9292}, {"name": "Iki", "country_iso2": "JP", "state": "Nagasaki", "is_capital": false, "latitude": 33.7497, "longitude": 129.6914, "population": 24873}, {"name": "Ikoma", "country_iso2": "JP", "state": "Nara", "is_capital": false, "latitude": 34.7, "longitude": 135.7, "population": 116518}, {"name": "Imabari", "country_iso2": "JP", "state": "Ehime", "is_capital": false, "latitude": 34.0667, "longitude": 133.0, "population": 152111}, {"name": "Imarichō-kō", "country_iso2": "JP", "state": "Saga", "is_capital": false, "latitude": 33.2647, "longitude": 129.8808, "population": 51875}, {"name": "Imizuchō", "country_iso2": "JP", "state": "Toyama", "is_capital": false, "latitude": 36.7306, "longitude": 137.0756, "population": 90201}, {"name": "Ina", "country_iso2": "JP", "state": "Nagano", "is_capital": false, "latitude": 35.8275, "longitude": 137.954, "population": 65670}, {"name": "Inabe", "country_iso2": "JP", "state": "Mie", "is_capital": false, "latitude": 35.1156, "longitude": 136.5614, "population": 43114}, {"name": "Inagawa", "country_iso2": "JP", "state": "Hyōgo", "is_capital": false, "latitude": 34.9, "longitude": 135.3833, "population": 29571}, {"name": "Inagi", "country_iso2": "JP", "state": "Tōkyō", "is_capital": false, "latitude": 35.6379, "longitude": 139.5046, "population": 93394}, {"name": "Inami", "country_iso2": "JP", "state": "Hyōgo", "is_capital": false, "latitude": 34.75, "longitude": 134.9167, "population": 30148}, {"name": "Inami", "country_iso2": "JP", "state": "Toyama", "is_capital": false, "latitude": 36.5602, "longitude": 136.971, "population": 9972}, {"name": "Inashiki", "country_iso2": "JP", "state": "Ibaraki", "is_capital": false, "latitude": 35.9565, "longitude": 140.3239, "population": 38853}, {"name": "Inawashiro", "country_iso2": "JP", "state": "Fukushima", "is_capital": false, "latitude": 37.5744, "longitude": 140.1215, "population": 13403}, {"name": "Inazawa", "country_iso2": "JP", "state": "Aichi", "is_capital": false, "latitude": 35.2647, "longitude": 136.7969, "population": 134938}, {"name": "Ino", "country_iso2": "JP", "state": "Kōchi", "is_capital": false, "latitude": 33.55, "longitude": 133.4333, "population": 20750}, {"name": "Inuma", "country_iso2": "JP", "state": "Saitama", "is_capital": false, "latitude": 36.0001, "longitude": 139.6242, "population": 44928}, {"name": "Inuyama", "country_iso2": "JP", "state": "Gifu", "is_capital": false, "latitude": 35.3786, "longitude": 136.9445, "population": 73420}, {"name": "Inzai", "country_iso2": "JP", "state": "Chiba", "is_capital": false, "latitude": 35.8333, "longitude": 140.15, "population": 103084}, {"name": "Iruma", "country_iso2": "JP", "state": "Saitama", "is_capital": false, "latitude": 35.8358, "longitude": 139.3911, "population": 145303}, {"name": "Isa", "country_iso2": "JP", "state": "Kagoshima", "is_capital": false, "latitude": 32.0569, "longitude": 130.6131, "population": 24131}, {"name": "Isahaya", "country_iso2": "JP", "state": "Nagasaki", "is_capital": false, "latitude": 32.8433, "longitude": 130.0531, "population": 131467}, {"name": "Ise", "country_iso2": "JP", "state": "Mie", "is_capital": false, "latitude": 34.4833, "longitude": 136.7167, "population": 122432}, {"name": "Isehara", "country_iso2": "JP", "state": "Kanagawa", "is_capital": false, "latitude": 35.3833, "longitude": 139.3, "population": 102088}, {"name": "Isesaki", "country_iso2": "JP", "state": "Gunma", "is_capital": false, "latitude": 36.3114, "longitude": 139.1968, "population": 213303}, {"name": "Ishidoriyachō-eso", "country_iso2": "JP", "state": "Iwate", "is_capital": false, "latitude": 39.4839, "longitude": 141.1471, "population": 15951}, {"name": "Ishigaki", "country_iso2": "JP", "state": "Okinawa", "is_capital": false, "latitude": 24.3406, "longitude": 124.1556, "population": 48258}, {"name": "Ishii", "country_iso2": "JP", "state": "Tokushima", "is_capital": false, "latitude": 34.0667, "longitude": 134.4333, "population": 24856}, {"name": "Ishikari", "country_iso2": "JP", "state": "Hokkaidō", "is_capital": false, "latitude": 43.1667, "longitude": 141.3167, "population": 58284}, {"name": "Ishikawa", "country_iso2": "JP", "state": "Fukushima", "is_capital": false, "latitude": 37.1571, "longitude": 140.4468, "population": 14222}, {"name": "Ishiki", "country_iso2": "JP", "state": "Aichi", "is_capital": false, "latitude": 34.8167, "longitude": 137.0333, "population": 23775}, {"name": "Ishioka", "country_iso2": "JP", "state": "Ibaraki", "is_capital": false, "latitude": 36.1908, "longitude": 140.2872, "population": 71851}, {"name": "Ishizaki", "country_iso2": "JP", "state": "Miyagi", "is_capital": false, "latitude": 38.4176, "longitude": 141.3027, "population": 138856}, {"name": "Isumi", "country_iso2": "JP", "state": "Chiba", "is_capital": false, "latitude": 35.2539, "longitude": 140.3852, "population": 35570}, {"name": "Itabashi", "country_iso2": "JP", "state": "Tōkyō", "is_capital": false, "latitude": 35.7667, "longitude": 139.6833, "population": 584483}, {"name": "Itako", "country_iso2": "JP", "state": "Ibaraki", "is_capital": false, "latitude": 35.9471, "longitude": 140.5554, "population": 27373}, {"name": "Itakura", "country_iso2": "JP", "state": "Gunma", "is_capital": false, "latitude": 36.2229, "longitude": 139.6103, "population": 14039}, {"name": "Itami", "country_iso2": "JP", "state": "Hyōgo", "is_capital": false, "latitude": 34.7833, "longitude": 135.4, "population": 197215}, {"name": "Itano", "country_iso2": "JP", "state": "Tokushima", "is_capital": false, "latitude": 34.1444, "longitude": 134.4626, "population": 13087}, {"name": "Itayanagi", "country_iso2": "JP", "state": "Aomori", "is_capital": false, "latitude": 40.6959, "longitude": 140.4572, "population": 12681}, {"name": "Itoigawa", "country_iso2": "JP", "state": "Niigata", "is_capital": false, "latitude": 37.039, "longitude": 137.8627, "population": 40200}, {"name": "Itoman", "country_iso2": "JP", "state": "Okinawa", "is_capital": false, "latitude": 26.1236, "longitude": 127.6658, "population": 60903}, {"name": "Itoshima", "country_iso2": "JP", "state": "Fukuoka", "is_capital": false, "latitude": 33.5539, "longitude": 130.1978, "population": 98527}, {"name": "Itsukaichi", "country_iso2": "JP", "state": "Tōkyō", "is_capital": false, "latitude": 35.7522, "longitude": 139.2667, "population": 22252}, {"name": "Itō", "country_iso2": "JP", "state": "Shizuoka", "is_capital": false, "latitude": 34.9657, "longitude": 139.1019, "population": 63343}, {"name": "Iwai", "country_iso2": "JP", "state": "Tottori", "is_capital": false, "latitude": 35.5833, "longitude": 134.3333, "population": 10675}, {"name": "Iwaizumi", "country_iso2": "JP", "state": "Iwate", "is_capital": false, "latitude": 39.8431, "longitude": 141.7964, "population": 8549}, {"name": "Iwaka", "country_iso2": "JP", "state": "Aomori", "is_capital": false, "latitude": 40.6159, "longitude": 140.4213, "population": 11868}, {"name": "Iwaki", "country_iso2": "JP", "state": "Fukushima", "is_capital": false, "latitude": 37.0505, "longitude": 140.8877, "population": 336111}, {"name": "Iwakuni", "country_iso2": "JP", "state": "Yamaguchi", "is_capital": false, "latitude": 34.1664, "longitude": 132.2189, "population": 127512}, {"name": "Iwakura", "country_iso2": "JP", "state": "Aichi", "is_capital": false, "latitude": 35.2794, "longitude": 136.8714, "population": 47975}, {"name": "Iwamizawa", "country_iso2": "JP", "state": "Hokkaidō", "is_capital": false, "latitude": 43.2, "longitude": 141.7833, "population": 79361}, {"name": "Iwamuro-onsen", "country_iso2": "JP", "state": "Niigata", "is_capital": false, "latitude": 37.7375, "longitude": 138.8391, "population": 9865}, {"name": "Iwanai", "country_iso2": "JP", "state": "Hokkaidō", "is_capital": false, "latitude": 42.9789, "longitude": 140.5092, "population": 11982}, {"name": "Iwanuma", "country_iso2": "JP", "state": "Miyagi", "is_capital": false, "latitude": 38.1043, "longitude": 140.8702, "population": 44340}, {"name": "Iwashita", "country_iso2": "JP", "state": "Kumamoto", "is_capital": false, "latitude": 32.6503, "longitude": 130.8114, "population": 9963}, {"name": "Iwata", "country_iso2": "JP", "state": "Shizuoka", "is_capital": false, "latitude": 34.7179, "longitude": 137.8515, "population": 165688}, {"name": "Iwate", "country_iso2": "JP", "state": "Iwate", "is_capital": false, "latitude": 39.9728, "longitude": 141.2122, "population": 12078}, {"name": "Iyo", "country_iso2": "JP", "state": "Ehime", "is_capital": false, "latitude": 33.75, "longitude": 132.7, "population": 34927}, {"name": "Izu", "country_iso2": "JP", "state": "Shizuoka", "is_capital": false, "latitude": 34.9765, "longitude": 138.9468, "population": 28493}, {"name": "Izumi", "country_iso2": "JP", "state": "Kagoshima", "is_capital": false, "latitude": 32.0906, "longitude": 130.3528, "population": 51450}, {"name": "Izumisano", "country_iso2": "JP", "state": "Ōsaka", "is_capital": false, "latitude": 34.4, "longitude": 135.3333, "population": 99328}, {"name": "Izumiōtsu", "country_iso2": "JP", "state": "Ōsaka", "is_capital": false, "latitude": 34.5, "longitude": 135.4, "population": 74175}, {"name": "Izumo", "country_iso2": "JP", "state": "Shimane", "is_capital": false, "latitude": 35.3669, "longitude": 132.7547, "population": 171995}, {"name": "Izunokuni", "country_iso2": "JP", "state": "Shizuoka", "is_capital": false, "latitude": 35.0333, "longitude": 138.9333, "population": 46212}, {"name": "Izuo", "country_iso2": "JP", "state": "Ōsaka", "is_capital": false, "latitude": 34.4836, "longitude": 135.4236, "population": 184299}, {"name": "Jōetsu", "country_iso2": "JP", "state": "Niigata", "is_capital": false, "latitude": 37.1479, "longitude": 138.2361, "population": 187291}, {"name": "Jōsō", "country_iso2": "JP", "state": "Ibaraki", "is_capital": false, "latitude": 36.0236, "longitude": 139.9938, "population": 59314}, {"name": "Jōyō", "country_iso2": "JP", "state": "Kyōto", "is_capital": false, "latitude": 34.8531, "longitude": 135.78, "population": 72869}, {"name": "Kadena", "country_iso2": "JP", "state": "Okinawa", "is_capital": false, "latitude": 26.3617, "longitude": 127.7553, "population": 13301}, {"name": "Kadogawa", "country_iso2": "JP", "state": "Miyazaki", "is_capital": false, "latitude": 32.4711, "longitude": 131.6461, "population": 17341}, {"name": "Kadoma", "country_iso2": "JP", "state": "Ōsaka", "is_capital": false, "latitude": 34.7333, "longitude": 135.5833, "population": 118319}, {"name": "Kaga", "country_iso2": "JP", "state": "Ishikawa", "is_capital": false, "latitude": 36.3028, "longitude": 136.315, "population": 62997}, {"name": "Kagamino", "country_iso2": "JP", "state": "Okayama", "is_capital": false, "latitude": 35.0919, "longitude": 133.9331, "population": 11882}, {"name": "Kagoshima", "country_iso2": "JP", "state": "Kagoshima", "is_capital": true, "latitude": 31.5969, "longitude": 130.5572, "population": 593754}, {"name": "Kahoku", "country_iso2": "JP", "state": "Ishikawa", "is_capital": false, "latitude": 36.7198, "longitude": 136.7067, "population": 34936}, {"name": "Kahoku", "country_iso2": "JP", "state": "Yamagata", "is_capital": false, "latitude": 38.4264, "longitude": 140.3144, "population": 17435}, {"name": "Kai", "country_iso2": "JP", "state": "Yamanashi", "is_capital": false, "latitude": 35.6608, "longitude": 138.5158, "population": 75337}, {"name": "Kaita", "country_iso2": "JP", "state": "Hiroshima", "is_capital": false, "latitude": 34.3722, "longitude": 132.5361, "population": 29793}, {"name": "Kaizu", "country_iso2": "JP", "state": "Gifu", "is_capital": false, "latitude": 35.2206, "longitude": 136.6365, "population": 34960}, {"name": "Kaizuka", "country_iso2": "JP", "state": "Ōsaka", "is_capital": false, "latitude": 34.4333, "longitude": 135.3667, "population": 84356}, {"name": "Kakamigahara", "country_iso2": "JP", "state": "Gifu", "is_capital": false, "latitude": 35.3988, "longitude": 136.8484, "population": 143641}, {"name": "Kakegawa", "country_iso2": "JP", "state": "Shizuoka", "is_capital": false, "latitude": 34.7687, "longitude": 137.9984, "population": 113954}, {"name": "Kakogawachō-honmachi", "country_iso2": "JP", "state": "Hyōgo", "is_capital": false, "latitude": 34.75, "longitude": 134.8333, "population": 255523}, {"name": "Kakuda", "country_iso2": "JP", "state": "Miyagi", "is_capital": false, "latitude": 37.977, "longitude": 140.7821, "population": 27848}, {"name": "Kakunodatemachi", "country_iso2": "JP", "state": "Akita", "is_capital": false, "latitude": 39.5993, "longitude": 140.5615, "population": 14138}, {"name": "Kamagaya", "country_iso2": "JP", "state": "Chiba", "is_capital": false, "latitude": 35.7768, "longitude": 140.0008, "population": 109370}, {"name": "Kamaishi", "country_iso2": "JP", "state": "Iwate", "is_capital": false, "latitude": 39.2758, "longitude": 141.8857, "population": 33061}, {"name": "Kamakurayama", "country_iso2": "JP", "state": "Kanagawa", "is_capital": false, "latitude": 35.3197, "longitude": 139.5525, "population": 172929}, {"name": "Kamata", "country_iso2": "JP", "state": "Fukuoka", "is_capital": false, "latitude": 33.5983, "longitude": 130.7194, "population": 35208}, {"name": "Kameda-honchō", "country_iso2": "JP", "state": "Niigata", "is_capital": false, "latitude": 37.8678, "longitude": 139.0942, "population": 32382}, {"name": "Kameoka", "country_iso2": "JP", "state": "Kyōto", "is_capital": false, "latitude": 35.0167, "longitude": 135.5667, "population": 85962}, {"name": "Kameyama", "country_iso2": "JP", "state": "Mie", "is_capital": false, "latitude": 34.8558, "longitude": 136.4517, "population": 49457}, {"name": "Kami", "country_iso2": "JP", "state": "Kōchi", "is_capital": false, "latitude": 33.6, "longitude": 133.6833, "population": 25562}, {"name": "Kami", "country_iso2": "JP", "state": "Miyagi", "is_capital": false, "latitude": 38.5718, "longitude": 141.8548, "population": 21666}, {"name": "Kami-kawabe", "country_iso2": "JP", "state": "Gifu", "is_capital": false, "latitude": 35.4866, "longitude": 137.0707, "population": 10303}, {"name": "Kamiamakusa", "country_iso2": "JP", "state": "Kumamoto", "is_capital": false, "latitude": 32.5875, "longitude": 130.4306, "population": 23973}, {"name": "Kamidani", "country_iso2": "JP", "state": "Wakayama", "is_capital": false, "latitude": 34.1575, "longitude": 135.2397, "population": 47697}, {"name": "Kamifurano", "country_iso2": "JP", "state": "Hokkaidō", "is_capital": false, "latitude": 43.45, "longitude": 142.4667, "population": 10500}, {"name": "Kamigōri", "country_iso2": "JP", "state": "Hyōgo", "is_capital": false, "latitude": 34.8667, "longitude": 134.35, "population": 13835}, {"name": "Kamiichi", "country_iso2": "JP", "state": "Toyama", "is_capital": false, "latitude": 36.7, "longitude": 137.3667, "population": 19318}, {"name": "Kamiimaizumi", "country_iso2": "JP", "state": "Kanagawa", "is_capital": false, "latitude": 35.553, "longitude": 139.3633, "population": 33442}, {"name": "Kamiita", "country_iso2": "JP", "state": "Tokushima", "is_capital": false, "latitude": 34.1167, "longitude": 134.4, "population": 11370}, {"name": "Kamikawa", "country_iso2": "JP", "state": "Saitama", "is_capital": false, "latitude": 36.2139, "longitude": 139.1017, "population": 13077}, {"name": "Kamikawa", "country_iso2": "JP", "state": "Hyōgo", "is_capital": false, "latitude": 35.0667, "longitude": 134.7333, "population": 10557}, {"name": "Kamikita-kita", "country_iso2": "JP", "state": "Aomori", "is_capital": false, "latitude": 40.736, "longitude": 140.956, "population": 9830}, {"name": "Kaminokawa", "country_iso2": "JP", "state": "Tochigi", "is_capital": false, "latitude": 36.4393, "longitude": 139.9099, "population": 30886}, {"name": "Kaminoyama", "country_iso2": "JP", "state": "Yamagata", "is_capital": false, "latitude": 38.1496, "longitude": 140.2679, "population": 29974}, {"name": "Kamirenjaku", "country_iso2": "JP", "state": "Tōkyō", "is_capital": false, "latitude": 35.6836, "longitude": 139.5595, "population": 194460}, {"name": "Kamisato", "country_iso2": "JP", "state": "Saitama", "is_capital": false, "latitude": 36.2516, "longitude": 139.1447, "population": 29987}, {"name": "Kamisu", "country_iso2": "JP", "state": "Ibaraki", "is_capital": false, "latitude": 35.8899, "longitude": 140.6645, "population": 95471}, {"name": "Kamitonda", "country_iso2": "JP", "state": "Wakayama", "is_capital": false, "latitude": 33.7, "longitude": 135.4333, "population": 15040}, {"name": "Kamo", "country_iso2": "JP", "state": "Niigata", "is_capital": false, "latitude": 37.6663, "longitude": 139.0402, "population": 25971}, {"name": "Kanada", "country_iso2": "JP", "state": "Fukuoka", "is_capital": false, "latitude": 33.7758, "longitude": 130.9806, "population": 36075}, {"name": "Kanagichō", "country_iso2": "JP", "state": "Aomori", "is_capital": false, "latitude": 40.9026, "longitude": 140.462, "population": 10557}, {"name": "Kanan", "country_iso2": "JP", "state": "Ōsaka", "is_capital": false, "latitude": 34.4833, "longitude": 135.6333, "population": 15497}, {"name": "Kanaya", "country_iso2": "JP", "state": "Shizuoka", "is_capital": false, "latitude": 34.8345, "longitude": 138.1267, "population": 20364}, {"name": "Kanazawa", "country_iso2": "JP", "state": "Ishikawa", "is_capital": true, "latitude": 36.5611, "longitude": 136.6564, "population": 462479}, {"name": "Kanbara", "country_iso2": "JP", "state": "Shizuoka", "is_capital": false, "latitude": 35.1159, "longitude": 138.5949, "population": 12777}, {"name": "Kandori", "country_iso2": "JP", "state": "Chiba", "is_capital": false, "latitude": 35.6796, "longitude": 139.9062, "population": 74469}, {"name": "Kanegasaki", "country_iso2": "JP", "state": "Iwate", "is_capital": false, "latitude": 39.1957, "longitude": 141.1163, "population": 15337}, {"name": "Kani", "country_iso2": "JP", "state": "Gifu", "is_capital": false, "latitude": 35.4261, "longitude": 137.0613, "population": 99545}, {"name": "Kanie", "country_iso2": "JP", "state": "Aichi", "is_capital": false, "latitude": 35.1322, "longitude": 136.7868, "population": 36782}, {"name": "Kanmaki", "country_iso2": "JP", "state": "Nara", "is_capital": false, "latitude": 34.5628, "longitude": 135.7167, "population": 21145}, {"name": "Kannan", "country_iso2": "JP", "state": "Shizuoka", "is_capital": false, "latitude": 35.0889, "longitude": 138.9534, "population": 36607}, {"name": "Kanoya", "country_iso2": "JP", "state": "Kagoshima", "is_capital": false, "latitude": 31.3783, "longitude": 130.8522, "population": 98367}, {"name": "Kanra", "country_iso2": "JP", "state": "Gunma", "is_capital": false, "latitude": 36.243, "longitude": 138.9218, "population": 12567}, {"name": "Kanuma", "country_iso2": "JP", "state": "Tochigi", "is_capital": false, "latitude": 36.5671, "longitude": 139.7451, "population": 94591}, {"name": "Kanzakimachi-kanzaki", "country_iso2": "JP", "state": "Saga", "is_capital": false, "latitude": 33.3119, "longitude": 130.3714, "population": 30329}, {"name": "Kan’onjichō", "country_iso2": "JP", "state": "Kagawa", "is_capital": false, "latitude": 34.1272, "longitude": 133.6614, "population": 57921}, {"name": "Karatsu", "country_iso2": "JP", "state": "Saga", "is_capital": false, "latitude": 33.45, "longitude": 129.9683, "population": 116052}, {"name": "Kariya", "country_iso2": "JP", "state": "Aichi", "is_capital": false, "latitude": 34.9893, "longitude": 137.0021, "population": 153178}, {"name": "Kariya", "country_iso2": "JP", "state": "Hyōgo", "is_capital": false, "latitude": 34.7517, "longitude": 134.3931, "population": 45747}, {"name": "Karuizawa", "country_iso2": "JP", "state": "Gunma", "is_capital": false, "latitude": 36.3486, "longitude": 138.5969, "population": 19648}, {"name": "Kasagi", "country_iso2": "JP", "state": "Wakayama", "is_capital": false, "latitude": 34.3, "longitude": 135.5, "population": 15565}, {"name": "Kasai", "country_iso2": "JP", "state": "Hyōgo", "is_capital": false, "latitude": 34.9333, "longitude": 134.8333, "population": 42290}, {"name": "Kasaishi", "country_iso2": "JP", "state": "Fukushima", "is_capital": false, "latitude": 37.2528, "longitude": 140.3434, "population": 12282}, {"name": "Kasama", "country_iso2": "JP", "state": "Ibaraki", "is_capital": false, "latitude": 36.3452, "longitude": 140.3043, "population": 73521}, {"name": "Kasamatsuchō", "country_iso2": "JP", "state": "Gifu", "is_capital": false, "latitude": 35.3672, "longitude": 136.7632, "population": 22415}, {"name": "Kasaoka", "country_iso2": "JP", "state": "Okayama", "is_capital": false, "latitude": 34.5039, "longitude": 133.51, "population": 46080}, {"name": "Kaseda-shirakame", "country_iso2": "JP", "state": "Kagoshima", "is_capital": false, "latitude": 31.4167, "longitude": 130.3233, "population": 31397}, {"name": "Kashiba", "country_iso2": "JP", "state": "Nara", "is_capital": false, "latitude": 34.5414, "longitude": 135.6992, "population": 78346}, {"name": "Kashima", "country_iso2": "JP", "state": "Ibaraki", "is_capital": false, "latitude": 35.9656, "longitude": 140.6448, "population": 67001}, {"name": "Kashima", "country_iso2": "JP", "state": "Saga", "is_capital": false, "latitude": 33.1039, "longitude": 130.0986, "population": 27710}, {"name": "Kashiwa", "country_iso2": "JP", "state": "Chiba", "is_capital": false, "latitude": 35.8676, "longitude": 139.9758, "population": 427603}, {"name": "Kashiwara", "country_iso2": "JP", "state": "Nara", "is_capital": false, "latitude": 34.5094, "longitude": 135.8092, "population": 121604}, {"name": "Kashiwara", "country_iso2": "JP", "state": "Ōsaka", "is_capital": false, "latitude": 34.5833, "longitude": 135.6333, "population": 67757}, {"name": "Kashiwazaki", "country_iso2": "JP", "state": "Niigata", "is_capital": false, "latitude": 37.3719, "longitude": 138.559, "population": 81027}, {"name": "Kasuga", "country_iso2": "JP", "state": "Fukuoka", "is_capital": false, "latitude": 33.5328, "longitude": 130.4703, "population": 111144}, {"name": "Kasugai", "country_iso2": "JP", "state": "Aichi", "is_capital": false, "latitude": 35.2475, "longitude": 136.9722, "population": 306449}, {"name": "Kasukabe", "country_iso2": "JP", "state": "Saitama", "is_capital": false, "latitude": 35.9753, "longitude": 139.7523, "population": 228975}, {"name": "Kasumi", "country_iso2": "JP", "state": "Hyōgo", "is_capital": false, "latitude": 35.6333, "longitude": 134.6333, "population": 16256}, {"name": "Kasumigaura", "country_iso2": "JP", "state": "Ibaraki", "is_capital": false, "latitude": 36.1517, "longitude": 140.2371, "population": 39993}, {"name": "Kasuya", "country_iso2": "JP", "state": "Fukuoka", "is_capital": false, "latitude": 33.6108, "longitude": 130.4806, "population": 47981}, {"name": "Katagami", "country_iso2": "JP", "state": "Akita", "is_capital": false, "latitude": 39.8832, "longitude": 139.9886, "population": 31558}, {"name": "Katano", "country_iso2": "JP", "state": "Ōsaka", "is_capital": false, "latitude": 34.7833, "longitude": 135.6833, "population": 77401}, {"name": "Katori", "country_iso2": "JP", "state": "Chiba", "is_capital": false, "latitude": 35.6833, "longitude": 140.0333, "population": 74469}, {"name": "Katsuragi", "country_iso2": "JP", "state": "Nara", "is_capital": false, "latitude": 34.4892, "longitude": 135.7264, "population": 37225}, {"name": "Katsuren-haebaru", "country_iso2": "JP", "state": "Okinawa", "is_capital": false, "latitude": 26.1911, "longitude": 127.7286, "population": 40541}, {"name": "Katsushika-ku", "country_iso2": "JP", "state": "Tōkyō", "is_capital": false, "latitude": 35.7333, "longitude": 139.85, "population": 451772}, {"name": "Katsuura", "country_iso2": "JP", "state": "Chiba", "is_capital": false, "latitude": 35.15, "longitude": 140.3167, "population": 16723}, {"name": "Katsuyama", "country_iso2": "JP", "state": "Okayama", "is_capital": false, "latitude": 35.0876, "longitude": 133.6913, "population": 9027}, {"name": "Katō", "country_iso2": "JP", "state": "Hyōgo", "is_capital": false, "latitude": 34.9167, "longitude": 134.9667, "population": 40728}, {"name": "Kawachichō", "country_iso2": "JP", "state": "Ōsaka", "is_capital": false, "latitude": 34.6794, "longitude": 135.6008, "population": 486464}, {"name": "Kawachinagano", "country_iso2": "JP", "state": "Ōsaka", "is_capital": false, "latitude": 34.4667, "longitude": 135.5667, "population": 100415}, {"name": "Kawagoe", "country_iso2": "JP", "state": "Saitama", "is_capital": false, "latitude": 35.9251, "longitude": 139.4858, "population": 354598}, {"name": "Kawagoe", "country_iso2": "JP", "state": "Mie", "is_capital": false, "latitude": 35.0167, "longitude": 136.6667, "population": 15048}, {"name": "Kawaguchi", "country_iso2": "JP", "state": "Saitama", "is_capital": false, "latitude": 35.8077, "longitude": 139.7241, "population": 607373}, {"name": "Kawai", "country_iso2": "JP", "state": "Nara", "is_capital": false, "latitude": 34.5783, "longitude": 135.7367, "population": 16983}, {"name": "Kawai", "country_iso2": "JP", "state": "Shizuoka", "is_capital": false, "latitude": 35.2, "longitude": 138.5667, "population": 9238}, {"name": "Kawaii", "country_iso2": "JP", "state": "Yamagata", "is_capital": false, "latitude": 38.0045, "longitude": 140.0458, "population": 14196}, {"name": "Kawamata", "country_iso2": "JP", "state": "Fukushima", "is_capital": false, "latitude": 37.665, "longitude": 140.5983, "population": 12537}, {"name": "Kawaminami", "country_iso2": "JP", "state": "Miyazaki", "is_capital": false, "latitude": 32.1919, "longitude": 131.5258, "population": 15151}, {"name": "Kawara", "country_iso2": "JP", "state": "Fukuoka", "is_capital": false, "latitude": 33.6681, "longitude": 130.8472, "population": 9955}, {"name": "Kawasaki", "country_iso2": "JP", "state": "Kanagawa", "is_capital": false, "latitude": 35.5167, "longitude": 139.7, "population": 1531646}, {"name": "Kawasaki", "country_iso2": "JP", "state": "Fukuoka", "is_capital": false, "latitude": 33.6, "longitude": 130.815, "population": 15134}, {"name": "Kawashiri", "country_iso2": "JP", "state": "Ōsaka", "is_capital": false, "latitude": 34.8333, "longitude": 135.4167, "population": 152076}, {"name": "Kawatana", "country_iso2": "JP", "state": "Nagasaki", "is_capital": false, "latitude": 33.0728, "longitude": 129.8614, "population": 13370}, {"name": "Kazo", "country_iso2": "JP", "state": "Saitama", "is_capital": false, "latitude": 36.1314, "longitude": 139.6018, "population": 112792}, {"name": "Keisen", "country_iso2": "JP", "state": "Fukuoka", "is_capital": false, "latitude": 33.5789, "longitude": 130.6781, "population": 12876}, {"name": "Kemigawa", "country_iso2": "JP", "state": "Chiba", "is_capital": false, "latitude": 35.6514, "longitude": 140.0662, "population": 11494}, {"name": "Kesennuma", "country_iso2": "JP", "state": "Miyagi", "is_capital": false, "latitude": 38.9081, "longitude": 141.5699, "population": 59341}, {"name": "Kibichūō", "country_iso2": "JP", "state": "Okayama", "is_capital": false, "latitude": 34.8633, "longitude": 133.6936, "population": 10495}, {"name": "Kihoku", "country_iso2": "JP", "state": "Mie", "is_capital": false, "latitude": 34.2114, "longitude": 136.3372, "population": 14392}, {"name": "Kihō", "country_iso2": "JP", "state": "Mie", "is_capital": false, "latitude": 33.7333, "longitude": 136.0, "population": 10404}, {"name": "Kikuchi", "country_iso2": "JP", "state": "Kumamoto", "is_capital": false, "latitude": 32.9794, "longitude": 130.8133, "population": 45971}, {"name": "Kikugawa", "country_iso2": "JP", "state": "Shizuoka", "is_capital": false, "latitude": 34.75, "longitude": 138.0833, "population": 47194}, {"name": "Kikuyō", "country_iso2": "JP", "state": "Kumamoto", "is_capital": false, "latitude": 32.8625, "longitude": 130.8286, "population": 43430}, {"name": "Kimitsu", "country_iso2": "JP", "state": "Chiba", "is_capital": false, "latitude": 35.3304, "longitude": 139.9027, "population": 81355}, {"name": "Kin", "country_iso2": "JP", "state": "Okinawa", "is_capital": false, "latitude": 26.4561, "longitude": 127.9261, "population": 11252}, {"name": "Kirishima", "country_iso2": "JP", "state": "Kagoshima", "is_capital": false, "latitude": 31.7411, "longitude": 130.7633, "population": 123812}, {"name": "Kiryū", "country_iso2": "JP", "state": "Gunma", "is_capital": false, "latitude": 36.4052, "longitude": 139.4973, "population": 105751}, {"name": "Kisai", "country_iso2": "JP", "state": "Saitama", "is_capital": false, "latitude": 36.1, "longitude": 139.5667, "population": 19884}, {"name": "Kisanuki", "country_iso2": "JP", "state": "Kagoshima", "is_capital": false, "latitude": 31.3444, "longitude": 130.9453, "population": 14114}, {"name": "Kisarazu", "country_iso2": "JP", "state": "Chiba", "is_capital": false, "latitude": 35.376, "longitude": 139.9168, "population": 136023}, {"name": "Kishi", "country_iso2": "JP", "state": "Kanagawa", "is_capital": false, "latitude": 35.3333, "longitude": 139.1333, "population": 18204}, {"name": "Kishiwada", "country_iso2": "JP", "state": "Ōsaka", "is_capital": false, "latitude": 34.4667, "longitude": 135.3667, "population": 188015}, {"name": "Kiso", "country_iso2": "JP", "state": "Nagano", "is_capital": false, "latitude": 35.9363, "longitude": 137.7831, "population": 10429}, {"name": "Kita-ku", "country_iso2": "JP", "state": "Tōkyō", "is_capital": false, "latitude": 35.75, "longitude": 139.7333, "population": 353058}, {"name": "Kitaakita", "country_iso2": "JP", "state": "Akita", "is_capital": false, "latitude": 40.226, "longitude": 140.3708, "population": 29696}, {"name": "Kitagata", "country_iso2": "JP", "state": "Gifu", "is_capital": false, "latitude": 35.4333, "longitude": 136.6833, "population": 18308}, {"name": "Kitahiroshima", "country_iso2": "JP", "state": "Hokkaidō", "is_capital": false, "latitude": 42.9833, "longitude": 141.5667, "population": 58125}, {"name": "Kitahiroshima", "country_iso2": "JP", "state": "Hiroshima", "is_capital": false, "latitude": 34.6744, "longitude": 132.5383, "population": 17669}, {"name": "Kitaibaraki", "country_iso2": "JP", "state": "Ibaraki", "is_capital": false, "latitude": 36.8019, "longitude": 140.751, "population": 41352}, {"name": "Kitajima", "country_iso2": "JP", "state": "Tokushima", "is_capital": false, "latitude": 34.1333, "longitude": 134.55, "population": 22670}, {"name": "Kitakami", "country_iso2": "JP", "state": "Iwate", "is_capital": false, "latitude": 39.2867, "longitude": 141.1132, "population": 92348}, {"name": "Kitakata", "country_iso2": "JP", "state": "Fukushima", "is_capital": false, "latitude": 37.6511, "longitude": 139.8748, "population": 45590}, {"name": "Kitakyūshū", "country_iso2": "JP", "state": "Fukuoka", "is_capital": false, "latitude": 33.8833, "longitude": 130.8833, "population": 935084}, {"name": "Kitakōriyamachō", "country_iso2": "JP", "state": "Nara", "is_capital": false, "latitude": 34.6494, "longitude": 135.7828, "population": 84007}, {"name": "Kitamoto", "country_iso2": "JP", "state": "Saitama", "is_capital": false, "latitude": 36.0269, "longitude": 139.5302, "population": 65191}, {"name": "Kitanagoya", "country_iso2": "JP", "state": "Aichi", "is_capital": false, "latitude": 35.2456, "longitude": 136.8659, "population": 86060}, {"name": "Kitanakagusuku", "country_iso2": "JP", "state": "Okinawa", "is_capital": false, "latitude": 26.3011, "longitude": 127.7931, "population": 17038}, {"name": "Kitatajima", "country_iso2": "JP", "state": "Saitama", "is_capital": false, "latitude": 35.9821, "longitude": 139.4816, "population": 19362}, {"name": "Kitsuki", "country_iso2": "JP", "state": "Ōita", "is_capital": false, "latitude": 33.4169, "longitude": 131.6161, "population": 27668}, {"name": "Kiyama", "country_iso2": "JP", "state": "Fukuoka", "is_capital": false, "latitude": 33.4269, "longitude": 130.5231, "population": 17455}, {"name": "Kiyose", "country_iso2": "JP", "state": "Saitama", "is_capital": false, "latitude": 35.7857, "longitude": 139.5265, "population": 75389}, {"name": "Kiyosu", "country_iso2": "JP", "state": "Aichi", "is_capital": false, "latitude": 35.1998, "longitude": 136.8529, "population": 69687}, {"name": "Kizugawa", "country_iso2": "JP", "state": "Kyōto", "is_capital": false, "latitude": 34.7372, "longitude": 135.82, "population": 78035}, {"name": "Kobayashi", "country_iso2": "JP", "state": "Miyazaki", "is_capital": false, "latitude": 31.9967, "longitude": 130.9725, "population": 43114}, {"name": "Kodaira", "country_iso2": "JP", "state": "Tōkyō", "is_capital": false, "latitude": 35.7285, "longitude": 139.4774, "population": 196959}, {"name": "Koga", "country_iso2": "JP", "state": "Ibaraki", "is_capital": false, "latitude": 36.1782, "longitude": 139.7554, "population": 138237}, {"name": "Koga", "country_iso2": "JP", "state": "Fukuoka", "is_capital": false, "latitude": 33.7289, "longitude": 130.47, "population": 59349}, {"name": "Koganei", "country_iso2": "JP", "state": "Tōkyō", "is_capital": false, "latitude": 35.6995, "longitude": 139.503, "population": 127226}, {"name": "Koja", "country_iso2": "JP", "state": "Okinawa", "is_capital": false, "latitude": 26.3344, "longitude": 127.8057, "population": 58658}, {"name": "Kokawa", "country_iso2": "JP", "state": "Wakayama", "is_capital": false, "latitude": 34.2664, "longitude": 135.3653, "population": 60592}, {"name": "Kokubunji", "country_iso2": "JP", "state": "Tōkyō", "is_capital": false, "latitude": 35.7109, "longitude": 139.4622, "population": 129619}, {"name": "Komae", "country_iso2": "JP", "state": "Tōkyō", "is_capital": false, "latitude": 35.6348, "longitude": 139.5787, "population": 84437}, {"name": "Komagane", "country_iso2": "JP", "state": "Nagano", "is_capital": false, "latitude": 35.7288, "longitude": 137.9339, "population": 31763}, {"name": "Komaki", "country_iso2": "JP", "state": "Aichi", "is_capital": false, "latitude": 35.291, "longitude": 136.9121, "population": 147897}, {"name": "Komatsu", "country_iso2": "JP", "state": "Ishikawa", "is_capital": false, "latitude": 36.4083, "longitude": 136.4455, "population": 108509}, {"name": "Komatsushimachō", "country_iso2": "JP", "state": "Tokushima", "is_capital": false, "latitude": 34.0003, "longitude": 134.5844, "population": 36123}, {"name": "Kominato", "country_iso2": "JP", "state": "Aomori", "is_capital": false, "latitude": 40.9259, "longitude": 140.9559, "population": 9790}, {"name": "Komono", "country_iso2": "JP", "state": "Mie", "is_capital": false, "latitude": 35.0167, "longitude": 136.5, "population": 40329}, {"name": "Komoro", "country_iso2": "JP", "state": "Nagano", "is_capital": false, "latitude": 36.3275, "longitude": 138.4258, "population": 41066}, {"name": "Konan", "country_iso2": "JP", "state": "Shiga", "is_capital": false, "latitude": 35.0, "longitude": 136.0833, "population": 54392}, {"name": "Koori", "country_iso2": "JP", "state": "Fukushima", "is_capital": false, "latitude": 37.8494, "longitude": 140.5164, "population": 11425}, {"name": "Koriyama", "country_iso2": "JP", "state": "Fukushima", "is_capital": false, "latitude": 37.4004, "longitude": 140.3597, "population": 327040}, {"name": "Kosai", "country_iso2": "JP", "state": "Shizuoka", "is_capital": false, "latitude": 34.7184, "longitude": 137.5316, "population": 57682}, {"name": "Koshigaya", "country_iso2": "JP", "state": "Saitama", "is_capital": false, "latitude": 35.8911, "longitude": 139.7909, "population": 341784}, {"name": "Kotoura", "country_iso2": "JP", "state": "Tottori", "is_capital": false, "latitude": 35.5, "longitude": 133.7, "population": 16167}, {"name": "Kozakai-chō", "country_iso2": "JP", "state": "Aichi", "is_capital": false, "latitude": 34.8, "longitude": 137.3667, "population": 21708}, {"name": "Kudamatsu", "country_iso2": "JP", "state": "Yamaguchi", "is_capital": false, "latitude": 34.015, "longitude": 131.8703, "population": 56661}, {"name": "Kuji", "country_iso2": "JP", "state": "Iwate", "is_capital": false, "latitude": 40.1905, "longitude": 141.7757, "population": 34418}, {"name": "Kujūkuri", "country_iso2": "JP", "state": "Chiba", "is_capital": false, "latitude": 35.5333, "longitude": 140.4333, "population": 14652}, {"name": "Kukichūō", "country_iso2": "JP", "state": "Saitama", "is_capital": false, "latitude": 36.0621, "longitude": 139.6668, "population": 150197}, {"name": "Kumagaya", "country_iso2": "JP", "state": "Saitama", "is_capital": false, "latitude": 36.1474, "longitude": 139.3886, "population": 193190}, {"name": "Kumage", "country_iso2": "JP", "state": "Yamaguchi", "is_capital": false, "latitude": 34.0495, "longitude": 131.969, "population": 16666}, {"name": "Kumamoto", "country_iso2": "JP", "state": "Kumamoto", "is_capital": true, "latitude": 32.8031, "longitude": 130.7078, "population": 738385}, {"name": "Kumano", "country_iso2": "JP", "state": "Hiroshima", "is_capital": false, "latitude": 34.3358, "longitude": 132.5847, "population": 22760}, {"name": "Kumano", "country_iso2": "JP", "state": "Mie", "is_capital": false, "latitude": 33.8886, "longitude": 136.1002, "population": 15806}, {"name": "Kumatori", "country_iso2": "JP", "state": "Ōsaka", "is_capital": false, "latitude": 34.4, "longitude": 135.35, "population": 43570}, {"name": "Kumiyama", "country_iso2": "JP", "state": "Kyōto", "is_capital": false, "latitude": 34.8814, "longitude": 135.7328, "population": 15200}, {"name": "Kunisakimachi-tsurugawa", "country_iso2": "JP", "state": "Ōita", "is_capital": false, "latitude": 33.5633, "longitude": 131.7322, "population": 25790}, {"name": "Kunitachi", "country_iso2": "JP", "state": "Tōkyō", "is_capital": false, "latitude": 35.6839, "longitude": 139.4414, "population": 75133}, {"name": "Kunitomi", "country_iso2": "JP", "state": "Miyazaki", "is_capital": false, "latitude": 31.9906, "longitude": 131.3236, "population": 18460}, {"name": "Kurashiki", "country_iso2": "JP", "state": "Okayama", "is_capital": false, "latitude": 34.585, "longitude": 133.7722, "population": 474862}, {"name": "Kurate", "country_iso2": "JP", "state": "Fukuoka", "is_capital": false, "latitude": 33.7921, "longitude": 130.6741, "population": 14901}, {"name": "Kurayoshi", "country_iso2": "JP", "state": "Tottori", "is_capital": false, "latitude": 35.4333, "longitude": 133.8167, "population": 46269}, {"name": "Kure", "country_iso2": "JP", "state": "Hiroshima", "is_capital": false, "latitude": 34.2492, "longitude": 132.5658, "population": 212159}, {"name": "Kurihara", "country_iso2": "JP", "state": "Miyagi", "is_capital": false, "latitude": 38.7301, "longitude": 141.0215, "population": 63689}, {"name": "Kuriyama", "country_iso2": "JP", "state": "Hokkaidō", "is_capital": false, "latitude": 43.05, "longitude": 141.7833, "population": 11474}, {"name": "Kurobeshin", "country_iso2": "JP", "state": "Toyama", "is_capital": false, "latitude": 36.8667, "longitude": 137.45, "population": 39718}, {"name": "Kuroishi", "country_iso2": "JP", "state": "Aomori", "is_capital": false, "latitude": 40.6426, "longitude": 140.6113, "population": 31604}, {"name": "Kuroshio", "country_iso2": "JP", "state": "Kōchi", "is_capital": false, "latitude": 33.0167, "longitude": 133.0167, "population": 10073}, {"name": "Kurume", "country_iso2": "JP", "state": "Fukuoka", "is_capital": false, "latitude": 33.3192, "longitude": 130.5083, "population": 302858}, {"name": "Kusatsu", "country_iso2": "JP", "state": "Shiga", "is_capital": false, "latitude": 35.0167, "longitude": 135.9667, "population": 139913}, {"name": "Kuse", "country_iso2": "JP", "state": "Okayama", "is_capital": false, "latitude": 35.0759, "longitude": 133.7534, "population": 11424}, {"name": "Kushijima", "country_iso2": "JP", "state": "Kumamoto", "is_capital": false, "latitude": 32.74, "longitude": 130.7572, "population": 9624}, {"name": "Kushima", "country_iso2": "JP", "state": "Miyazaki", "is_capital": false, "latitude": 31.4644, "longitude": 131.2283, "population": 16744}, {"name": "Kushimoto", "country_iso2": "JP", "state": "Wakayama", "is_capital": false, "latitude": 33.4667, "longitude": 135.7833, "population": 14661}, {"name": "Kushiro", "country_iso2": "JP", "state": "Hokkaidō", "is_capital": false, "latitude": 42.9833, "longitude": 144.3833, "population": 165699}, {"name": "Kushiro", "country_iso2": "JP", "state": "Hokkaidō", "is_capital": false, "latitude": 42.98, "longitude": 144.38, "population": 19391}, {"name": "Kutchan", "country_iso2": "JP", "state": "Hokkaidō", "is_capital": false, "latitude": 42.9, "longitude": 140.7667, "population": 15123}, {"name": "Kuwana", "country_iso2": "JP", "state": "Mie", "is_capital": false, "latitude": 35.0667, "longitude": 136.6833, "population": 138798}, {"name": "Kyōtamba", "country_iso2": "JP", "state": "Kyōto", "is_capital": false, "latitude": 35.1667, "longitude": 135.4167, "population": 12714}, {"name": "Kyōtanabe", "country_iso2": "JP", "state": "Kyōto", "is_capital": false, "latitude": 34.8144, "longitude": 135.7678, "population": 73985}, {"name": "Kyōtango", "country_iso2": "JP", "state": "Kyōto", "is_capital": false, "latitude": 35.6242, "longitude": 135.0611, "population": 50857}, {"name": "Kyōto", "country_iso2": "JP", "state": "Kyōto", "is_capital": true, "latitude": 35.0117, "longitude": 135.7683, "population": 1463723}, {"name": "Kōbe", "country_iso2": "JP", "state": "Hyōgo", "is_capital": true, "latitude": 34.69, "longitude": 135.1956, "population": 1521707}, {"name": "Kōchi", "country_iso2": "JP", "state": "Kōchi", "is_capital": true, "latitude": 33.5589, "longitude": 133.5314, "population": 325535}, {"name": "Kōenchō", "country_iso2": "JP", "state": "Hokkaidō", "is_capital": false, "latitude": 43.8031, "longitude": 143.8947, "population": 115441}, {"name": "Kōfu", "country_iso2": "JP", "state": "Yamanashi", "is_capital": true, "latitude": 35.6621, "longitude": 138.5682, "population": 187144}, {"name": "Kōka", "country_iso2": "JP", "state": "Shiga", "is_capital": false, "latitude": 34.9667, "longitude": 136.1667, "population": 89619}, {"name": "Kōnan", "country_iso2": "JP", "state": "Aichi", "is_capital": false, "latitude": 35.3321, "longitude": 136.8707, "population": 97435}, {"name": "Kōnan", "country_iso2": "JP", "state": "Kōchi", "is_capital": false, "latitude": 33.5667, "longitude": 133.7, "population": 32123}, {"name": "Kōnosu", "country_iso2": "JP", "state": "Saitama", "is_capital": false, "latitude": 36.0659, "longitude": 139.5222, "population": 116777}, {"name": "Kōryō", "country_iso2": "JP", "state": "Nara", "is_capital": false, "latitude": 34.5428, "longitude": 135.7508, "population": 35035}, {"name": "Kōshizuka", "country_iso2": "JP", "state": "Kumamoto", "is_capital": false, "latitude": 32.8931, "longitude": 130.7251, "population": 61997}, {"name": "Kōshū", "country_iso2": "JP", "state": "Yamanashi", "is_capital": false, "latitude": 35.7043, "longitude": 138.7294, "population": 29237}, {"name": "Kōta", "country_iso2": "JP", "state": "Aichi", "is_capital": false, "latitude": 34.8645, "longitude": 137.1657, "population": 42523}, {"name": "Kōtō-ku", "country_iso2": "JP", "state": "Tōkyō", "is_capital": false, "latitude": 35.6667, "longitude": 139.8167, "population": 523419}, {"name": "Machida", "country_iso2": "JP", "state": "Tōkyō", "is_capital": false, "latitude": 35.5542, "longitude": 139.4431, "population": 434414}, {"name": "Maebara", "country_iso2": "JP", "state": "Chiba", "is_capital": false, "latitude": 35.114, "longitude": 140.0989, "population": 31722}, {"name": "Maebashi", "country_iso2": "JP", "state": "Gunma", "is_capital": true, "latitude": 36.3895, "longitude": 139.0634, "population": 331849}, {"name": "Maesawa", "country_iso2": "JP", "state": "Iwate", "is_capital": false, "latitude": 39.05, "longitude": 141.1167, "population": 15111}, {"name": "Maibara", "country_iso2": "JP", "state": "Shiga", "is_capital": false, "latitude": 35.3167, "longitude": 136.2833, "population": 38259}, {"name": "Maisaka", "country_iso2": "JP", "state": "Shizuoka", "is_capital": false, "latitude": 34.6857, "longitude": 137.6272, "population": 11872}, {"name": "Maizuru", "country_iso2": "JP", "state": "Kyōto", "is_capital": false, "latitude": 35.4667, "longitude": 135.3833, "population": 78730}, {"name": "Maki", "country_iso2": "JP", "state": "Niigata", "is_capital": false, "latitude": 37.7605, "longitude": 138.8893, "population": 28713}, {"name": "Makinohara", "country_iso2": "JP", "state": "Shizuoka", "is_capital": false, "latitude": 34.7333, "longitude": 138.2167, "population": 43061}, {"name": "Makubetsu", "country_iso2": "JP", "state": "Hokkaidō", "is_capital": false, "latitude": 42.9167, "longitude": 143.35, "population": 26444}, {"name": "Makurazaki", "country_iso2": "JP", "state": "Kagoshima", "is_capital": false, "latitude": 31.2731, "longitude": 130.2969, "population": 19817}, {"name": "Maniwa", "country_iso2": "JP", "state": "Okayama", "is_capital": false, "latitude": 35.0758, "longitude": 133.7525, "population": 42259}, {"name": "Mannō", "country_iso2": "JP", "state": "Kagawa", "is_capital": false, "latitude": 34.2, "longitude": 133.8333, "population": 17711}, {"name": "Marugame", "country_iso2": "JP", "state": "Kagawa", "is_capital": false, "latitude": 34.2833, "longitude": 133.8, "population": 109165}, {"name": "Marumori", "country_iso2": "JP", "state": "Miyagi", "is_capital": false, "latitude": 37.9114, "longitude": 140.7654, "population": 12251}, {"name": "Masaki", "country_iso2": "JP", "state": "Ehime", "is_capital": false, "latitude": 33.7833, "longitude": 132.7167, "population": 39681}, {"name": "Mashiki", "country_iso2": "JP", "state": "Kumamoto", "is_capital": false, "latitude": 32.7833, "longitude": 130.8, "population": 32587}, {"name": "Mashiko", "country_iso2": "JP", "state": "Tochigi", "is_capital": false, "latitude": 36.4673, "longitude": 140.0934, "population": 21621}, {"name": "Masuda", "country_iso2": "JP", "state": "Shimane", "is_capital": false, "latitude": 34.6747, "longitude": 131.8428, "population": 44474}, {"name": "Matsubara", "country_iso2": "JP", "state": "Ōsaka", "is_capital": false, "latitude": 34.5833, "longitude": 135.55, "population": 117811}, {"name": "Matsubushi", "country_iso2": "JP", "state": "Saitama", "is_capital": false, "latitude": 35.9258, "longitude": 139.8152, "population": 28494}, {"name": "Matsuda-sōryō", "country_iso2": "JP", "state": "Kanagawa", "is_capital": false, "latitude": 35.35, "longitude": 139.1333, "population": 10682}, {"name": "Matsudo", "country_iso2": "JP", "state": "Chiba", "is_capital": false, "latitude": 35.7876, "longitude": 139.9032, "population": 497514}, {"name": "Matsue", "country_iso2": "JP", "state": "Shimane", "is_capital": true, "latitude": 35.4681, "longitude": 133.0486, "population": 201802}, {"name": "Matsukawa", "country_iso2": "JP", "state": "Nagano", "is_capital": false, "latitude": 35.5972, "longitude": 137.9097, "population": 12435}, {"name": "Matsumoto", "country_iso2": "JP", "state": "Nagano", "is_capital": false, "latitude": 36.238, "longitude": 137.972, "population": 239115}, {"name": "Matsuo", "country_iso2": "JP", "state": "Chiba", "is_capital": false, "latitude": 35.633, "longitude": 140.467, "population": 11121}, {"name": "Matsushige", "country_iso2": "JP", "state": "Tokushima", "is_capital": false, "latitude": 34.1339, "longitude": 134.5803, "population": 14723}, {"name": "Matsushima", "country_iso2": "JP", "state": "Miyagi", "is_capital": false, "latitude": 38.3802, "longitude": 141.0673, "population": 13151}, {"name": "Matsuura", "country_iso2": "JP", "state": "Nagasaki", "is_capital": false, "latitude": 33.3408, "longitude": 129.7092, "population": 21203}, {"name": "Matsuyama", "country_iso2": "JP", "state": "Ehime", "is_capital": true, "latitude": 33.8333, "longitude": 132.7667, "population": 506743}, {"name": "Matsuzaka", "country_iso2": "JP", "state": "Mie", "is_capital": false, "latitude": 34.5779, "longitude": 136.5276, "population": 158472}, {"name": "Meguro", "country_iso2": "JP", "state": "Tōkyō", "is_capital": false, "latitude": 35.6333, "longitude": 139.6833, "population": 288088}, {"name": "Meiwa", "country_iso2": "JP", "state": "Mie", "is_capital": false, "latitude": 34.55, "longitude": 136.6167, "population": 22523}, {"name": "Meiwa", "country_iso2": "JP", "state": "Gunma", "is_capital": false, "latitude": 36.2113, "longitude": 139.5342, "population": 10714}, {"name": "Memuro-minami", "country_iso2": "JP", "state": "Hokkaidō", "is_capital": false, "latitude": 42.9167, "longitude": 143.05, "population": 18329}, {"name": "Mibu", "country_iso2": "JP", "state": "Tochigi", "is_capital": false, "latitude": 36.4271, "longitude": 139.804, "population": 39151}, {"name": "Midori", "country_iso2": "JP", "state": "Gunma", "is_capital": false, "latitude": 36.3948, "longitude": 139.2811, "population": 49190}, {"name": "Mifune", "country_iso2": "JP", "state": "Kumamoto", "is_capital": false, "latitude": 32.7144, "longitude": 130.8019, "population": 16468}, {"name": "Mihama", "country_iso2": "JP", "state": "Aichi", "is_capital": false, "latitude": 34.7789, "longitude": 136.9082, "population": 22440}, {"name": "Mihara", "country_iso2": "JP", "state": "Hiroshima", "is_capital": false, "latitude": 34.3975, "longitude": 133.0786, "population": 89972}, {"name": "Miharu", "country_iso2": "JP", "state": "Fukushima", "is_capital": false, "latitude": 37.441, "longitude": 140.4926, "population": 17319}, {"name": "Miho", "country_iso2": "JP", "state": "Ibaraki", "is_capital": false, "latitude": 36.0045, "longitude": 140.3019, "population": 14355}, {"name": "Miki", "country_iso2": "JP", "state": "Hyōgo", "is_capital": false, "latitude": 34.7936, "longitude": 134.9931, "population": 74255}, {"name": "Miki", "country_iso2": "JP", "state": "Kagawa", "is_capital": false, "latitude": 34.2667, "longitude": 134.1333, "population": 26859}, {"name": "Mikkabi", "country_iso2": "JP", "state": "Shizuoka", "is_capital": false, "latitude": 34.8031, "longitude": 137.5561, "population": 16059}, {"name": "Mima", "country_iso2": "JP", "state": "Tokushima", "is_capital": false, "latitude": 34.05, "longitude": 134.1667, "population": 28087}, {"name": "Mimasaka", "country_iso2": "JP", "state": "Okayama", "is_capital": false, "latitude": 35.0086, "longitude": 134.1486, "population": 25497}, {"name": "Mimata", "country_iso2": "JP", "state": "Miyazaki", "is_capital": false, "latitude": 31.7306, "longitude": 131.125, "population": 25474}, {"name": "Minabe", "country_iso2": "JP", "state": "Wakayama", "is_capital": false, "latitude": 33.7725, "longitude": 135.3206, "population": 12137}, {"name": "Minakami", "country_iso2": "JP", "state": "Gunma", "is_capital": false, "latitude": 36.6786, "longitude": 138.9991, "population": 17223}, {"name": "Minamata", "country_iso2": "JP", "state": "Kumamoto", "is_capital": false, "latitude": 32.2167, "longitude": 130.4, "population": 23155}, {"name": "Minami-Alps", "country_iso2": "JP", "state": "Yamanashi", "is_capital": false, "latitude": 35.6083, "longitude": 138.465, "population": 69642}, {"name": "Minami-Bōsō", "country_iso2": "JP", "state": "Chiba", "is_capital": false, "latitude": 35.0432, "longitude": 139.84, "population": 35454}, {"name": "Minami-Sōma", "country_iso2": "JP", "state": "Fukushima", "is_capital": false, "latitude": 37.6422, "longitude": 140.9573, "population": 52619}, {"name": "Minamiaizu", "country_iso2": "JP", "state": "Fukushima", "is_capital": false, "latitude": 37.2004, "longitude": 139.7732, "population": 14204}, {"name": "Minamiaso", "country_iso2": "JP", "state": "Kumamoto", "is_capital": false, "latitude": 32.8167, "longitude": 131.0333, "population": 10212}, {"name": "Minamichita", "country_iso2": "JP", "state": "Aichi", "is_capital": false, "latitude": 34.7151, "longitude": 136.9298, "population": 16805}, {"name": "Minamiise", "country_iso2": "JP", "state": "Mie", "is_capital": false, "latitude": 34.35, "longitude": 136.7, "population": 10926}, {"name": "Minamikarasuyama", "country_iso2": "JP", "state": "Tōkyō", "is_capital": false, "latitude": 35.6683, "longitude": 139.6012, "population": 23445}, {"name": "Minamikyūshū", "country_iso2": "JP", "state": "Kagoshima", "is_capital": false, "latitude": 31.3783, "longitude": 130.4417, "population": 33115}, {"name": "Minamiminowa", "country_iso2": "JP", "state": "Nagano", "is_capital": false, "latitude": 35.8729, "longitude": 137.9751, "population": 15727}, {"name": "Minamisanriku", "country_iso2": "JP", "state": "Miyagi", "is_capital": false, "latitude": 38.6793, "longitude": 141.4608, "population": 10896}, {"name": "Minamisatsuma", "country_iso2": "JP", "state": "Kagoshima", "is_capital": false, "latitude": 31.4167, "longitude": 130.3233, "population": 32503}, {"name": "Minamishibetsuchō", "country_iso2": "JP", "state": "Hokkaidō", "is_capital": false, "latitude": 43.1758, "longitude": 142.4, "population": 18138}, {"name": "Minamishimabara", "country_iso2": "JP", "state": "Nagasaki", "is_capital": false, "latitude": 32.6597, "longitude": 130.2978, "population": 41903}, {"name": "Minamishiro", "country_iso2": "JP", "state": "Saitama", "is_capital": false, "latitude": 36.0227, "longitude": 139.7227, "population": 34012}, {"name": "Minamisuita", "country_iso2": "JP", "state": "Ōsaka", "is_capital": false, "latitude": 34.7594, "longitude": 135.5169, "population": 381238}, {"name": "Minamiuonuma", "country_iso2": "JP", "state": "Niigata", "is_capital": false, "latitude": 37.0655, "longitude": 138.8761, "population": 54820}, {"name": "Minano", "country_iso2": "JP", "state": "Saitama", "is_capital": false, "latitude": 36.0708, "longitude": 139.0988, "population": 9338}, {"name": "Minato", "country_iso2": "JP", "state": "Tōkyō", "is_capital": false, "latitude": 35.6581, "longitude": 139.7514, "population": 260486}, {"name": "Mine", "country_iso2": "JP", "state": "Yamaguchi", "is_capital": false, "latitude": 34.1631, "longitude": 131.2083, "population": 23236}, {"name": "Mineshita", "country_iso2": "JP", "state": "Shizuoka", "is_capital": false, "latitude": 35.1185, "longitude": 138.9186, "population": 107416}, {"name": "Mino", "country_iso2": "JP", "state": "Gifu", "is_capital": false, "latitude": 35.5448, "longitude": 136.9076, "population": 20749}, {"name": "Minobu", "country_iso2": "JP", "state": "Yamanashi", "is_capital": false, "latitude": 35.4675, "longitude": 138.4425, "population": 10440}, {"name": "Minokamo", "country_iso2": "JP", "state": "Gifu", "is_capital": false, "latitude": 35.4402, "longitude": 137.0157, "population": 57007}, {"name": "Minoo", "country_iso2": "JP", "state": "Ōsaka", "is_capital": false, "latitude": 34.8269, "longitude": 135.4704, "population": 136976}, {"name": "Minowa", "country_iso2": "JP", "state": "Nagano", "is_capital": false, "latitude": 35.915, "longitude": 137.9819, "population": 24887}, {"name": "Minō", "country_iso2": "JP", "state": "Ōsaka", "is_capital": false, "latitude": 34.8269, "longitude": 135.4706, "population": 139118}, {"name": "Misaki", "country_iso2": "JP", "state": "Ōsaka", "is_capital": false, "latitude": 34.3167, "longitude": 135.15, "population": 14629}, {"name": "Misaki", "country_iso2": "JP", "state": "Okayama", "is_capital": false, "latitude": 35.9981, "longitude": 133.9581, "population": 12889}, {"name": "Misato", "country_iso2": "JP", "state": "Chiba", "is_capital": false, "latitude": 35.8301, "longitude": 139.8723, "population": 141913}, {"name": "Misato", "country_iso2": "JP", "state": "Miyagi", "is_capital": false, "latitude": 38.5444, "longitude": 141.0567, "population": 23796}, {"name": "Misato", "country_iso2": "JP", "state": "Akita", "is_capital": false, "latitude": 39.4211, "longitude": 140.5439, "population": 18493}, {"name": "Misawa", "country_iso2": "JP", "state": "Aomori", "is_capital": false, "latitude": 40.6831, "longitude": 141.3691, "population": 38351}, {"name": "Mitai", "country_iso2": "JP", "state": "Miyazaki", "is_capital": false, "latitude": 32.7117, "longitude": 131.3078, "population": 11642}, {"name": "Mitake", "country_iso2": "JP", "state": "Gifu", "is_capital": false, "latitude": 35.4344, "longitude": 137.1307, "population": 17536}, {"name": "Mitane", "country_iso2": "JP", "state": "Akita", "is_capital": false, "latitude": 40.1017, "longitude": 140.005, "population": 14944}, {"name": "Mito", "country_iso2": "JP", "state": "Ibaraki", "is_capital": true, "latitude": 36.3658, "longitude": 140.4712, "population": 270445},