[{"name": "Ak-Suu", "country_iso2": "KG", "state": "Chüy", "is_capital": false, "latitude": 42.8092, "longitude": 74.1001, "population": 9677}, {"name": "Ala-Buka", "country_iso2": "KG", "state": "Jalal-Abad", "is_capital": false, "latitude": 41.4083, "longitude": 71.4806, "population": 15426}, {"name": "Alamedin", "country_iso2": "KG", "state": "Chüy", "is_capital": false, "latitude": 42.89, "longitude": 74.63, "population": 11773}, {"name": "Aleksandrovka", "country_iso2": "KG", "state": "Chüy", "is_capital": false, "latitude": 42.8524, "longitude": 74.2224, "population": 14577}, {"name": "Anan’evo", "country_iso2": "KG", "state": "Ysyk-Köl", "is_capital": false, "latitude": 42.7364, "longitude": 77.6738, "population": 9470}, {"name": "Aravan", "country_iso2": "KG", "state": "Osh", "is_capital": false, "latitude": 40.5161, "longitude": 72.4996, "population": 32917}, {"name": "Arslanbob", "country_iso2": "KG", "state": "Jalal-Abad", "is_capital": false, "latitude": 41.3382, "longitude": 72.9291, "population": 11291}, {"name": "At-Bashy", "country_iso2": "KG", "state": "Naryn", "is_capital": false, "latitude": 41.1725, "longitude": 75.7968, "population": 14655}, {"name": "Aydarken", "country_iso2": "KG", "state": "Batken", "is_capital": false, "latitude": 39.9333, "longitude": 71.3333, "population": 10331}, {"name": "Baetov", "country_iso2": "KG", "state": "Naryn", "is_capital": false, "latitude": 41.2667, "longitude": 74.957, "population": 10682}, {"name": "Balykchy", "country_iso2": "KG", "state": "Ysyk-Köl", "is_capital": false, "latitude": 42.4603, "longitude": 76.1872, "population": 54132}, {"name": "Barskoon", "country_iso2": "KG", "state": "Ysyk-Köl", "is_capital": false, "latitude": 42.1579, "longitude": 77.6036, "population": 9533}, {"name": "Batken", "country_iso2": "KG", "state": "Batken", "is_capital": true, "latitude": 40.0625, "longitude": 70.8194, "population": 27730}, {"name": "Bazar-Korgon", "country_iso2": "KG", "state": "Jalal-Abad", "is_capital": false, "latitude": 41.0376, "longitude": 72.7459, "population": 41011}, {"name": "Bek-Abad", "country_iso2": "KG", "state": "Jalal-Abad", "is_capital": false, "latitude": 40.8472, "longitude": 72.9714, "population": 11476}, {"name": "Belovodskoe", "country_iso2": "KG", "state": "Chüy", "is_capital": false, "latitude": 42.8333, "longitude": 74.1167, "population": 21275}, {"name": "Bishkek", "country_iso2": "KG", "state": "Bishkek", "is_capital": true, "latitude": 42.8667, "longitude": 74.5667, "population": 1145044}, {"name": "Buzhum", "country_iso2": "KG", "state": "Batken", "is_capital": false, "latitude": 40.0048, "longitude": 70.8352, "population": 11400}, {"name": "Bökönbaev", "country_iso2": "KG", "state": "Ysyk-Köl", "is_capital": false, "latitude": 42.11, "longitude": 76.99, "population": 14267}, {"name": "Cholpon-Ata", "country_iso2": "KG", "state": "Ysyk-Köl", "is_capital": false, "latitude": 42.6494, "longitude": 77.0822, "population": 11520}, {"name": "Chong-Aryk", "country_iso2": "KG", "state": "Bishkek", "is_capital": false, "latitude": 42.8172, "longitude": 74.5809, "population": 10317}, {"name": "Chüy", "country_iso2": "KG", "state": "Chüy", "is_capital": false, "latitude": 42.8197, "longitude": 75.2823, "population": 12688}, {"name": "Dyykan-Kyshtak", "country_iso2": "KG", "state": "Osh", "is_capital": false, "latitude": 40.516, "longitude": 72.7869, "population": 13406}, {"name": "Eski-Nookat", "country_iso2": "KG", "state": "Osh", "is_capital": false, "latitude": 40.2713, "longitude": 72.6131, "population": 18228}, {"name": "Frunze", "country_iso2": "KG", "state": "Batken", "is_capital": false, "latitude": 40.1233, "longitude": 71.7221, "population": 14049}, {"name": "Gülbaar", "country_iso2": "KG", "state": "Osh", "is_capital": false, "latitude": 40.4874, "longitude": 72.6525, "population": 10718}, {"name": "Gülchö", "country_iso2": "KG", "state": "Osh", "is_capital": false, "latitude": 40.3138, "longitude": 73.4442, "population": 13755}, {"name": "Imeni Chapayeva", "country_iso2": "KG", "state": "Osh", "is_capital": false, "latitude": 40.2778, "longitude": 72.6361, "population": 10895}, {"name": "Iradan", "country_iso2": "KG", "state": "Batken", "is_capital": false, "latitude": 40.2667, "longitude": 72.1, "population": 26200}, {"name": "Isfana", "country_iso2": "KG", "state": "Batken", "is_capital": false, "latitude": 39.8389, "longitude": 69.5276, "population": 34219}, {"name": "Ivanovka", "country_iso2": "KG", "state": "Chüy", "is_capital": false, "latitude": 42.8878, "longitude": 75.085, "population": 17513}, {"name": "Jalal-Abad", "country_iso2": "KG", "state": "Jalal-Abad", "is_capital": true, "latitude": 40.9375, "longitude": 72.9861, "population": 89004}, {"name": "Jangy-Kyshtak", "country_iso2": "KG", "state": "Osh", "is_capital": false, "latitude": 40.55, "longitude": 72.7306, "population": 11647}, {"name": "Jangy-Nookat", "country_iso2": "KG", "state": "Osh", "is_capital": false, "latitude": 40.25, "longitude": 72.55, "population": 21049}, {"name": "Kant", "country_iso2": "KG", "state": "Chüy", "is_capital": false, "latitude": 42.8833, "longitude": 74.85, "population": 23249}, {"name": "Kara-Bak", "country_iso2": "KG", "state": "Batken", "is_capital": false, "latitude": 40.1583, "longitude": 70.8167, "population": 8923}, {"name": "Kara-Balta", "country_iso2": "KG", "state": "Chüy", "is_capital": false, "latitude": 42.8306, "longitude": 73.8857, "population": 48278}, {"name": "Kara-Kulja", "country_iso2": "KG", "state": "Osh", "is_capital": false, "latitude": 40.6322, "longitude": 73.5925, "population": 15616}, {"name": "Kara-Kyshtak", "country_iso2": "KG", "state": "Batken", "is_capital": false, "latitude": 40.1187, "longitude": 72.1005, "population": 12990}, {"name": "Kara-Köl", "country_iso2": "KG", "state": "Jalal-Abad", "is_capital": false, "latitude": 41.6333, "longitude": 72.6667, "population": 18843}, {"name": "Kara-Suu", "country_iso2": "KG", "state": "Osh", "is_capital": false, "latitude": 40.7, "longitude": 72.8833, "population": 20862}, {"name": "Kara-Tash", "country_iso2": "KG", "state": "Osh", "is_capital": false, "latitude": 40.2165, "longitude": 72.6244, "population": 10797}, {"name": "Karakol", "country_iso2": "KG", "state": "Ysyk-Köl", "is_capital": true, "latitude": 42.4906, "longitude": 78.3936, "population": 85588}, {"name": "Karavan", "country_iso2": "KG", "state": "Batken", "is_capital": false, "latitude": 40.2951, "longitude": 72.1863, "population": 8657}, {"name": "Kashkar-Kyshtak", "country_iso2": "KG", "state": "Osh", "is_capital": false, "latitude": 40.6223, "longitude": 72.831, "population": 20334}, {"name": "Kayyngdy", "country_iso2": "KG", "state": "Chüy", "is_capital": false, "latitude": 42.8247, "longitude": 73.6758, "population": 9561}, {"name": "Kazarman", "country_iso2": "KG", "state": "Jalal-Abad", "is_capital": false, "latitude": 41.4045, "longitude": 74.0283, "population": 11191}, {"name": "Kemin", "country_iso2": "KG", "state": "Chüy", "is_capital": false, "latitude": 42.7846, "longitude": 75.6892, "population": 10354}, {"name": "Kerben", "country_iso2": "KG", "state": "Jalal-Abad", "is_capital": false, "latitude": 41.5, "longitude": 71.75, "population": 14141}, {"name": "Kochkor", "country_iso2": "KG", "state": "Naryn", "is_capital": false, "latitude": 42.2155, "longitude": 75.7566, "population": 11373}, {"name": "Kochkor-Ata", "country_iso2": "KG", "state": "Jalal-Abad", "is_capital": false, "latitude": 41.0358, "longitude": 72.4814, "population": 14814}, {"name": "Kulundu", "country_iso2": "KG", "state": "Batken", "is_capital": false, "latitude": 40.1069, "longitude": 69.6431, "population": 10170}, {"name": "Kurshab", "country_iso2": "KG", "state": "Osh", "is_capital": false, "latitude": 40.6664, "longitude": 73.1367, "population": 20471}, {"name": "Kyzyl-Adyr", "country_iso2": "KG", "state": "Talas", "is_capital": false, "latitude": 42.62, "longitude": 71.59, "population": 13612}, {"name": "Kyzyl-Kyshtak", "country_iso2": "KG", "state": "Osh", "is_capital": false, "latitude": 40.5382, "longitude": 72.7768, "population": 11971}, {"name": "Kyzyl-Kyya", "country_iso2": "KG", "state": "Batken", "is_capital": false, "latitude": 40.2667, "longitude": 72.05, "population": 51300}, {"name": "Kyzyl-Suu", "country_iso2": "KG", "state": "Ysyk-Köl", "is_capital": false, "latitude": 42.3421, "longitude": 78.0064, "population": 15464}, {"name": "Kök-Janggak", "country_iso2": "KG", "state": "Jalal-Abad", "is_capital": false, "latitude": 41.0307, "longitude": 73.2058, "population": 12117}, {"name": "Ladan Kara", "country_iso2": "KG", "state": "Jalal-Abad", "is_capital": false, "latitude": 40.9185, "longitude": 72.9486, "population": 8886}, {"name": "Lebedinovka", "country_iso2": "KG", "state": "Chüy", "is_capital": false, "latitude": 42.88, "longitude": 74.68, "population": 20709}, {"name": "Leninskoe", "country_iso2": "KG", "state": "Chüy", "is_capital": false, "latitude": 42.9706, "longitude": 74.6625, "population": 10653}, {"name": "Maevka", "country_iso2": "KG", "state": "Chüy", "is_capital": false, "latitude": 42.9093, "longitude": 74.5685, "population": 10535}, {"name": "Massy", "country_iso2": "KG", "state": "Jalal-Abad", "is_capital": false, "latitude": 41.064, "longitude": 72.6375, "population": 19774}, {"name": "Mayluu-Suu", "country_iso2": "KG", "state": "Jalal-Abad", "is_capital": false, "latitude": 41.2457, "longitude": 72.448, "population": 20200}, {"name": "Myrza-Ake", "country_iso2": "KG", "state": "Osh", "is_capital": false, "latitude": 40.7529, "longitude": 73.4153, "population": 16011}, {"name": "Nariman", "country_iso2": "KG", "state": "Osh", "is_capital": false, "latitude": 40.5972, "longitude": 72.7946, "population": 12021}, {"name": "Naryn", "country_iso2": "KG", "state": "Naryn", "is_capital": true, "latitude": 41.4333, "longitude": 76.0, "population": 34822}, {"name": "Naryn", "country_iso2": "KG", "state": "Jalal-Abad", "is_capital": false, "latitude": 41.1328, "longitude": 72.0816, "population": 11306}, {"name": "Novopavlovka", "country_iso2": "KG", "state": "Chüy", "is_capital": false, "latitude": 42.87, "longitude": 74.48, "population": 18332}, {"name": "Novopokrovka", "country_iso2": "KG", "state": "Chüy", "is_capital": false, "latitude": 42.8686, "longitude": 74.7368, "population": 21619}, {"name": "Osh", "country_iso2": "KG", "state": "Osh", "is_capital": true, "latitude": 40.5333, "longitude": 72.7833, "population": 353080}, {"name": "Panfilovka", "country_iso2": "KG", "state": "Chüy", "is_capital": false, "latitude": 42.7917, "longitude": 73.6778, "population": 8636}, {"name": "Petrovka", "country_iso2": "KG", "state": "Chüy", "is_capital": false, "latitude": 42.8392, "longitude": 74.0203, "population": 10879}, {"name": "Pokrovka", "country_iso2": "KG", "state": "Talas", "is_capital": false, "latitude": 42.75, "longitude": 71.6, "population": 8522}, {"name": "Sadovoye", "country_iso2": "KG", "state": "Chüy", "is_capital": false, "latitude": 42.8539, "longitude": 74.1725, "population": 8606}, {"name": "Saruu", "country_iso2": "KG", "state": "Ysyk-Köl", "is_capital": false, "latitude": 42.3207, "longitude": 77.9176, "population": 8501}, {"name": "Shamaldy-Say", "country_iso2": "KG", "state": "Jalal-Abad", "is_capital": false, "latitude": 41.2006, "longitude": 72.1789, "population": 12308}, {"name": "Shark", "country_iso2": "KG", "state": "Osh", "is_capital": false, "latitude": 40.5569, "longitude": 72.8264, "population": 21120}, {"name": "Shopokov", "country_iso2": "KG", "state": "Chüy", "is_capital": false, "latitude": 42.8547, "longitude": 74.3422, "population": 8749}, {"name": "Sokuluk", "country_iso2": "KG", "state": "Chüy", "is_capital": false, "latitude": 42.854, "longitude": 74.3026, "population": 30540}, {"name": "Sovetskoe", "country_iso2": "KG", "state": "Jalal-Abad", "is_capital": false, "latitude": 41.0518, "longitude": 72.7397, "population": 13178}, {"name": "Suzak", "country_iso2": "KG", "state": "Jalal-Abad", "is_capital": false, "latitude": 40.8982, "longitude": 72.9048, "population": 30534}, {"name": "Sülüktü", "country_iso2": "KG", "state": "Batken", "is_capital": false, "latitude": 39.9365, "longitude": 69.5678, "population": 13378}, {"name": "Talas", "country_iso2": "KG", "state": "Talas", "is_capital": true, "latitude": 42.5184, "longitude": 72.2429, "population": 40308}, {"name": "Tash-Kömür", "country_iso2": "KG", "state": "Jalal-Abad", "is_capital": false, "latitude": 41.3461, "longitude": 72.2171, "population": 19310}, {"name": "Tepe-Korgon", "country_iso2": "KG", "state": "Osh", "is_capital": false, "latitude": 40.5928, "longitude": 72.3956, "population": 9186}, {"name": "Teploklyuchenka", "country_iso2": "KG", "state": "Ysyk-Köl", "is_capital": false, "latitude": 42.4995, "longitude": 78.527, "population": 14055}, {"name": "Tokmok", "country_iso2": "KG", "state": "Chüy", "is_capital": false, "latitude": 42.839, "longitude": 75.291, "population": 53231}, {"name": "Toktogul", "country_iso2": "KG", "state": "Jalal-Abad", "is_capital": false, "latitude": 41.8826, "longitude": 72.9372, "population": 20577}, {"name": "Tüp", "country_iso2": "KG", "state": "Ysyk-Köl", "is_capital": false, "latitude": 42.7276, "longitude": 78.3648, "population": 12355}, {"name": "Uch-Korgon", "country_iso2": "KG", "state": "Batken", "is_capital": false, "latitude": 40.2288, "longitude": 72.0592, "population": 14708}, {"name": "Vostochnyy", "country_iso2": "KG", "state": "Batken", "is_capital": false, "latitude": 39.9222, "longitude": 69.6486, "population": 8611}, {"name": "Voyenno-Antonovka", "country_iso2": "KG", "state": "Chüy", "is_capital": false, "latitude": 42.8738, "longitude": 74.4406, "population": 20182}, {"name": "Özgön", "country_iso2": "KG", "state": "Osh", "is_capital": false, "latitude": 40.7667, "longitude": 73.3, "population": 49410}]