[{"name": "Barclayville", "country_iso2": "LR", "state": "Grand Kru", "is_capital": true, "latitude": 4.6797, "longitude": -8.2339, "population": 2733}, {"name": "Bensonville", "country_iso2": "LR", "state": "Montserrado", "is_capital": true, "latitude": 6.4456, "longitude": -10.6097, "population": 4089}, {"name": "Bopolu", "country_iso2": "LR", "state": "Gbarpolu", "is_capital": true, "latitude": 7.0667, "longitude": -10.4875, "population": 2908}, {"name": "Buchanan", "country_iso2": "LR", "state": "Grand Bassa", "is_capital": true, "latitude": 5.8808, "longitude": -10.0467, "population": 34270}, {"name": "Cestos City", "country_iso2": "LR", "state": "River Cess", "is_capital": true, "latitude": 5.4667, "longitude": -9.5833, "population": 2578}, {"name": "Fish Town", "country_iso2": "LR", "state": "River Gee", "is_capital": true, "latitude": 5.1964, "longitude": -7.8756, "population": 3328}, {"name": "Foya Tangia", "country_iso2": "LR", "state": "Lofa", "is_capital": false, "latitude": 8.2713, "longitude": -10.2283, "population": 20569}, {"name": "Ganta", "country_iso2": "LR", "state": "Nimba", "is_capital": false, "latitude": 7.2375, "longitude": -8.9814, "population": 41106}, {"name": "Gbarnga", "country_iso2": "LR", "state": "Bong", "is_capital": true, "latitude": 6.998, "longitude": -9.473, "population": 34046}, {"name": "Greenville", "country_iso2": "LR", "state": "Sinoe", "is_capital": true, "latitude": 5.0167, "longitude": -9.0333, "population": 16434}, {"name": "Harbel", "country_iso2": "LR", "state": "Margibi", "is_capital": false, "latitude": 6.2833, "longitude": -10.35, "population": 25309}, {"name": "Harper", "country_iso2": "LR", "state": "Maryland", "is_capital": true, "latitude": 4.3667, "longitude": -7.7167, "population": 17837}, {"name": "Kakata", "country_iso2": "LR", "state": "Margibi", "is_capital": true, "latitude": 6.53, "longitude": -10.3517, "population": 33945}, {"name": "Monrovia", "country_iso2": "LR", "state": "Montserrado", "is_capital": true, "latitude": 6.3133, "longitude": -10.8014, "population": 1021762}, {"name": "New Kru Town", "country_iso2": "LR", "state": "Montserrado", "is_capital": false, "latitude": 6.3733, "longitude": -10.7928, "population": 84399}, {"name": "Robertsport", "country_iso2": "LR", "state": "Grand Cape Mount", "is_capital": true, "latitude": 6.75, "longitude": -11.3667, "population": 3933}, {"name": "Saclepea", "country_iso2": "LR", "state": "Nimba", "is_capital": false, "latitude": 7.1167, "longitude": -8.8333, "population": 12117}, {"name": "Sanniquellie", "country_iso2": "LR", "state": "Nimba", "is_capital": true, "latitude": 7.3622, "longitude": -8.7061, "population": 11415}, {"name": "Tubmanburg", "country_iso2": "LR", "state": "Bomi", "is_capital": true, "latitude": 6.8667, "longitude": -10.8167, "population": 13114}, {"name": "Upper Buchanan", "country_iso2": "LR", "state": "Grand Bassa", "is_capital": false, "latitude": 5.9161, "longitude": -10.0525, "population": 48315}, {"name": "Voinjama", "country_iso2": "LR", "state": "Lofa", "is_capital": true, "latitude": 8.4167, "longitude": -9.75, "population": 26594}, {"name": "Yeebo Town", "country_iso2": "LR", "state": "River Gee", "is_capital": false, "latitude": 5.25, "longitude": -7.9167, "population": 124653}, {"name": "Zwedru", "country_iso2": "LR", "state": "Grand Gedeh", "is_capital": true, "latitude": 6.0667, "longitude": -8.1333, "population": 23903}]