[{"name": "Allanmyo", "country_iso2": "MM", "state": "Magway", "is_capital": false, "latitude": 19.3783, "longitude": 95.2279, "population": 57897}, {"name": "Amarapura", "country_iso2": "MM", "state": "Mandalay", "is_capital": false, "latitude": 21.9, "longitude": 96.05, "population": 23200}, {"name": "An", "country_iso2": "MM", "state": "Rakhine State", "is_capital": false, "latitude": 19.7833, "longitude": 94.0333, "population": 119714}, {"name": "Aungban", "country_iso2": "MM", "state": "Shan State", "is_capital": false, "latitude": 20.6667, "longitude": 96.6333, "population": 30515}, {"name": "Bago", "country_iso2": "MM", "state": "Bago", "is_capital": true, "latitude": 17.3333, "longitude": 96.4833, "population": 284179}, {"name": "Bawgalegyi", "country_iso2": "MM", "state": "Kayin State", "is_capital": false, "latitude": 18.9144, "longitude": 96.7856, "population": 17237}, {"name": "Bhamo", "country_iso2": "MM", "state": "Kachin State", "is_capital": false, "latitude": 24.2667, "longitude": 97.2333, "population": 54721}, {"name": "Buthidaung", "country_iso2": "MM", "state": "Rakhine State", "is_capital": false, "latitude": 20.8667, "longitude": 92.5333, "population": 55545}, {"name": "Chauk", "country_iso2": "MM", "state": "Magway", "is_capital": false, "latitude": 20.8833, "longitude": 94.8167, "population": 44289}, {"name": "Chaungtha", "country_iso2": "MM", "state": "Ayeyarwady", "is_capital": false, "latitude": 16.9667, "longitude": 94.45, "population": 10181}, {"name": "Dawei", "country_iso2": "MM", "state": "Tanintharyi", "is_capital": true, "latitude": 14.0833, "longitude": 98.2, "population": 146964}, {"name": "Du Yar", "country_iso2": "MM", "state": "Mon State", "is_capital": false, "latitude": 15.2617, "longitude": 97.7819, "population": 30000}, {"name": "Falam", "country_iso2": "MM", "state": "Chin State", "is_capital": false, "latitude": 22.9136, "longitude": 93.6778, "population": 9529}, {"name": "Haka", "country_iso2": "MM", "state": "Sagaing", "is_capital": false, "latitude": 22.6455, "longitude": 93.605, "population": 72000}, {"name": "Hakha", "country_iso2": "MM", "state": "Chin State", "is_capital": true, "latitude": 22.6428, "longitude": 93.6096, "population": 20000}, {"name": "Hinthada", "country_iso2": "MM", "state": "Ayeyarwady", "is_capital": false, "latitude": 17.6461, "longitude": 95.4603, "population": 84880}, {"name": "Hlaingbwe", "country_iso2": "MM", "state": "Kayin State", "is_capital": false, "latitude": 17.1333, "longitude": 97.8333, "population": 11511}, {"name": "Hlegu", "country_iso2": "MM", "state": "Yangon", "is_capital": false, "latitude": 17.0953, "longitude": 96.2211, "population": 40078}, {"name": "Hpa-An", "country_iso2": "MM", "state": "Kayin State", "is_capital": true, "latitude": 16.8906, "longitude": 97.6333, "population": 421525}, {"name": "Hsenwi", "country_iso2": "MM", "state": "Shan State", "is_capital": false, "latitude": 23.3, "longitude": 97.9667, "population": 9392}, {"name": "Htison", "country_iso2": "MM", "state": "Kayin State", "is_capital": false, "latitude": 15.9, "longitude": 98.1833, "population": 106427}, {"name": "Indaw", "country_iso2": "MM", "state": "Sagaing", "is_capital": false, "latitude": 24.2214, "longitude": 96.1433, "population": 10706}, {"name": "Ingabu", "country_iso2": "MM", "state": "Ayeyarwady", "is_capital": false, "latitude": 17.8167, "longitude": 95.2667, "population": 190412}, {"name": "Kamamaung", "country_iso2": "MM", "state": "Kayin State", "is_capital": false, "latitude": 17.3469, "longitude": 97.6528, "population": 20895}, {"name": "Katha", "country_iso2": "MM", "state": "Sagaing", "is_capital": false, "latitude": 24.1822, "longitude": 96.3306, "population": 167700}, {"name": "Kawa", "country_iso2": "MM", "state": "Bago", "is_capital": false, "latitude": 17.0897, "longitude": 96.4663, "population": 17396}, {"name": "Kawkareik", "country_iso2": "MM", "state": "Kayin State", "is_capital": false, "latitude": 16.5556, "longitude": 98.24, "population": 48468}, {"name": "Kawlin", "country_iso2": "MM", "state": "Sagaing", "is_capital": false, "latitude": 23.7903, "longitude": 95.6806, "population": 25254}, {"name": "Kawthoung", "country_iso2": "MM", "state": "Tanintharyi", "is_capital": false, "latitude": 9.9833, "longitude": 98.55, "population": 57949}, {"name": "Kengtung", "country_iso2": "MM", "state": "Shan State", "is_capital": false, "latitude": 21.2917, "longitude": 99.6083, "population": 75865}, {"name": "Khampat", "country_iso2": "MM", "state": "Sagaing", "is_capital": false, "latitude": 23.7823, "longitude": 94.1442, "population": 20500}, {"name": "Khaw Zar Chaung Wa", "country_iso2": "MM", "state": "Mon State", "is_capital": false, "latitude": 15.0375, "longitude": 97.8293, "population": 22663}, {"name": "Kyaukme", "country_iso2": "MM", "state": "Shan State", "is_capital": false, "latitude": 22.5392, "longitude": 97.0283, "population": 39930}, {"name": "Kyaukmyaung", "country_iso2": "MM", "state": "Sagaing", "is_capital": false, "latitude": 22.5833, "longitude": 95.95, "population": 15000}, {"name": "Kyaukpyu", "country_iso2": "MM", "state": "Rakhine State", "is_capital": false, "latitude": 19.4264, "longitude": 93.5458, "population": 180000}, {"name": "Kyaukse", "country_iso2": "MM", "state": "Mandalay", "is_capital": false, "latitude": 21.6131, "longitude": 96.1303, "population": 741071}, {"name": "Kyaunggon", "country_iso2": "MM", "state": "Ayeyarwady", "is_capital": false, "latitude": 17.1, "longitude": 95.1833, "population": 15485}, {"name": "Kyeintali", "country_iso2": "MM", "state": "Rakhine State", "is_capital": false, "latitude": 18.0061, "longitude": 94.49, "population": 23581}, {"name": "Kyonpyaw", "country_iso2": "MM", "state": "Ayeyarwady", "is_capital": false, "latitude": 17.3, "longitude": 95.2, "population": 25488}, {"name": "Labutta", "country_iso2": "MM", "state": "Ayeyarwady", "is_capital": false, "latitude": 16.1467, "longitude": 94.7611, "population": 46170}, {"name": "Lashio", "country_iso2": "MM", "state": "Shan State", "is_capital": false, "latitude": 22.9333, "longitude": 97.75, "population": 149423}, {"name": "Leiktho", "country_iso2": "MM", "state": "Kayin State", "is_capital": false, "latitude": 19.2222, "longitude": 96.5811, "population": 48606}, {"name": "Letpandan", "country_iso2": "MM", "state": "Bago", "is_capital": false, "latitude": 17.7866, "longitude": 95.7507, "population": 176571}, {"name": "Lewe", "country_iso2": "MM", "state": "Nay Pyi Taw", "is_capital": false, "latitude": 19.6333, "longitude": 96.1167, "population": 30208}, {"name": "Loikaw", "country_iso2": "MM", "state": "Kayah State", "is_capital": true, "latitude": 19.6742, "longitude": 97.2092, "population": 11000}, {"name": "Magway", "country_iso2": "MM", "state": "Magway", "is_capital": true, "latitude": 20.15, "longitude": 94.95, "population": 289247}, {"name": "Mahlaing", "country_iso2": "MM", "state": "Mandalay", "is_capital": false, "latitude": 21.09, "longitude": 95.64, "population": 157674}, {"name": "Mandalay", "country_iso2": "MM", "state": "Mandalay", "is_capital": true, "latitude": 21.9831, "longitude": 96.0844, "population": 1319452}, {"name": "Maubin", "country_iso2": "MM", "state": "Ayeyarwady", "is_capital": false, "latitude": 16.73, "longitude": 95.65, "population": 42439}, {"name": "Maungdaw", "country_iso2": "MM", "state": "Rakhine State", "is_capital": false, "latitude": 20.8167, "longitude": 92.3667, "population": 400000}, {"name": "Mawkanin", "country_iso2": "MM", "state": "Mon State", "is_capital": false, "latitude": 15.5106, "longitude": 97.8533, "population": 17552}, {"name": "Mawlaik", "country_iso2": "MM", "state": "Sagaing", "is_capital": false, "latitude": 23.2833, "longitude": 94.0833, "population": 44540}, {"name": "Mawlamyine", "country_iso2": "MM", "state": "Mon State", "is_capital": true, "latitude": 16.4847, "longitude": 97.6258, "population": 253734}, {"name": "Meiktila", "country_iso2": "MM", "state": "Mandalay", "is_capital": false, "latitude": 20.8833, "longitude": 95.8833, "population": 177442}, {"name": "Minbu", "country_iso2": "MM", "state": "Magway", "is_capital": false, "latitude": 20.18, "longitude": 94.87, "population": 22962}, {"name": "Minbya", "country_iso2": "MM", "state": "Rakhine State", "is_capital": false, "latitude": 20.3622, "longitude": 93.2733, "population": 22944}, {"name": "Mindat", "country_iso2": "MM", "state": "Chin State", "is_capital": false, "latitude": 21.3667, "longitude": 93.9833, "population": 46008}, {"name": "Mogaung", "country_iso2": "MM", "state": "Kachin State", "is_capital": false, "latitude": 25.3014, "longitude": 96.9417, "population": 132608}, {"name": "Mogok", "country_iso2": "MM", "state": "Mandalay", "is_capital": false, "latitude": 22.9167, "longitude": 96.5, "population": 89855}, {"name": "Mohnyin", "country_iso2": "MM", "state": "Kachin State", "is_capital": false, "latitude": 24.7833, "longitude": 96.3667, "population": 33290}, {"name": "Monywa", "country_iso2": "MM", "state": "Sagaing", "is_capital": true, "latitude": 22.1083, "longitude": 95.1417, "population": 207489}, {"name": "Mudon", "country_iso2": "MM", "state": "Mon State", "is_capital": false, "latitude": 16.2578, "longitude": 97.7164, "population": 152300}, {"name": "Muse", "country_iso2": "MM", "state": "Shan State", "is_capital": false, "latitude": 23.9792, "longitude": 97.9047, "population": 165022}, {"name": "Myanaung", "country_iso2": "MM", "state": "Ayeyarwady", "is_capital": false, "latitude": 18.2833, "longitude": 95.3167, "population": 42252}, {"name": "Myaungmya", "country_iso2": "MM", "state": "Ayeyarwady", "is_capital": false, "latitude": 16.6036, "longitude": 94.9289, "population": 58205}, {"name": "Myawadi", "country_iso2": "MM", "state": "Kayin State", "is_capital": false, "latitude": 16.6878, "longitude": 98.5083, "population": 195624}, {"name": "Myaydo", "country_iso2": "MM", "state": "Magway", "is_capital": false, "latitude": 19.3667, "longitude": 95.2167, "population": 72000}, {"name": "Myebon", "country_iso2": "MM", "state": "Rakhine State", "is_capital": false, "latitude": 20.05, "longitude": 93.3667, "population": 137193}, {"name": "Myedu", "country_iso2": "MM", "state": "Sagaing", "is_capital": false, "latitude": 23.1833, "longitude": 95.4, "population": 42000}, {"name": "Myeik", "country_iso2": "MM", "state": "Tanintharyi", "is_capital": false, "latitude": 12.4333, "longitude": 98.6, "population": 222056}, {"name": "Myingyan", "country_iso2": "MM", "state": "Mandalay", "is_capital": false, "latitude": 21.46, "longitude": 95.3883, "population": 91542}, {"name": "Myitkyina", "country_iso2": "MM", "state": "Kachin State", "is_capital": true, "latitude": 25.3833, "longitude": 97.4, "population": 243031}, {"name": "Möng Tun", "country_iso2": "MM", "state": "Shan State", "is_capital": false, "latitude": 20.3, "longitude": 98.9333, "population": 90000}, {"name": "Namhkam", "country_iso2": "MM", "state": "Shan State", "is_capital": false, "latitude": 23.8333, "longitude": 97.6833, "population": 33382}, {"name": "Namtu", "country_iso2": "MM", "state": "Shan State", "is_capital": false, "latitude": 23.0925, "longitude": 97.4011, "population": 48591}, {"name": "Nansang", "country_iso2": "MM", "state": "Shan State", "is_capital": false, "latitude": 20.8889, "longitude": 97.7361, "population": 26060}, {"name": "Natogyi", "country_iso2": "MM", "state": "Mandalay", "is_capital": false, "latitude": 21.4167, "longitude": 95.65, "population": 250000}, {"name": "Nawnghkio", "country_iso2": "MM", "state": "Shan State", "is_capital": false, "latitude": 22.3167, "longitude": 96.8, "population": 16274}, {"name": "Nay Pyi Taw", "country_iso2": "MM", "state": "Nay Pyi Taw", "is_capital": true, "latitude": 19.7475, "longitude": 96.115, "population": 1160242}, {"name": "Ngaputaw", "country_iso2": "MM", "state": "Ayeyarwady", "is_capital": false, "latitude": 16.5378, "longitude": 94.6936, "population": 10632}, {"name": "Ngathainggyaung", "country_iso2": "MM", "state": "Ayeyarwady", "is_capital": false, "latitude": 17.4, "longitude": 95.0833, "population": 20018}, {"name": "Nyaungdon", "country_iso2": "MM", "state": "Ayeyarwady", "is_capital": false, "latitude": 17.0461, "longitude": 95.6374, "population": 26246}, {"name": "Nyaungu", "country_iso2": "MM", "state": "Mandalay", "is_capital": false, "latitude": 21.2, "longitude": 94.9167, "population": 48528}, {"name": "Okpo", "country_iso2": "MM", "state": "Bago", "is_capital": false, "latitude": 18.1167, "longitude": 95.6667, "population": 11525}, {"name": "Paingkyon", "country_iso2": "MM", "state": "Kayin State", "is_capital": false, "latitude": 17.0242, "longitude": 97.9844, "population": 88604}, {"name": "Pakokku", "country_iso2": "MM", "state": "Magway", "is_capital": false, "latitude": 21.332, "longitude": 95.0866, "population": null}, {"name": "Palaw", "country_iso2": "MM", "state": "Tanintharyi", "is_capital": false, "latitude": 12.9597, "longitude": 98.6545, "population": 22267}, {"name": "Paletwa", "country_iso2": "MM", "state": "Chin State", "is_capital": false, "latitude": 21.3, "longitude": 92.85, "population": 96899}, {"name": "Panglong", "country_iso2": "MM", "state": "Shan State", "is_capital": false, "latitude": 24.1003, "longitude": 98.3139, "population": 24565}, {"name": "Pantanaw", "country_iso2": "MM", "state": "Ayeyarwady", "is_capital": false, "latitude": 16.985, "longitude": 95.4656, "population": 20497}, {"name": "Pathein", "country_iso2": "MM", "state": "Ayeyarwady", "is_capital": true, "latitude": 16.7842, "longitude": 94.7333, "population": 287071}, {"name": "Pauktaw", "country_iso2": "MM", "state": "Rakhine State", "is_capital": false, "latitude": 20.2128, "longitude": 93.1308, "population": 19157}, {"name": "Ponnagyun", "country_iso2": "MM", "state": "Rakhine State", "is_capital": false, "latitude": 20.3342, "longitude": 93.0039, "population": 129753}, {"name": "Putao", "country_iso2": "MM", "state": "Kachin State", "is_capital": false, "latitude": 27.3258, "longitude": 97.4225, "population": 10000}, {"name": "Pyapon", "country_iso2": "MM", "state": "Ayeyarwady", "is_capital": false, "latitude": 16.286, "longitude": 95.6658, "population": 76741}, {"name": "Pyay", "country_iso2": "MM", "state": "Bago", "is_capital": false, "latitude": 18.8165, "longitude": 95.2114, "population": 134861}, {"name": "Pyinmana", "country_iso2": "MM", "state": "Nay Pyi Taw", "is_capital": false, "latitude": 19.75, "longitude": 96.2, "population": 100001}, {"name": "Pyu", "country_iso2": "MM", "state": "Bago", "is_capital": false, "latitude": 18.4819, "longitude": 96.4369, "population": 44642}, {"name": "Ramree", "country_iso2": "MM", "state": "Rakhine State", "is_capital": false, "latitude": 19.0833, "longitude": 93.8667, "population": 9581}, {"name": "Rangoon", "country_iso2": "MM", "state": "Yangon", "is_capital": true, "latitude": 16.795, "longitude": 96.16, "population": 6874000}, {"name": "Razua", "country_iso2": "MM", "state": "Chin State", "is_capital": false, "latitude": 22.0529, "longitude": 93.4086, "population": 12265}, {"name": "Sadon", "country_iso2": "MM", "state": "Kachin State", "is_capital": false, "latitude": 25.3927, "longitude": 97.8996, "population": 10496}, {"name": "Sagaing", "country_iso2": "MM", "state": "Sagaing", "is_capital": false, "latitude": 21.8822, "longitude": 95.9786, "population": 69917}, {"name": "Sami", "country_iso2": "MM", "state": "Chin State", "is_capital": false, "latitude": 21.2933, "longitude": 93.0965, "population": 32082}, {"name": "Shanywathit", "country_iso2": "MM", "state": "Kayin State", "is_capital": false, "latitude": 17.4244, "longitude": 97.8878, "population": 21735}, {"name": "Shingbwiyang", "country_iso2": "MM", "state": "Kachin State", "is_capital": false, "latitude": 26.6667, "longitude": 96.2167, "population": 11453}, {"name": "Shwebo", "country_iso2": "MM", "state": "Sagaing", "is_capital": false, "latitude": 22.5667, "longitude": 95.7, "population": 88914}, {"name": "Sittwe", "country_iso2": "MM", "state": "Rakhine State", "is_capital": true, "latitude": 20.167, "longitude": 92.785, "population": 100748}, {"name": "Tachilek", "country_iso2": "MM", "state": "Shan State", "is_capital": false, "latitude": 20.4528, "longitude": 99.8958, "population": 51553}, {"name": "Tamu", "country_iso2": "MM", "state": "Sagaing", "is_capital": false, "latitude": 24.2167, "longitude": 94.3097, "population": 42549}, {"name": "Taungdwingyi", "country_iso2": "MM", "state": "Magway", "is_capital": false, "latitude": 20.0017, "longitude": 95.5461, "population": 145909}, {"name": "Taunggyi", "country_iso2": "MM", "state": "Shan State", "is_capital": true, "latitude": 20.7836, "longitude": 97.0354, "population": 264804}, {"name": "Taungoo", "country_iso2": "MM", "state": "Bago", "is_capital": false, "latitude": 18.9333, "longitude": 96.4333, "population": 108569}, {"name": "Taungup", "country_iso2": "MM", "state": "Rakhine State", "is_capital": false, "latitude": 18.85, "longitude": 94.2333, "population": 26854}, {"name": "Tawsalun", "country_iso2": "MM", "state": "Magway", "is_capital": false, "latitude": 21.406, "longitude": 94.136, "population": 32865}, {"name": "Thanatpin", "country_iso2": "MM", "state": "Bago", "is_capital": false, "latitude": 17.2942, "longitude": 96.58, "population": 145287}, {"name": "Thandwe", "country_iso2": "MM", "state": "Rakhine State", "is_capital": false, "latitude": 18.4667, "longitude": 94.3667, "population": 133484}, {"name": "Thanhlyin", "country_iso2": "MM", "state": "Yangon", "is_capital": false, "latitude": 16.7333, "longitude": 96.25, "population": 86065}, {"name": "Thaton", "country_iso2": "MM", "state": "Mon State", "is_capital": false, "latitude": 16.925, "longitude": 97.3667, "population": 130763}, {"name": "Thingangyun", "country_iso2": "MM", "state": "Yangon", "is_capital": false, "latitude": 16.8281, "longitude": 96.1842, "population": 209486}, {"name": "Thongwa", "country_iso2": "MM", "state": "Yangon", "is_capital": false, "latitude": 16.7547, "longitude": 96.5193, "population": 52496}, {"name": "Tiddim", "country_iso2": "MM", "state": "Chin State", "is_capital": false, "latitude": 23.3758, "longitude": 93.6539, "population": 20000}, {"name": "Tonzang", "country_iso2": "MM", "state": "Chin State", "is_capital": false, "latitude": 23.6, "longitude": 93.7, "population": 37700}, {"name": "Wakema", "country_iso2": "MM", "state": "Ayeyarwady", "is_capital": false, "latitude": 16.6, "longitude": 95.1833, "population": 48405}, {"name": "Wān Long", "country_iso2": "MM", "state": "Shan State", "is_capital": false, "latitude": 22.1667, "longitude": 99.1833, "population": 15000}, {"name": "Ye", "country_iso2": "MM", "state": "Mon State", "is_capital": false, "latitude": 15.2467, "longitude": 97.8556, "population": 34430}, {"name": "Yenangyaung", "country_iso2": "MM", "state": "Magway", "is_capital": false, "latitude": 20.4597, "longitude": 94.8742, "population": 54535}, {"name": "Yesagyo", "country_iso2": "MM", "state": "Magway", "is_capital": false, "latitude": 21.6333, "longitude": 95.2414, "population": 23603}, {"name": "Zalun", "country_iso2": "MM", "state": "Ayeyarwady", "is_capital": false, "latitude": 17.4719, "longitude": 95.5522, "population": 21947}, {"name": "Zigon", "country_iso2": "MM", "state": "Bago", "is_capital": false, "latitude": 18.3385, "longitude": 95.623, "population": 67523}]