[{"name": "Altay", "country_iso2": "MN", "state": "Govĭ-Altay", "is_capital": true, "latitude": 46.3728, "longitude": 96.2572, "population": 15800}, {"name": "Arvayheer", "country_iso2": "MN", "state": "Övörhangay", "is_capital": true, "latitude": 46.2689, "longitude": 102.7575, "population": 30000}, {"name": "Baruun-Urt", "country_iso2": "MN", "state": "Sühbaatar", "is_capital": true, "latitude": 46.6829, "longitude": 113.2786, "population": 14297}, {"name": "Bayanhongor", "country_iso2": "MN", "state": "Bayanhongor", "is_capital": true, "latitude": 46.1944, "longitude": 100.7181, "population": 26252}, {"name": "Bulgan", "country_iso2": "MN", "state": "Bulgan", "is_capital": true, "latitude": 48.8125, "longitude": 103.5347, "population": 12323}, {"name": "Choybalsan", "country_iso2": "MN", "state": "Dornod", "is_capital": true, "latitude": 48.0706, "longitude": 114.5228, "population": 38150}, {"name": "Choyr", "country_iso2": "MN", "state": "Govĭsümber", "is_capital": true, "latitude": 46.3611, "longitude": 108.3611, "population": 10434}, {"name": "Dalandzadgad", "country_iso2": "MN", "state": "Ömnögovĭ", "is_capital": true, "latitude": 43.5708, "longitude": 104.425, "population": null}, {"name": "Dalanzadgad", "country_iso2": "MN", "state": "Ömnögovĭ", "is_capital": false, "latitude": 43.57, "longitude": 104.4258, "population": 19396}, {"name": "Darhan", "country_iso2": "MN", "state": "Darhan-Uul", "is_capital": true, "latitude": 49.4867, "longitude": 105.9228, "population": 74738}, {"name": "Darhan", "country_iso2": "MN", "state": "Selenge", "is_capital": false, "latitude": 49.6167, "longitude": 106.35, "population": 74738}, {"name": "Dzuunmod", "country_iso2": "MN", "state": "Töv", "is_capital": true, "latitude": 47.7069, "longitude": 106.9528, "population": 14660}, {"name": "Dzüünharaa", "country_iso2": "MN", "state": "Selenge", "is_capital": false, "latitude": 48.8666, "longitude": 106.4666, "population": 18830}, {"name": "Erdenet", "country_iso2": "MN", "state": "Orhon", "is_capital": true, "latitude": 49.0278, "longitude": 104.0444, "population": 106810}, {"name": "Harhorin", "country_iso2": "MN", "state": "Övörhangay", "is_capital": false, "latitude": 47.2, "longitude": 102.8333, "population": 14765}, {"name": "Hovd", "country_iso2": "MN", "state": "Hovd", "is_capital": true, "latitude": 48.0042, "longitude": 91.6406, "population": 26023}, {"name": "Höshööt", "country_iso2": "MN", "state": "Bayan-Ölgiy", "is_capital": false, "latitude": 48.9408, "longitude": 89.1383, "population": 8744}, {"name": "Mandalgovĭ", "country_iso2": "MN", "state": "Dundgovĭ", "is_capital": true, "latitude": 45.7667, "longitude": 106.2708, "population": 12339}, {"name": "Mörön", "country_iso2": "MN", "state": "Hövsgöl", "is_capital": true, "latitude": 49.6375, "longitude": 100.1614, "population": 134530}, {"name": "Nalayh", "country_iso2": "MN", "state": "Ulaanbaatar", "is_capital": false, "latitude": 47.7725, "longitude": 107.255, "population": 28152}, {"name": "Saynshand", "country_iso2": "MN", "state": "Dornogovĭ", "is_capital": true, "latitude": 44.8917, "longitude": 110.1367, "population": 19891}, {"name": "Sühbaatar", "country_iso2": "MN", "state": "Selenge", "is_capital": true, "latitude": 50.2364, "longitude": 106.2064, "population": 19224}, {"name": "Tsetserleg", "country_iso2": "MN", "state": "Arhangay", "is_capital": true, "latitude": 47.4769, "longitude": 101.4503, "population": 21620}, {"name": "Ulaan-Uul", "country_iso2": "MN", "state": "Dornogovĭ", "is_capital": false, "latitude": 44.3337, "longitude": 111.2333, "population": 3726}, {"name": "Ulaanbaatar", "country_iso2": "MN", "state": "Ulaanbaatar", "is_capital": true, "latitude": 47.9214, "longitude": 106.9055, "population": 1396288}, {"name": "Ulaangom", "country_iso2": "MN", "state": "Uvs", "is_capital": true, "latitude": 49.9833, "longitude": 92.0667, "population": 26319}, {"name": "Uliastay", "country_iso2": "MN", "state": "Dzavhan", "is_capital": true, "latitude": 47.7428, "longitude": 96.8433, "population": 22006}, {"name": "Ölgiy", "country_iso2": "MN", "state": "Bayan-Ölgiy", "is_capital": true, "latitude": 48.9683, "longitude": 89.9686, "population": 40564}, {"name": "Öndörhaan", "country_iso2": "MN", "state": "Hentiy", "is_capital": true, "latitude": 47.3167, "longitude": 110.65, "population": 20935}]