[{"name": "Baie du Tombeau", "country_iso2": "MU", "state": "Pamplemousses", "is_capital": false, "latitude": -20.1138, "longitude": 57.5066, "population": 14687}, {"name": "Bambous", "country_iso2": "MU", "state": "Black River", "is_capital": false, "latitude": -20.26, "longitude": 57.4148, "population": 15345}, {"name": "Bel Air", "country_iso2": "MU", "state": "Flacq", "is_capital": false, "latitude": -20.2582, "longitude": 57.7545, "population": 17605}, {"name": "Centre de Flacq", "country_iso2": "MU", "state": "Flacq", "is_capital": false, "latitude": -20.2002, "longitude": 57.7177, "population": 15791}, {"name": "Curepipe", "country_iso2": "MU", "state": "Plaines Wilhems", "is_capital": false, "latitude": -20.3188, "longitude": 57.5263, "population": 78618}, {"name": "Goodlands", "country_iso2": "MU", "state": "Rivière du Rempart", "is_capital": false, "latitude": -20.035, "longitude": 57.6431, "population": 20712}, {"name": "Grand Baie", "country_iso2": "MU", "state": "Rivière du Rempart", "is_capital": false, "latitude": -20.0131, "longitude": 57.5844, "population": 11910}, {"name": "Lalmatie", "country_iso2": "MU", "state": "Flacq", "is_capital": false, "latitude": -20.0184, "longitude": 57.5802, "population": 11910}, {"name": "Le Hochet", "country_iso2": "MU", "state": "Pamplemousses", "is_capital": false, "latitude": -20.135, "longitude": 57.5211, "population": 15034}, {"name": "Moka", "country_iso2": "MU", "state": "Moka", "is_capital": false, "latitude": -20.219, "longitude": 57.496, "population": 8846}, {"name": "Plaine Magnien", "country_iso2": "MU", "state": "Grand Port", "is_capital": false, "latitude": -20.4286, "longitude": 57.6531, "population": 10443}, {"name": "Port Louis", "country_iso2": "MU", "state": "Port Louis", "is_capital": true, "latitude": -20.1644, "longitude": 57.5042, "population": 149194}, {"name": "Quartier Militaire", "country_iso2": "MU", "state": "Moka", "is_capital": false, "latitude": -20.25, "longitude": 57.55, "population": 22745}, {"name": "Quatre Bornes", "country_iso2": "MU", "state": "Plaines Wilhems", "is_capital": false, "latitude": -20.2654, "longitude": 57.4791, "population": 77308}, {"name": "Rose Belle", "country_iso2": "MU", "state": "Grand Port", "is_capital": false, "latitude": -20.4025, "longitude": 57.6061, "population": 12799}, {"name": "Surinam", "country_iso2": "MU", "state": "Savanne", "is_capital": false, "latitude": -20.5139, "longitude": 57.5111, "population": 10507}, {"name": "Triolet", "country_iso2": "MU", "state": "Pamplemousses", "is_capital": false, "latitude": -20.05, "longitude": 57.55, "population": 18772}]