[{"name": "Bethanie", "country_iso2": "NA", "state": "ǁKaras", "is_capital": false, "latitude": -26.5006, "longitude": 17.16, "population": 3900}, {"name": "Eenhana", "country_iso2": "NA", "state": "Ohangwena", "is_capital": true, "latitude": -17.4658, "longitude": 16.3369, "population": 16588}, {"name": "Gobabis", "country_iso2": "NA", "state": "Omaheke", "is_capital": true, "latitude": -22.45, "longitude": 18.9667, "population": 19101}, {"name": "Grootfontein", "country_iso2": "NA", "state": "Otjozondjupa", "is_capital": false, "latitude": -19.5658, "longitude": 18.1036, "population": 26839}, {"name": "Karasburg", "country_iso2": "NA", "state": "ǁKaras", "is_capital": false, "latitude": -28.0172, "longitude": 18.7478, "population": 4401}, {"name": "Karibib", "country_iso2": "NA", "state": "Erongo", "is_capital": false, "latitude": -21.939, "longitude": 15.853, "population": 5132}, {"name": "Katima Mulilo", "country_iso2": "NA", "state": "Zambezi", "is_capital": true, "latitude": -17.5, "longitude": 24.2667, "population": 28699}, {"name": "Keetmanshoop", "country_iso2": "NA", "state": "ǁKaras", "is_capital": true, "latitude": -26.5833, "longitude": 18.1333, "population": 16800}, {"name": "Lüderitz", "country_iso2": "NA", "state": "ǁKaras", "is_capital": false, "latitude": -26.6478, "longitude": 15.1578, "population": 12537}, {"name": "Maltahöhe", "country_iso2": "NA", "state": "Hardap", "is_capital": false, "latitude": -24.85, "longitude": 16.9833, "population": 6000}, {"name": "Mariental", "country_iso2": "NA", "state": "Hardap", "is_capital": true, "latitude": -24.6333, "longitude": 17.9667, "population": 12478}, {"name": "Nkurenkuru", "country_iso2": "NA", "state": "Kavango West", "is_capital": true, "latitude": -17.6167, "longitude": 18.6, "population": 10261}, {"name": "Okahandja", "country_iso2": "NA", "state": "Otjozondjupa", "is_capital": false, "latitude": -21.9796, "longitude": 16.91, "population": 22639}, {"name": "Omaruru", "country_iso2": "NA", "state": "Erongo", "is_capital": false, "latitude": -21.4183, "longitude": 15.9539, "population": 6300}, {"name": "Omatjete", "country_iso2": "NA", "state": "Erongo", "is_capital": false, "latitude": -21.05, "longitude": 15.5, "population": 12000}, {"name": "Omuthiya", "country_iso2": "NA", "state": "Oshikoto", "is_capital": true, "latitude": -18.3606, "longitude": 16.5812, "population": 7560}, {"name": "Ondangwa", "country_iso2": "NA", "state": "Oshana", "is_capital": false, "latitude": -17.9167, "longitude": 15.95, "population": 30364}, {"name": "Ongwediva", "country_iso2": "NA", "state": "Oshana", "is_capital": false, "latitude": -17.7833, "longitude": 15.7667, "population": 10964}, {"name": "Opuwo", "country_iso2": "NA", "state": "Kunene", "is_capital": true, "latitude": -18.0556, "longitude": 13.8406, "population": 12335}, {"name": "Oranjemund", "country_iso2": "NA", "state": "ǁKaras", "is_capital": false, "latitude": -28.55, "longitude": 16.4333, "population": 7736}, {"name": "Oshakati", "country_iso2": "NA", "state": "Oshana", "is_capital": true, "latitude": -17.7833, "longitude": 15.6995, "population": 39679}, {"name": "Oshikango", "country_iso2": "NA", "state": "Ohangwena", "is_capital": false, "latitude": -17.4, "longitude": 15.8833, "population": 12423}, {"name": "Otavi", "country_iso2": "NA", "state": "Otjozondjupa", "is_capital": false, "latitude": -19.65, "longitude": 17.3333, "population": 10756}, {"name": "Otjiwarongo", "country_iso2": "NA", "state": "Otjozondjupa", "is_capital": true, "latitude": -20.4642, "longitude": 16.6528, "population": 19614}, {"name": "Outapi", "country_iso2": "NA", "state": "Omusati", "is_capital": true, "latitude": -17.5044, "longitude": 14.9847, "population": 4606}, {"name": "Outjo", "country_iso2": "NA", "state": "Kunene", "is_capital": false, "latitude": -20.1069, "longitude": 16.1503, "population": 6013}, {"name": "Rehoboth", "country_iso2": "NA", "state": "Hardap", "is_capital": false, "latitude": -23.3167, "longitude": 17.0833, "population": 28843}, {"name": "Rundu", "country_iso2": "NA", "state": "Kavango East", "is_capital": true, "latitude": -17.9167, "longitude": 19.7667, "population": 118632}, {"name": "Swakopmund", "country_iso2": "NA", "state": "Erongo", "is_capital": true, "latitude": -22.6667, "longitude": 14.5333, "population": 34300}, {"name": "Tsumeb", "country_iso2": "NA", "state": "Oshikoto", "is_capital": false, "latitude": -19.25, "longitude": 17.7, "population": 34960}, {"name": "Usakos", "country_iso2": "NA", "state": "Erongo", "is_capital": false, "latitude": -22.0, "longitude": 15.6, "population": 3583}, {"name": "Walvisbaai", "country_iso2": "NA", "state": "Erongo", "is_capital": false, "latitude": -22.9494, "longitude": 14.5069, "population": 102704}, {"name": "Windhoek", "country_iso2": "NA", "state": "Khomas", "is_capital": true, "latitude": -22.57, "longitude": 17.0836, "population": 431000}]