[{"name": "Dumbéa", "country_iso2": "NC", "state": "Province Sud", "is_capital": false, "latitude": -22.1576, "longitude": 166.4572, "population": 35873}, {"name": "Koné", "country_iso2": "NC", "state": "Province Nord", "is_capital": true, "latitude": -21.059, "longitude": 164.8518, "population": 8144}, {"name": "Mont-Dore", "country_iso2": "NC", "state": "Province Sud", "is_capital": false, "latitude": -22.2833, "longitude": 166.5833, "population": 27620}, {"name": "Nouméa", "country_iso2": "NC", "state": "Province Sud", "is_capital": true, "latitude": -22.2625, "longitude": 166.4443, "population": 182341}, {"name": "Païta", "country_iso2": "NC", "state": "Province Sud", "is_capital": false, "latitude": -22.1289, "longitude": 166.369, "population": 24563}, {"name": "Wé", "country_iso2": "NC", "state": "Province Îles", "is_capital": true, "latitude": -20.9, "longitude": 167.2667, "population": null}]