[{"name": "Al Buraymī", "country_iso2": "OM", "state": "Al Buraymī", "is_capital": true, "latitude": 24.2558, "longitude": 55.8025, "population": 67963}, {"name": "Al Madrah Samā’il", "country_iso2": "OM", "state": "Ad Dākhilīyah", "is_capital": false, "latitude": 23.3103, "longitude": 57.9455, "population": 47718}, {"name": "Al Mazyūnah", "country_iso2": "OM", "state": "Z̧ufār", "is_capital": false, "latitude": 17.8486, "longitude": 52.62, "population": 10000}, {"name": "Al Muḑaybī", "country_iso2": "OM", "state": "Shamāl ash Sharqīyah", "is_capital": false, "latitude": 22.5703, "longitude": 58.1211, "population": 115040}, {"name": "Al ‘Āmirāt", "country_iso2": "OM", "state": "Masqaţ", "is_capital": false, "latitude": 23.5224, "longitude": 58.4987, "population": 70000}, {"name": "Ar Rustāq", "country_iso2": "OM", "state": "Janūb al Bāţinah", "is_capital": true, "latitude": 23.3908, "longitude": 57.4244, "population": 120000}, {"name": "As Suwayq", "country_iso2": "OM", "state": "Shamāl al Bāţinah", "is_capital": false, "latitude": 23.8494, "longitude": 57.4386, "population": 170000}, {"name": "Aş Şuwayḩirah as Sāḩil", "country_iso2": "OM", "state": "Shamāl al Bāţinah", "is_capital": false, "latitude": 24.362, "longitude": 56.7344, "population": null}, {"name": "Bahlā’", "country_iso2": "OM", "state": "Ad Dākhilīyah", "is_capital": false, "latitude": 22.9789, "longitude": 57.3047, "population": 85000}, {"name": "Bawshar", "country_iso2": "OM", "state": "Masqaţ", "is_capital": false, "latitude": 23.5777, "longitude": 58.3998, "population": 383257}, {"name": "Fanjā’", "country_iso2": "OM", "state": "Ad Dākhilīyah", "is_capital": false, "latitude": 23.4579, "longitude": 58.0986, "population": 10396}, {"name": "Haymā’", "country_iso2": "OM", "state": "Al Wusţá", "is_capital": true, "latitude": 19.9333, "longitude": 56.3167, "population": null}, {"name": "Ibrā’", "country_iso2": "OM", "state": "Shamāl ash Sharqīyah", "is_capital": true, "latitude": 22.6906, "longitude": 58.5334, "population": 35000}, {"name": "Izkī", "country_iso2": "OM", "state": "Ad Dākhilīyah", "is_capital": false, "latitude": 22.9339, "longitude": 57.775, "population": 35173}, {"name": "Khaşab", "country_iso2": "OM", "state": "Musandam", "is_capital": true, "latitude": 26.1833, "longitude": 56.25, "population": 17777}, {"name": "Masqaţ", "country_iso2": "OM", "state": "Masqaţ", "is_capital": false, "latitude": 23.614, "longitude": 58.5911, "population": 1720000}, {"name": "Maţraḩ", "country_iso2": "OM", "state": "Masqaţ", "is_capital": false, "latitude": 23.6167, "longitude": 58.5667, "population": 214901}, {"name": "Mirbāţ", "country_iso2": "OM", "state": "Z̧ufār", "is_capital": false, "latitude": 16.9924, "longitude": 54.6918, "population": 1120}, {"name": "Muscat", "country_iso2": "OM", "state": "Masqaţ", "is_capital": true, "latitude": 23.6139, "longitude": 58.5922, "population": 1421409}, {"name": "Nakhal", "country_iso2": "OM", "state": "Janūb al Bāţinah", "is_capital": false, "latitude": 23.3985, "longitude": 57.8218, "population": 28088}, {"name": "Nizwá", "country_iso2": "OM", "state": "Ad Dākhilīyah", "is_capital": true, "latitude": 22.9333, "longitude": 57.5333, "population": 83544}, {"name": "Qurayyāt", "country_iso2": "OM", "state": "Masqaţ", "is_capital": false, "latitude": 23.2652, "longitude": 58.9034, "population": 63133}, {"name": "Samā’il", "country_iso2": "OM", "state": "Ad Dākhilīyah", "is_capital": false, "latitude": 23.2984, "longitude": 57.9531, "population": 80538}, {"name": "Shināş", "country_iso2": "OM", "state": "Shamāl al Bāţinah", "is_capital": false, "latitude": 24.7426, "longitude": 56.467, "population": 43312}, {"name": "Şalālah", "country_iso2": "OM", "state": "Z̧ufār", "is_capital": true, "latitude": 17.0197, "longitude": 54.0897, "population": 331949}, {"name": "Şuḩār", "country_iso2": "OM", "state": "Shamāl al Bāţinah", "is_capital": true, "latitude": 24.342, "longitude": 56.7299, "population": null}, {"name": "Şūr", "country_iso2": "OM", "state": "Janūb ash Sharqīyah", "is_capital": true, "latitude": 22.5667, "longitude": 59.5289, "population": null}, {"name": "Ţāqah", "country_iso2": "OM", "state": "Z̧ufār", "is_capital": false, "latitude": 17.0483, "longitude": 54.3906, "population": 18218}, {"name": "Ḑank", "country_iso2": "OM", "state": "Az̧ Z̧āhirah", "is_capital": false, "latitude": 23.5505, "longitude": 56.2573, "population": 23466}, {"name": "‘Ibrī", "country_iso2": "OM", "state": "Az̧ Z̧āhirah", "is_capital": true, "latitude": 23.2325, "longitude": 56.4973, "population": null}]