[{"name": "Al Jumaylīyah", "country_iso2": "QA", "state": "Ash Shīḩānīyah", "is_capital": false, "latitude": 25.6208, "longitude": 51.0819, "population": 13085}, {"name": "Al Khawr", "country_iso2": "QA", "state": "Al Khawr wa adh Dhakhīrah", "is_capital": true, "latitude": 25.69, "longitude": 51.51, "population": 61877}, {"name": "Al Wakrah", "country_iso2": "QA", "state": "Al Wakrah", "is_capital": true, "latitude": 25.18, "longitude": 51.61, "population": 87970}, {"name": "Ar Rayyān", "country_iso2": "QA", "state": "Ar Rayyān", "is_capital": true, "latitude": 25.25, "longitude": 51.4, "population": 605712}, {"name": "Ash Shīḩānīyah", "country_iso2": "QA", "state": "Ash Shīḩānīyah", "is_capital": true, "latitude": 25.3722, "longitude": 51.2047, "population": 161240}, {"name": "Az̧ Z̧a‘āyin", "country_iso2": "QA", "state": "Az̧ Z̧a‘āyin", "is_capital": true, "latitude": 25.5669, "longitude": 51.4847, "population": null}, {"name": "Doha", "country_iso2": "QA", "state": "Ad Dawḩah", "is_capital": true, "latitude": 25.2867, "longitude": 51.5333, "population": 1186023}, {"name": "Laqţah", "country_iso2": "QA", "state": "Ash Shīḩānīyah", "is_capital": false, "latitude": 25.4175, "longitude": 51.5075, "population": 198600}, {"name": "Madīnat ash Shamāl", "country_iso2": "QA", "state": "Ash Shamāl", "is_capital": true, "latitude": 26.1167, "longitude": 51.2167, "population": null}, {"name": "Nu‘ayjah", "country_iso2": "QA", "state": "Ad Dawḩah", "is_capital": false, "latitude": 25.2525, "longitude": 51.5592, "population": 29703}, {"name": "Umm Qurūn", "country_iso2": "QA", "state": "Ar Rayyān", "is_capital": false, "latitude": 25.25, "longitude": 51.3732, "population": 54339}, {"name": "Umm Şalāl ‘Alī", "country_iso2": "QA", "state": "Umm Şalāl", "is_capital": true, "latitude": 25.4697, "longitude": 51.3975, "population": null}]