[{"name": "Bakel", "country_iso2": "SN", "state": "Tambacounda", "is_capital": false, "latitude": 14.9042, "longitude": -12.4583, "population": 15000}, {"name": "Bargny", "country_iso2": "SN", "state": "Dakar", "is_capital": false, "latitude": 14.6944, "longitude": -17.2306, "population": 36516}, {"name": "Bignona", "country_iso2": "SN", "state": "Ziguinchor", "is_capital": false, "latitude": 12.8096, "longitude": -16.2301, "population": 22237}, {"name": "Dagana", "country_iso2": "SN", "state": "Saint-Louis", "is_capital": false, "latitude": 16.4833, "longitude": -15.6, "population": 18205}, {"name": "Dakar", "country_iso2": "SN", "state": "Dakar", "is_capital": true, "latitude": 14.6726, "longitude": -17.432, "population": 1438725}, {"name": "Dara", "country_iso2": "SN", "state": "Louga", "is_capital": false, "latitude": 15.3508, "longitude": -15.4783, "population": 32941}, {"name": "Diabougou", "country_iso2": "SN", "state": "Tambacounda", "is_capital": false, "latitude": 14.5431, "longitude": -12.2186, "population": 10000}, {"name": "Diamniadio", "country_iso2": "SN", "state": "Dakar", "is_capital": false, "latitude": 14.7199, "longitude": -17.1842, "population": 10898}, {"name": "Diourbel", "country_iso2": "SN", "state": "Diourbel", "is_capital": true, "latitude": 14.655, "longitude": -16.2314, "population": 100445}, {"name": "Fatick", "country_iso2": "SN", "state": "Fatick", "is_capital": true, "latitude": 14.3167, "longitude": -16.4167, "population": 18416}, {"name": "Goudomp", "country_iso2": "SN", "state": "Sédhiou", "is_capital": false, "latitude": 12.5778, "longitude": -15.8722, "population": 13394}, {"name": "Guinguinéo", "country_iso2": "SN", "state": "Fatick", "is_capital": false, "latitude": 14.2667, "longitude": -15.95, "population": 15627}, {"name": "Guédiawaye", "country_iso2": "SN", "state": "Dakar", "is_capital": false, "latitude": 14.7724, "longitude": -17.3884, "population": 329659}, {"name": "Guéoul", "country_iso2": "SN", "state": "Louga", "is_capital": false, "latitude": 15.4833, "longitude": -16.35, "population": 10918}, {"name": "Joal-Fadiout", "country_iso2": "SN", "state": "Thiès", "is_capital": false, "latitude": 14.1531, "longitude": -16.8316, "population": 45903}, {"name": "Kaffrine", "country_iso2": "SN", "state": "Kaffrine", "is_capital": true, "latitude": 14.1016, "longitude": -15.5467, "population": 39357}, {"name": "Kanel", "country_iso2": "SN", "state": "Matam", "is_capital": false, "latitude": 15.4833, "longitude": -13.1667, "population": 12975}, {"name": "Kaolack", "country_iso2": "SN", "state": "Kaolack", "is_capital": true, "latitude": 14.1389, "longitude": -16.0764, "population": 172305}, {"name": "Khombole", "country_iso2": "SN", "state": "Thiès", "is_capital": false, "latitude": 14.7629, "longitude": -16.6909, "population": 15587}, {"name": "Kidira", "country_iso2": "SN", "state": "Tambacounda", "is_capital": false, "latitude": 14.4574, "longitude": -12.2106, "population": 10065}, {"name": "Kobilo", "country_iso2": "SN", "state": "Matam", "is_capital": false, "latitude": 15.9251, "longitude": -13.5242, "population": 21656}, {"name": "Kolda", "country_iso2": "SN", "state": "Kolda", "is_capital": true, "latitude": 12.8958, "longitude": -14.9408, "population": 62258}, {"name": "Koumpentoum", "country_iso2": "SN", "state": "Tambacounda", "is_capital": false, "latitude": 13.9833, "longitude": -14.5667, "population": 10000}, {"name": "Koungheul", "country_iso2": "SN", "state": "Kaffrine", "is_capital": false, "latitude": 13.9667, "longitude": -14.8053, "population": 15000}, {"name": "Kébémer", "country_iso2": "SN", "state": "Louga", "is_capital": false, "latitude": 15.3667, "longitude": -16.4333, "population": 20000}, {"name": "Kédougou", "country_iso2": "SN", "state": "Kédougou", "is_capital": true, "latitude": 12.5556, "longitude": -12.1807, "population": 11216}, {"name": "Linguère", "country_iso2": "SN", "state": "Louga", "is_capital": false, "latitude": 15.3833, "longitude": -15.2167, "population": 15482}, {"name": "Louga", "country_iso2": "SN", "state": "Louga", "is_capital": true, "latitude": 15.6167, "longitude": -16.2167, "population": 82884}, {"name": "Malikounda", "country_iso2": "SN", "state": "Thiès", "is_capital": false, "latitude": 14.4724, "longitude": -16.9459, "population": 61031}, {"name": "Malème Hodar", "country_iso2": "SN", "state": "Kaffrine", "is_capital": false, "latitude": 14.0883, "longitude": -15.2944, "population": 30000}, {"name": "Matam", "country_iso2": "SN", "state": "Matam", "is_capital": true, "latitude": 15.6167, "longitude": -13.3333, "population": 17324}, {"name": "Mbaké", "country_iso2": "SN", "state": "Diourbel", "is_capital": false, "latitude": 14.7903, "longitude": -15.9078, "population": 68054}, {"name": "Mboro", "country_iso2": "SN", "state": "Thiès", "is_capital": false, "latitude": 15.1327, "longitude": -16.8768, "population": 11809}, {"name": "Mbour", "country_iso2": "SN", "state": "Thiès", "is_capital": false, "latitude": 14.4104, "longitude": -16.9649, "population": 232777}, {"name": "Mékhé", "country_iso2": "SN", "state": "Thiès", "is_capital": false, "latitude": 15.1135, "longitude": -16.6316, "population": 22944}, {"name": "Ngaparou", "country_iso2": "SN", "state": "Thiès", "is_capital": false, "latitude": 14.4642, "longitude": -17.0562, "population": 9500}, {"name": "Nguékhokh", "country_iso2": "SN", "state": "Thiès", "is_capital": false, "latitude": 14.5088, "longitude": -17.0027, "population": 27033}, {"name": "Nioro du Rip", "country_iso2": "SN", "state": "Kaolack", "is_capital": false, "latitude": 13.745, "longitude": -15.7746, "population": 15643}, {"name": "Paoskoto", "country_iso2": "SN", "state": "Kaolack", "is_capital": false, "latitude": 13.7833, "longitude": -15.8167, "population": 43460}, {"name": "Pikine", "country_iso2": "SN", "state": "Dakar", "is_capital": false, "latitude": 14.744, "longitude": -17.4021, "population": 764597}, {"name": "Richard-Toll", "country_iso2": "SN", "state": "Saint-Louis", "is_capital": false, "latitude": 16.4661, "longitude": -15.6933, "population": 90000}, {"name": "Ross-Bétio", "country_iso2": "SN", "state": "Saint-Louis", "is_capital": false, "latitude": 16.2793, "longitude": -16.1398, "population": 11588}, {"name": "Rufisque", "country_iso2": "SN", "state": "Dakar", "is_capital": false, "latitude": 14.714, "longitude": -17.2723, "population": 295459}, {"name": "Saint-Louis", "country_iso2": "SN", "state": "Saint-Louis", "is_capital": true, "latitude": 16.0333, "longitude": -16.5, "population": 154555}, {"name": "Sali", "country_iso2": "SN", "state": "Thiès", "is_capital": false, "latitude": 14.4425, "longitude": -17.0165, "population": 26945}, {"name": "Salémata", "country_iso2": "SN", "state": "Kédougou", "is_capital": false, "latitude": 12.6333, "longitude": -12.8167, "population": 22111}, {"name": "Sokone", "country_iso2": "SN", "state": "Fatick", "is_capital": false, "latitude": 13.878, "longitude": -16.37, "population": 14500}, {"name": "Sébikhotane", "country_iso2": "SN", "state": "Dakar", "is_capital": false, "latitude": 14.7428, "longitude": -17.1419, "population": 18582}, {"name": "Sédhiou", "country_iso2": "SN", "state": "Sédhiou", "is_capital": true, "latitude": 12.7081, "longitude": -15.5569, "population": null}, {"name": "Tambacounda", "country_iso2": "SN", "state": "Tambacounda", "is_capital": true, "latitude": 13.7689, "longitude": -13.6672, "population": 78800}, {"name": "Thilogne", "country_iso2": "SN", "state": "Matam", "is_capital": false, "latitude": 15.9659, "longitude": -13.5916, "population": 10440}, {"name": "Thiès", "country_iso2": "SN", "state": "Thiès", "is_capital": true, "latitude": 14.7916, "longitude": -16.9249, "population": 115245}, {"name": "Tiadiaye", "country_iso2": "SN", "state": "Thiès", "is_capital": false, "latitude": 14.4209, "longitude": -16.7061, "population": 14975}, {"name": "Tionk Essil", "country_iso2": "SN", "state": "Ziguinchor", "is_capital": false, "latitude": 12.7856, "longitude": -16.5217, "population": 8507}, {"name": "Tivaouane", "country_iso2": "SN", "state": "Thiès", "is_capital": false, "latitude": 14.9543, "longitude": -16.8132, "population": 69556}, {"name": "Touba", "country_iso2": "SN", "state": "Diourbel", "is_capital": false, "latitude": 14.8667, "longitude": -15.8833, "population": 529176}, {"name": "Vélingara", "country_iso2": "SN", "state": "Kolda", "is_capital": false, "latitude": 13.15, "longitude": -14.1167, "population": 23775}, {"name": "Ziguinchor", "country_iso2": "SN", "state": "Ziguinchor", "is_capital": true, "latitude": 12.5861, "longitude": -16.2707, "population": 69646}]