[{"name": "Guadalupe", "country_iso2": "ST", "state": "Lobata", "is_capital": true, "latitude": 0.38, "longitude": 6.6381, "population": 7604}, {"name": "Neves", "country_iso2": "ST", "state": "Lembá", "is_capital": true, "latitude": 0.3592, "longitude": 6.5517, "population": 10068}, {"name": "Santana", "country_iso2": "ST", "state": "Cantagalo", "is_capital": true, "latitude": 0.2583, "longitude": 6.7417, "population": 10290}, {"name": "Santo António", "country_iso2": "ST", "state": "Príncipe", "is_capital": true, "latitude": 1.6367, "longitude": 7.4178, "population": 2620}, {"name": "São João dos Angolares", "country_iso2": "ST", "state": "Caué", "is_capital": true, "latitude": 0.1333, "longitude": 6.65, "population": 3605}, {"name": "São Tomé", "country_iso2": "ST", "state": "Água Grande", "is_capital": true, "latitude": 0.3361, "longitude": 6.7306, "population": 71868}, {"name": "Trindade", "country_iso2": "ST", "state": "Mé-Zóchi", "is_capital": true, "latitude": 0.3, "longitude": 6.6833, "population": 16140}]