[{"name": "Abéché", "country_iso2": "TD", "state": "Ouaddaï", "is_capital": true, "latitude": 13.8331, "longitude": 20.8347, "population": 76492}, {"name": "Adré", "country_iso2": "TD", "state": "Ouaddaï", "is_capital": false, "latitude": 13.4667, "longitude": 22.2, "population": 12571}, {"name": "Am-Timan", "country_iso2": "TD", "state": "Salamat", "is_capital": true, "latitude": 11.0333, "longitude": 20.2833, "population": 38261}, {"name": "Amdjarass", "country_iso2": "TD", "state": "Ennedi-Est", "is_capital": true, "latitude": 16.0658, "longitude": 22.8431, "population": 20850}, {"name": "Ati", "country_iso2": "TD", "state": "Batha", "is_capital": true, "latitude": 13.2133, "longitude": 18.3381, "population": 35311}, {"name": "Bardaï", "country_iso2": "TD", "state": "Tibesti", "is_capital": true, "latitude": 21.3533, "longitude": 17.0003, "population": null}, {"name": "Benoy", "country_iso2": "TD", "state": "Logone Occidental", "is_capital": false, "latitude": 8.9908, "longitude": 16.3169, "population": 12097}, {"name": "Biltine", "country_iso2": "TD", "state": "Wadi-Fira", "is_capital": true, "latitude": 14.5275, "longitude": 20.9267, "population": 11840}, {"name": "Bitkine", "country_iso2": "TD", "state": "Guéra", "is_capital": false, "latitude": 11.9817, "longitude": 18.2125, "population": 18495}, {"name": "Bokoro", "country_iso2": "TD", "state": "Hadjer-Lamis", "is_capital": false, "latitude": 12.3667, "longitude": 17.05, "population": 15517}, {"name": "Bol", "country_iso2": "TD", "state": "Lac", "is_capital": true, "latitude": 13.46, "longitude": 14.74, "population": 11120}, {"name": "Bongor", "country_iso2": "TD", "state": "Mayo-Kebbi-Est", "is_capital": true, "latitude": 10.2806, "longitude": 15.3722, "population": 30518}, {"name": "Bousso", "country_iso2": "TD", "state": "Chari-Baguirmi", "is_capital": false, "latitude": 10.4825, "longitude": 16.7161, "population": 14286}, {"name": "Béré", "country_iso2": "TD", "state": "Tandjilé", "is_capital": false, "latitude": 9.3156, "longitude": 16.1597, "population": 14666}, {"name": "Chèddra", "country_iso2": "TD", "state": "Barh-El-Gazel", "is_capital": false, "latitude": 13.4428, "longitude": 16.0508, "population": 54072}, {"name": "Doba", "country_iso2": "TD", "state": "Logone Oriental", "is_capital": true, "latitude": 8.66, "longitude": 16.85, "population": 25650}, {"name": "Dourbali", "country_iso2": "TD", "state": "Chari-Baguirmi", "is_capital": false, "latitude": 11.805, "longitude": 15.8647, "population": 17682}, {"name": "Déressia", "country_iso2": "TD", "state": "Tandjilé", "is_capital": false, "latitude": 9.7603, "longitude": 16.2697, "population": 50113}, {"name": "Fada", "country_iso2": "TD", "state": "Ennedi-Ouest", "is_capital": true, "latitude": 17.1833, "longitude": 21.5833, "population": 23786}, {"name": "Faya", "country_iso2": "TD", "state": "Borkou", "is_capital": true, "latitude": 17.9169, "longitude": 19.1167, "population": 48090}, {"name": "Fianga", "country_iso2": "TD", "state": "Mayo-Kebbi-Est", "is_capital": false, "latitude": 9.9153, "longitude": 15.1375, "population": 14166}, {"name": "Goz-Beida", "country_iso2": "TD", "state": "Sila", "is_capital": true, "latitude": 12.2236, "longitude": 21.4144, "population": 66107}, {"name": "Guelendeng", "country_iso2": "TD", "state": "Mayo-Kebbi-Est", "is_capital": false, "latitude": 10.9183, "longitude": 15.5486, "population": 16320}, {"name": "Iriba", "country_iso2": "TD", "state": "Wadi-Fira", "is_capital": false, "latitude": 15.1167, "longitude": 22.25, "population": 33572}, {"name": "Kelo", "country_iso2": "TD", "state": "Tandjilé", "is_capital": false, "latitude": 9.31, "longitude": 15.81, "population": 45224}, {"name": "Koumra", "country_iso2": "TD", "state": "Mandoul", "is_capital": true, "latitude": 8.91, "longitude": 17.55, "population": 47950}, {"name": "Kyabé", "country_iso2": "TD", "state": "Moyen-Chari", "is_capital": false, "latitude": 9.4514, "longitude": 18.9447, "population": 15960}, {"name": "Laï", "country_iso2": "TD", "state": "Tandjilé", "is_capital": true, "latitude": 9.4, "longitude": 16.3, "population": 20428}, {"name": "Léré", "country_iso2": "TD", "state": "Mayo-Kebbi-Ouest", "is_capital": false, "latitude": 9.6572, "longitude": 14.2283, "population": 89237}, {"name": "Mangalmé", "country_iso2": "TD", "state": "Guéra", "is_capital": false, "latitude": 12.3547, "longitude": 19.6139, "population": 11155}, {"name": "Mao", "country_iso2": "TD", "state": "Kanem", "is_capital": true, "latitude": 14.1194, "longitude": 15.3133, "population": 50000}, {"name": "Massaguet", "country_iso2": "TD", "state": "Hadjer-Lamis", "is_capital": false, "latitude": 12.4742, "longitude": 15.4428, "population": 18872}, {"name": "Massakory", "country_iso2": "TD", "state": "Hadjer-Lamis", "is_capital": true, "latitude": 13.0, "longitude": 15.7333, "population": 16237}, {"name": "Massenya", "country_iso2": "TD", "state": "Chari-Baguirmi", "is_capital": true, "latitude": 11.4, "longitude": 16.1667, "population": 3680}, {"name": "Mata", "country_iso2": "TD", "state": "Ouaddaï", "is_capital": false, "latitude": 14.0436, "longitude": 21.1611, "population": 13739}, {"name": "Mongo", "country_iso2": "TD", "state": "Guéra", "is_capital": true, "latitude": 12.1837, "longitude": 18.7, "population": 27763}, {"name": "Moundou", "country_iso2": "TD", "state": "Logone Occidental", "is_capital": true, "latitude": 8.5667, "longitude": 16.0833, "population": 137929}, {"name": "Moussoro", "country_iso2": "TD", "state": "Barh-El-Gazel", "is_capital": true, "latitude": 13.6431, "longitude": 16.4919, "population": 75210}, {"name": "N’Djamena", "country_iso2": "TD", "state": "N’Djamena", "is_capital": true, "latitude": 12.1053, "longitude": 15.0447, "population": 807000}, {"name": "Oum Hadjer", "country_iso2": "TD", "state": "Batha", "is_capital": false, "latitude": 13.2944, "longitude": 19.6914, "population": 26136}, {"name": "Pala", "country_iso2": "TD", "state": "Mayo-Kebbi-Ouest", "is_capital": true, "latitude": 9.3646, "longitude": 14.9073, "population": null}, {"name": "Pala Oua", "country_iso2": "TD", "state": "Mayo-Kebbi-Ouest", "is_capital": false, "latitude": 9.3625, "longitude": 14.9106, "population": 40202}, {"name": "Sarh", "country_iso2": "TD", "state": "Moyen-Chari", "is_capital": true, "latitude": 9.15, "longitude": 18.3833, "population": 103269}, {"name": "Yao", "country_iso2": "TD", "state": "Batha", "is_capital": false, "latitude": 12.8508, "longitude": 17.5608, "population": 91507}, {"name": "Zouar", "country_iso2": "TD", "state": "Tibesti", "is_capital": false, "latitude": 20.45, "longitude": 16.5167, "population": 6432}]