[{"name": "Afanyangan", "country_iso2": "TG", "state": "Maritime", "is_capital": false, "latitude": 6.4833, "longitude": 1.65, "population": 13046}, {"name": "Aného", "country_iso2": "TG", "state": "Maritime", "is_capital": false, "latitude": 6.2333, "longitude": 1.6, "population": 28238}, {"name": "Atakpamé", "country_iso2": "TG", "state": "Plateaux", "is_capital": true, "latitude": 7.5269, "longitude": 1.1267, "population": 84979}, {"name": "Badou", "country_iso2": "TG", "state": "Plateaux", "is_capital": false, "latitude": 7.5833, "longitude": 0.6, "population": 24000}, {"name": "Bafilo", "country_iso2": "TG", "state": "Kara", "is_capital": false, "latitude": 9.35, "longitude": 1.2667, "population": 23085}, {"name": "Bassar", "country_iso2": "TG", "state": "Kara", "is_capital": false, "latitude": 9.25, "longitude": 0.7833, "population": 23181}, {"name": "Blitta", "country_iso2": "TG", "state": "Centrale", "is_capital": false, "latitude": 8.3234, "longitude": 0.9859, "population": 10915}, {"name": "Dapaong", "country_iso2": "TG", "state": "Savanes", "is_capital": true, "latitude": 10.8667, "longitude": 0.2, "population": 58071}, {"name": "Kara", "country_iso2": "TG", "state": "Kara", "is_capital": true, "latitude": 9.5511, "longitude": 1.1861, "population": null}, {"name": "Kpalimé", "country_iso2": "TG", "state": "Plateaux", "is_capital": false, "latitude": 6.9, "longitude": 0.6333, "population": 75084}, {"name": "Kévé", "country_iso2": "TG", "state": "Maritime", "is_capital": false, "latitude": 6.4278, "longitude": 0.9245, "population": 12000}, {"name": "Lomé", "country_iso2": "TG", "state": "Maritime", "is_capital": true, "latitude": 6.1308, "longitude": 1.2153, "population": 1500000}, {"name": "Niamtougou", "country_iso2": "TG", "state": "Kara", "is_capital": false, "latitude": 9.7667, "longitude": 1.1, "population": 24000}, {"name": "Notsé", "country_iso2": "TG", "state": "Plateaux", "is_capital": false, "latitude": 6.9483, "longitude": 1.1681, "population": 49143}, {"name": "Sansanné-Mango", "country_iso2": "TG", "state": "Savanes", "is_capital": false, "latitude": 10.3556, "longitude": 0.4756, "population": 41464}, {"name": "Sirka", "country_iso2": "TG", "state": "Kara", "is_capital": false, "latitude": 9.5719, "longitude": 1.3183, "population": 9700}, {"name": "Sokodé", "country_iso2": "TG", "state": "Centrale", "is_capital": true, "latitude": 8.9833, "longitude": 1.1333, "population": 189000}, {"name": "Sotouboua", "country_iso2": "TG", "state": "Centrale", "is_capital": false, "latitude": 8.5667, "longitude": 0.9833, "population": 32464}, {"name": "Tabligbo", "country_iso2": "TG", "state": "Maritime", "is_capital": false, "latitude": 6.5833, "longitude": 1.5, "population": 36961}, {"name": "Tsévié", "country_iso2": "TG", "state": "Maritime", "is_capital": true, "latitude": 6.4333, "longitude": 1.2167, "population": 55775}]