[{"name": "Abdurahmoni Jomí", "country_iso2": "TJ", "state": "Khatlon", "is_capital": false, "latitude": 37.9458, "longitude": 68.8117, "population": 18800}, {"name": "Adrasmon", "country_iso2": "TJ", "state": "Sughd", "is_capital": false, "latitude": 40.6486, "longitude": 69.9856, "population": 15800}, {"name": "Almasi", "country_iso2": "TJ", "state": "Nohiyahoi Tobei Jumhurí", "is_capital": false, "latitude": 38.6833, "longitude": 68.6, "population": 21261}, {"name": "Amondara", "country_iso2": "TJ", "state": "Sughd", "is_capital": false, "latitude": 39.5178, "longitude": 67.8131, "population": 13380}, {"name": "Ayni", "country_iso2": "TJ", "state": "Nohiyahoi Tobei Jumhurí", "is_capital": false, "latitude": 38.6667, "longitude": 68.8167, "population": 14052}, {"name": "Ayní", "country_iso2": "TJ", "state": "Sughd", "is_capital": false, "latitude": 39.3975, "longitude": 68.5406, "population": 14862}, {"name": "Bakhor", "country_iso2": "TJ", "state": "Nohiyahoi Tobei Jumhurí", "is_capital": false, "latitude": 38.55, "longitude": 68.9833, "population": 28276}, {"name": "Bokhtar", "country_iso2": "TJ", "state": "Khatlon", "is_capital": true, "latitude": 37.8364, "longitude": 68.7803, "population": 126700}, {"name": "Buved", "country_iso2": "TJ", "state": "Kŭhistoni Badakhshon", "is_capital": false, "latitude": 37.5833, "longitude": 71.5167, "population": 8723}, {"name": "Bŭston", "country_iso2": "TJ", "state": "Sughd", "is_capital": false, "latitude": 40.5217, "longitude": 69.3308, "population": 15500}, {"name": "Chavkandak", "country_iso2": "TJ", "state": "Sughd", "is_capital": false, "latitude": 39.9, "longitude": 68.9333, "population": 10200}, {"name": "Chilgazí", "country_iso2": "TJ", "state": "Sughd", "is_capital": false, "latitude": 40.15, "longitude": 70.7333, "population": 15997}, {"name": "Chimteppa", "country_iso2": "TJ", "state": "Nohiyahoi Tobei Jumhurí", "is_capital": false, "latitude": 38.4667, "longitude": 68.7333, "population": 45221}, {"name": "Chorbog", "country_iso2": "TJ", "state": "Nohiyahoi Tobei Jumhurí", "is_capital": false, "latitude": 38.6667, "longitude": 68.7667, "population": 31585}, {"name": "Chorbogh", "country_iso2": "TJ", "state": "Sughd", "is_capital": false, "latitude": 39.8667, "longitude": 69.0833, "population": 16488}, {"name": "Chorkŭh", "country_iso2": "TJ", "state": "Sughd", "is_capital": false, "latitude": 39.9739, "longitude": 70.5822, "population": 37065}, {"name": "Chubek", "country_iso2": "TJ", "state": "Khatlon", "is_capital": false, "latitude": 37.6167, "longitude": 69.7, "population": 18490}, {"name": "Dahana", "country_iso2": "TJ", "state": "Khatlon", "is_capital": false, "latitude": 38.0583, "longitude": 69.8667, "population": 29776}, {"name": "Dalyoni Bolo", "country_iso2": "TJ", "state": "Sughd", "is_capital": false, "latitude": 39.7422, "longitude": 68.9944, "population": 23670}, {"name": "Danghara", "country_iso2": "TJ", "state": "Khatlon", "is_capital": false, "latitude": 38.0983, "longitude": 69.3467, "population": 31100}, {"name": "Dashtigulho", "country_iso2": "TJ", "state": "Khatlon", "is_capital": false, "latitude": 37.7, "longitude": 69.5, "population": 19331}, {"name": "Dehmoí", "country_iso2": "TJ", "state": "Sughd", "is_capital": false, "latitude": 40.2167, "longitude": 69.5167, "population": 14802}, {"name": "Dehqonobod", "country_iso2": "TJ", "state": "Khatlon", "is_capital": false, "latitude": 37.6333, "longitude": 69.45, "population": 12327}, {"name": "Durbat", "country_iso2": "TJ", "state": "Nohiyahoi Tobei Jumhurí", "is_capital": false, "latitude": 38.5333, "longitude": 68.6333, "population": 20052}, {"name": "Dushanbe", "country_iso2": "TJ", "state": "Dushanbe", "is_capital": true, "latitude": 38.5367, "longitude": 68.78, "population": 1564700}, {"name": "Dŭstí", "country_iso2": "TJ", "state": "Khatlon", "is_capital": false, "latitude": 37.3486, "longitude": 68.6733, "population": 18800}, {"name": "Farkhor", "country_iso2": "TJ", "state": "Khatlon", "is_capital": false, "latitude": 37.5, "longitude": 69.4, "population": 25300}, {"name": "Farob", "country_iso2": "TJ", "state": "Sughd", "is_capital": false, "latitude": 39.2408, "longitude": 67.47, "population": 8650}, {"name": "Fayzobod", "country_iso2": "TJ", "state": "Nohiyahoi Tobei Jumhurí", "is_capital": false, "latitude": 38.55, "longitude": 69.3167, "population": 10400}, {"name": "Firuzoba", "country_iso2": "TJ", "state": "Sughd", "is_capital": false, "latitude": 40.3, "longitude": 70.4, "population": 23813}, {"name": "Gazantarak", "country_iso2": "TJ", "state": "Sughd", "is_capital": false, "latitude": 39.9667, "longitude": 69.1333, "population": 17801}, {"name": "Ghafurov", "country_iso2": "TJ", "state": "Sughd", "is_capital": false, "latitude": 40.22, "longitude": 69.73, "population": 20600}, {"name": "Ghonchí", "country_iso2": "TJ", "state": "Sughd", "is_capital": false, "latitude": 39.9589, "longitude": 69.1369, "population": 17000}, {"name": "Ghŭlakandoz", "country_iso2": "TJ", "state": "Sughd", "is_capital": false, "latitude": 40.1617, "longitude": 69.4678, "population": 50200}, {"name": "Gulshan", "country_iso2": "TJ", "state": "Khatlon", "is_capital": false, "latitude": 37.5833, "longitude": 69.4333, "population": 12418}, {"name": "Hisor", "country_iso2": "TJ", "state": "Nohiyahoi Tobei Jumhurí", "is_capital": false, "latitude": 38.5264, "longitude": 68.5381, "population": 308100}, {"name": "Hulbuk", "country_iso2": "TJ", "state": "Khatlon", "is_capital": false, "latitude": 37.805, "longitude": 69.6464, "population": 24500}, {"name": "Isfara", "country_iso2": "TJ", "state": "Sughd", "is_capital": false, "latitude": 40.1167, "longitude": 70.6333, "population": 274000}, {"name": "Isfisor", "country_iso2": "TJ", "state": "Sughd", "is_capital": false, "latitude": 40.2433, "longitude": 69.7447, "population": 39590}, {"name": "Istaravshan", "country_iso2": "TJ", "state": "Sughd", "is_capital": false, "latitude": 39.9108, "longitude": 69.0064, "population": 273500}, {"name": "Jilikŭl", "country_iso2": "TJ", "state": "Khatlon", "is_capital": false, "latitude": 37.4928, "longitude": 68.5286, "population": 25382}, {"name": "Kalaidasht", "country_iso2": "TJ", "state": "Nohiyahoi Tobei Jumhurí", "is_capital": false, "latitude": 38.6333, "longitude": 69.5, "population": 12074}, {"name": "Kalanak", "country_iso2": "TJ", "state": "Nohiyahoi Tobei Jumhurí", "is_capital": false, "latitude": 39.0833, "longitude": 70.5, "population": 10411}, {"name": "Khonobod", "country_iso2": "TJ", "state": "Sughd", "is_capital": false, "latitude": 40.2, "longitude": 70.6, "population": 12159}, {"name": "Khorugh", "country_iso2": "TJ", "state": "Kŭhistoni Badakhshon", "is_capital": true, "latitude": 37.4833, "longitude": 71.55, "population": 30500}, {"name": "Khovaling", "country_iso2": "TJ", "state": "Khatlon", "is_capital": false, "latitude": 38.3386, "longitude": 69.9728, "population": 10601}, {"name": "Khurmi", "country_iso2": "TJ", "state": "Sughd", "is_capital": false, "latitude": 39.5167, "longitude": 67.5833, "population": 10451}, {"name": "Khŭjand", "country_iso2": "TJ", "state": "Sughd", "is_capital": true, "latitude": 40.2833, "longitude": 69.6333, "population": 770000}, {"name": "Konibodom", "country_iso2": "TJ", "state": "Sughd", "is_capital": false, "latitude": 40.2833, "longitude": 70.4167, "population": 219000}, {"name": "Kosatarosh", "country_iso2": "TJ", "state": "Sughd", "is_capital": false, "latitude": 39.4, "longitude": 67.75, "population": 18986}, {"name": "Kulkent", "country_iso2": "TJ", "state": "Sughd", "is_capital": false, "latitude": 40.15, "longitude": 70.7, "population": 22731}, {"name": "Kŭlob", "country_iso2": "TJ", "state": "Khatlon", "is_capital": false, "latitude": 37.9092, "longitude": 69.7819, "population": 214700}, {"name": "Langar", "country_iso2": "TJ", "state": "Sughd", "is_capital": false, "latitude": 39.45, "longitude": 69.55, "population": 9666}, {"name": "Levakant", "country_iso2": "TJ", "state": "Khatlon", "is_capital": false, "latitude": 37.8667, "longitude": 68.9167, "population": 48300}, {"name": "Lohur", "country_iso2": "TJ", "state": "Nohiyahoi Tobei Jumhurí", "is_capital": false, "latitude": 38.3833, "longitude": 68.7, "population": 20047}, {"name": "Lohutí", "country_iso2": "TJ", "state": "Sughd", "is_capital": false, "latitude": 40.25, "longitude": 70.1333, "population": 21652}, {"name": "Mastchoh", "country_iso2": "TJ", "state": "Sughd", "is_capital": false, "latitude": 40.3667, "longitude": 69.3333, "population": 16401}, {"name": "Mehnatobod", "country_iso2": "TJ", "state": "Khatlon", "is_capital": false, "latitude": 37.7167, "longitude": 69.55, "population": 21816}, {"name": "Mehnatobod", "country_iso2": "TJ", "state": "Sughd", "is_capital": false, "latitude": 40.2, "longitude": 68.95, "population": 12400}, {"name": "Mogiyon", "country_iso2": "TJ", "state": "Sughd", "is_capital": false, "latitude": 39.25, "longitude": 67.65, "population": 19553}, {"name": "Moskva", "country_iso2": "TJ", "state": "Khatlon", "is_capital": false, "latitude": 37.6567, "longitude": 69.6292, "population": 23300}, {"name": "Muchun", "country_iso2": "TJ", "state": "Sughd", "is_capital": false, "latitude": 39.8833, "longitude": 69.1833, "population": 27835}, {"name": "Mujikharf", "country_iso2": "TJ", "state": "Nohiyahoi Tobei Jumhurí", "is_capital": false, "latitude": 38.85, "longitude": 69.8833, "population": 17366}, {"name": "Mŭ’minobod", "country_iso2": "TJ", "state": "Khatlon", "is_capital": false, "latitude": 38.1083, "longitude": 70.0292, "population": 14100}, {"name": "Naryn", "country_iso2": "TJ", "state": "Khatlon", "is_capital": false, "latitude": 38.2, "longitude": 68.9, "population": 21314}, {"name": "Navabad", "country_iso2": "TJ", "state": "Nohiyahoi Tobei Jumhurí", "is_capital": false, "latitude": 38.5667, "longitude": 68.5167, "population": 26321}, {"name": "Navabad", "country_iso2": "TJ", "state": "Nohiyahoi Tobei Jumhurí", "is_capital": false, "latitude": 38.5278, "longitude": 68.675, "population": 10200}, {"name": "Navgilem", "country_iso2": "TJ", "state": "Sughd", "is_capital": false, "latitude": 40.1333, "longitude": 70.65, "population": 38104}, {"name": "Navraftor", "country_iso2": "TJ", "state": "Khatlon", "is_capital": false, "latitude": 37.7333, "longitude": 68.7667, "population": 18281}, {"name": "Nijoní", "country_iso2": "TJ", "state": "Sughd", "is_capital": false, "latitude": 39.9667, "longitude": 68.9167, "population": 10350}, {"name": "Norak", "country_iso2": "TJ", "state": "Khatlon", "is_capital": false, "latitude": 38.3833, "longitude": 69.3167, "population": 61500}, {"name": "Obburdon", "country_iso2": "TJ", "state": "Sughd", "is_capital": false, "latitude": 40.4278, "longitude": 69.3047, "population": 37104}, {"name": "Obikiik", "country_iso2": "TJ", "state": "Khatlon", "is_capital": false, "latitude": 38.1586, "longitude": 68.6722, "population": 12300}, {"name": "Oshoba", "country_iso2": "TJ", "state": "Sughd", "is_capital": false, "latitude": 40.7347, "longitude": 70.4417, "population": 21260}, {"name": "Pakhtaobod", "country_iso2": "TJ", "state": "Nohiyahoi Tobei Jumhurí", "is_capital": false, "latitude": 38.4667, "longitude": 68.1333, "population": 9690}, {"name": "Paldorak", "country_iso2": "TJ", "state": "Sughd", "is_capital": false, "latitude": 40.4833, "longitude": 69.3, "population": 20837}, {"name": "Panj", "country_iso2": "TJ", "state": "Khatlon", "is_capital": false, "latitude": 37.2353, "longitude": 69.0972, "population": 12500}, {"name": "Panjakent", "country_iso2": "TJ", "state": "Sughd", "is_capital": false, "latitude": 39.5, "longitude": 67.6167, "population": 303000}, {"name": "Patar", "country_iso2": "TJ", "state": "Sughd", "is_capital": false, "latitude": 40.3333, "longitude": 70.45, "population": 17870}, {"name": "Pongoz", "country_iso2": "TJ", "state": "Sughd", "is_capital": false, "latitude": 40.75, "longitude": 70.25, "population": 28352}, {"name": "Poshkent", "country_iso2": "TJ", "state": "Sughd", "is_capital": false, "latitude": 39.8833, "longitude": 69.0333, "population": 19746}, {"name": "Pushing", "country_iso2": "TJ", "state": "Khatlon", "is_capital": false, "latitude": 38.1833, "longitude": 69.4333, "population": 13293}, {"name": "Qal’acha", "country_iso2": "TJ", "state": "Sughd", "is_capital": false, "latitude": 40.1333, "longitude": 69.6833, "population": 21585}, {"name": "Qaratog", "country_iso2": "TJ", "state": "Nohiyahoi Tobei Jumhurí", "is_capital": false, "latitude": 38.55, "longitude": 68.2833, "population": 37948}, {"name": "Qiblaí", "country_iso2": "TJ", "state": "Nohiyahoi Tobei Jumhurí", "is_capital": false, "latitude": 38.6167, "longitude": 68.8333, "population": 13860}, {"name": "Rabot", "country_iso2": "TJ", "state": "Nohiyahoi Tobei Jumhurí", "is_capital": false, "latitude": 38.6167, "longitude": 68.1833, "population": 13053}, {"name": "Rarz", "country_iso2": "TJ", "state": "Sughd", "is_capital": false, "latitude": 39.3803, "longitude": 68.7442, "population": 8998}, {"name": "Rasht", "country_iso2": "TJ", "state": "Nohiyahoi Tobei Jumhurí", "is_capital": false, "latitude": 39.0167, "longitude": 70.3833, "population": 9800}, {"name": "Roghun", "country_iso2": "TJ", "state": "Nohiyahoi Tobei Jumhurí", "is_capital": false, "latitude": 38.6978, "longitude": 69.7522, "population": 44100}, {"name": "Rokhaty", "country_iso2": "TJ", "state": "Nohiyahoi Tobei Jumhurí", "is_capital": false, "latitude": 38.6, "longitude": 68.9333, "population": 32152}, {"name": "Romit", "country_iso2": "TJ", "state": "Nohiyahoi Tobei Jumhurí", "is_capital": false, "latitude": 38.7167, "longitude": 69.3167, "population": 15440}, {"name": "Sangtŭda", "country_iso2": "TJ", "state": "Khatlon", "is_capital": false, "latitude": 38.0333, "longitude": 69.0833, "population": 12686}, {"name": "Sarikishty", "country_iso2": "TJ", "state": "Nohiyahoi Tobei Jumhurí", "is_capital": false, "latitude": 38.4667, "longitude": 68.7, "population": 38474}, {"name": "Sebiston", "country_iso2": "TJ", "state": "Khatlon", "is_capital": false, "latitude": 38.25, "longitude": 69.2833, "population": 12736}, {"name": "Seshambe", "country_iso2": "TJ", "state": "Nohiyahoi Tobei Jumhurí", "is_capital": false, "latitude": 38.5333, "longitude": 68.25, "population": 15197}, {"name": "Shahrinav", "country_iso2": "TJ", "state": "Nohiyahoi Tobei Jumhurí", "is_capital": false, "latitude": 38.5667, "longitude": 68.3333, "population": 11123}, {"name": "Shahriston", "country_iso2": "TJ", "state": "Sughd", "is_capital": false, "latitude": 39.7667, "longitude": 68.8167, "population": 22903}, {"name": "Shahritus", "country_iso2": "TJ", "state": "Khatlon", "is_capital": false, "latitude": 37.2667, "longitude": 68.1333, "population": 17200}, {"name": "Shing", "country_iso2": "TJ", "state": "Sughd", "is_capital": false, "latitude": 39.2833, "longitude": 67.8, "population": 10873}, {"name": "Shŭrobod", "country_iso2": "TJ", "state": "Khatlon", "is_capital": false, "latitude": 37.8403, "longitude": 70.0419, "population": 10700}, {"name": "Simiganj", "country_iso2": "TJ", "state": "Nohiyahoi Tobei Jumhurí", "is_capital": false, "latitude": 38.6525, "longitude": 69.0064, "population": 35473}, {"name": "Somoniyon", "country_iso2": "TJ", "state": "Nohiyahoi Tobei Jumhurí", "is_capital": false, "latitude": 38.4422, "longitude": 68.7769, "population": 25200}, {"name": "Sujina", "country_iso2": "TJ", "state": "Sughd", "is_capital": false, "latitude": 39.4833, "longitude": 67.7167, "population": 16543}, {"name": "Sultonobod", "country_iso2": "TJ", "state": "Nohiyahoi Tobei Jumhurí", "is_capital": false, "latitude": 38.45, "longitude": 68.95, "population": 16066}, {"name": "Tursunzoda", "country_iso2": "TJ", "state": "Nohiyahoi Tobei Jumhurí", "is_capital": false, "latitude": 38.5108, "longitude": 68.2303, "population": 298800}, {"name": "Vahdat", "country_iso2": "TJ", "state": "Nohiyahoi Tobei Jumhurí", "is_capital": false, "latitude": 38.5531, "longitude": 69.0206, "population": 342700}, {"name": "Vakhsh", "country_iso2": "TJ", "state": "Khatlon", "is_capital": false, "latitude": 37.7108, "longitude": 68.8311, "population": 14900}, {"name": "Vanj", "country_iso2": "TJ", "state": "Kŭhistoni Badakhshon", "is_capital": false, "latitude": 38.3731, "longitude": 71.4553, "population": 11217}, {"name": "Varzobkala", "country_iso2": "TJ", "state": "Nohiyahoi Tobei Jumhurí", "is_capital": false, "latitude": 38.7667, "longitude": 68.8167, "population": 11438}, {"name": "Yovon", "country_iso2": "TJ", "state": "Khatlon", "is_capital": false, "latitude": 38.3167, "longitude": 69.05, "population": 36700}, {"name": "Zargar", "country_iso2": "TJ", "state": "Khatlon", "is_capital": false, "latitude": 37.8, "longitude": 68.65, "population": 49235}, {"name": "Ėsanboy", "country_iso2": "TJ", "state": "Nohiyahoi Tobei Jumhurí", "is_capital": false, "latitude": 38.0833, "longitude": 68.3833, "population": 20072}]