[{"name": "Aileu", "country_iso2": "TL", "state": "Aileu", "is_capital": true, "latitude": -8.7281, "longitude": 125.5664, "population": null}, {"name": "Ainaro", "country_iso2": "TL", "state": "Ainaro", "is_capital": true, "latitude": -8.9969, "longitude": 125.505, "population": 3085}, {"name": "Baucau", "country_iso2": "TL", "state": "Baucau", "is_capital": true, "latitude": -8.4757, "longitude": 126.4563, "population": 14961}, {"name": "Dili", "country_iso2": "TL", "state": "Díli", "is_capital": true, "latitude": -8.5594, "longitude": 125.5795, "population": 222323}, {"name": "Gleno", "country_iso2": "TL", "state": "Ermera", "is_capital": true, "latitude": -8.7239, "longitude": 125.4361, "population": 8133}, {"name": "Liquiçá", "country_iso2": "TL", "state": "Likisá", "is_capital": true, "latitude": -8.5875, "longitude": 125.3419, "population": 5152}, {"name": "Lospalos", "country_iso2": "TL", "state": "Lautém", "is_capital": true, "latitude": -8.5217, "longitude": 126.9983, "population": null}, {"name": "Maliana", "country_iso2": "TL", "state": "Bobonaro", "is_capital": true, "latitude": -8.9917, "longitude": 125.2197, "population": 15800}, {"name": "Manatuto", "country_iso2": "TL", "state": "Manatuto", "is_capital": true, "latitude": -8.5114, "longitude": 126.0131, "population": 9022}, {"name": "Pante Macassar", "country_iso2": "TL", "state": "Oé-Cusse Ambeno", "is_capital": true, "latitude": -9.2, "longitude": 124.3833, "population": null}, {"name": "Same", "country_iso2": "TL", "state": "Manufahi", "is_capital": true, "latitude": -9.0042, "longitude": 125.6486, "population": 2100}, {"name": "Suai", "country_iso2": "TL", "state": "Kovalima", "is_capital": true, "latitude": -9.3129, "longitude": 125.2565, "population": null}, {"name": "Viqueque", "country_iso2": "TL", "state": "Viqueque", "is_capital": true, "latitude": -8.8575, "longitude": 126.3647, "population": 6078}]