[{"name": "Arusha", "country_iso2": "TZ", "state": "Arusha", "is_capital": true, "latitude": -3.3667, "longitude": 36.6833, "population": 617631}, {"name": "Babati", "country_iso2": "TZ", "state": "Manyara", "is_capital": true, "latitude": -4.2167, "longitude": 35.75, "population": 67445}, {"name": "Bagamoyo", "country_iso2": "TZ", "state": "Coast", "is_capital": false, "latitude": -6.4444, "longitude": 38.9028, "population": 82578}, {"name": "Bariadi", "country_iso2": "TZ", "state": "Simiyu", "is_capital": true, "latitude": -2.7919, "longitude": 33.9894, "population": 260927}, {"name": "Biharamulo", "country_iso2": "TZ", "state": "Kagera", "is_capital": false, "latitude": -2.6333, "longitude": 31.3167, "population": 24573}, {"name": "Bububu", "country_iso2": "TZ", "state": "Zanzibar Urban/West", "is_capital": false, "latitude": -6.1, "longitude": 39.2167, "population": 15666}, {"name": "Bukoba", "country_iso2": "TZ", "state": "Kagera", "is_capital": true, "latitude": -1.3333, "longitude": 31.8167, "population": 144938}, {"name": "Butiama", "country_iso2": "TZ", "state": "Mara", "is_capital": false, "latitude": -1.7667, "longitude": 33.9667, "population": 15383}, {"name": "Chake Chake", "country_iso2": "TZ", "state": "Pemba South", "is_capital": true, "latitude": -5.2395, "longitude": 39.77, "population": 49959}, {"name": "Chato", "country_iso2": "TZ", "state": "Geita", "is_capital": false, "latitude": -2.6378, "longitude": 31.7669, "population": 27776}, {"name": "Dar es Salaam", "country_iso2": "TZ", "state": "Dar es Salaam", "is_capital": true, "latitude": -6.8161, "longitude": 39.2803, "population": 7962000}, {"name": "Dodoma", "country_iso2": "TZ", "state": "Dodoma", "is_capital": true, "latitude": -6.1731, "longitude": 35.7419, "population": 765179}, {"name": "Geiro", "country_iso2": "TZ", "state": "Morogoro", "is_capital": false, "latitude": -6.1428, "longitude": 36.8694, "population": 33209}, {"name": "Geita", "country_iso2": "TZ", "state": "Geita", "is_capital": true, "latitude": -2.8714, "longitude": 32.2294, "population": 361671}, {"name": "Handeni", "country_iso2": "TZ", "state": "Tanga", "is_capital": false, "latitude": -5.4242, "longitude": 38.0194, "population": 108968}, {"name": "Ifakara", "country_iso2": "TZ", "state": "Morogoro", "is_capital": false, "latitude": -8.1, "longitude": 36.6833, "population": 205843}, {"name": "Ihumwa", "country_iso2": "TZ", "state": "Dodoma", "is_capital": false, "latitude": -6.1667, "longitude": 35.8833, "population": 11490}, {"name": "Iringa", "country_iso2": "TZ", "state": "Iringa", "is_capital": true, "latitude": -7.77, "longitude": 35.69, "population": 202490}, {"name": "Itigi", "country_iso2": "TZ", "state": "Singida", "is_capital": false, "latitude": -5.7, "longitude": 34.4833, "population": 24000}, {"name": "Kabanga", "country_iso2": "TZ", "state": "Kigoma", "is_capital": false, "latitude": -2.9022, "longitude": 30.4986, "population": 24979}, {"name": "Kahama", "country_iso2": "TZ", "state": "Shinyanga", "is_capital": false, "latitude": -3.8375, "longitude": 32.6, "population": 453654}, {"name": "Kakonko", "country_iso2": "TZ", "state": "Kigoma", "is_capital": false, "latitude": -3.2796, "longitude": 30.96, "population": 24688}, {"name": "Kanyato", "country_iso2": "TZ", "state": "Kigoma", "is_capital": false, "latitude": -4.4565, "longitude": 30.2614, "population": 232}, {"name": "Karema", "country_iso2": "TZ", "state": "Katavi", "is_capital": false, "latitude": -6.8205, "longitude": 30.4389, "population": 16385}, {"name": "Kashasha", "country_iso2": "TZ", "state": "Kagera", "is_capital": false, "latitude": -1.7578, "longitude": 31.6158, "population": 12508}, {"name": "Kasulu", "country_iso2": "TZ", "state": "Kigoma", "is_capital": false, "latitude": -4.58, "longitude": 30.1, "population": 238321}, {"name": "Keza", "country_iso2": "TZ", "state": "Kagera", "is_capital": false, "latitude": -2.754, "longitude": 30.682, "population": 10810}, {"name": "Kibaha", "country_iso2": "TZ", "state": "Coast", "is_capital": true, "latitude": -6.7667, "longitude": 38.9167, "population": 265360}, {"name": "Kibaya", "country_iso2": "TZ", "state": "Manyara", "is_capital": false, "latitude": -5.3014, "longitude": 36.5825, "population": 8759}, {"name": "Kibiti", "country_iso2": "TZ", "state": "Coast", "is_capital": false, "latitude": -7.7296, "longitude": 38.95, "population": 30163}, {"name": "Kigoma", "country_iso2": "TZ", "state": "Kigoma", "is_capital": true, "latitude": -4.8833, "longitude": 29.6333, "population": 232388}, {"name": "Kilindoni", "country_iso2": "TZ", "state": "Coast", "is_capital": false, "latitude": -7.9167, "longitude": 39.65, "population": 23426}, {"name": "Kilosa", "country_iso2": "TZ", "state": "Morogoro", "is_capital": false, "latitude": -6.83, "longitude": 36.9875, "population": 43418}, {"name": "Kipili", "country_iso2": "TZ", "state": "Rukwa", "is_capital": false, "latitude": -7.4329, "longitude": 30.6, "population": 1533}, {"name": "Kisarawe", "country_iso2": "TZ", "state": "Coast", "is_capital": false, "latitude": -7.2622, "longitude": 38.7367, "population": 159226}, {"name": "Koani", "country_iso2": "TZ", "state": "Zanzibar Central/South", "is_capital": true, "latitude": -6.1333, "longitude": 39.2833, "population": null}, {"name": "Korogwe", "country_iso2": "TZ", "state": "Tanga", "is_capital": false, "latitude": -5.1558, "longitude": 38.4503, "population": 62032}, {"name": "Lindi", "country_iso2": "TZ", "state": "Lindi", "is_capital": true, "latitude": -9.9969, "longitude": 39.7144, "population": 95096}, {"name": "Lushoto", "country_iso2": "TZ", "state": "Tanga", "is_capital": false, "latitude": -4.7928, "longitude": 38.2911, "population": 34000}, {"name": "Magu", "country_iso2": "TZ", "state": "Mwanza", "is_capital": false, "latitude": -2.5833, "longitude": 33.4333, "population": 35000}, {"name": "Mahonda", "country_iso2": "TZ", "state": "Zanzibar North", "is_capital": true, "latitude": -5.9897, "longitude": 39.2519, "population": null}, {"name": "Manyoni", "country_iso2": "TZ", "state": "Singida", "is_capital": false, "latitude": -5.75, "longitude": 34.8333, "population": 25505}, {"name": "Masanwa", "country_iso2": "TZ", "state": "Simiyu", "is_capital": false, "latitude": -3.1833, "longitude": 33.7833, "population": 28000}, {"name": "Masasi", "country_iso2": "TZ", "state": "Mtwara", "is_capital": false, "latitude": -10.7296, "longitude": 38.7999, "population": 36032}, {"name": "Mazinde", "country_iso2": "TZ", "state": "Tanga", "is_capital": false, "latitude": -4.8073, "longitude": 38.2118, "population": 13458}, {"name": "Mbamba Bay", "country_iso2": "TZ", "state": "Ruvuma", "is_capital": false, "latitude": -11.2833, "longitude": 34.7717, "population": 8997}, {"name": "Mbeya", "country_iso2": "TZ", "state": "Mbeya", "is_capital": true, "latitude": -8.9, "longitude": 33.45, "population": 541603}, {"name": "Mbulu", "country_iso2": "TZ", "state": "Manyara", "is_capital": false, "latitude": -3.85, "longitude": 35.55, "population": 45384}, {"name": "Mikumi", "country_iso2": "TZ", "state": "Morogoro", "is_capital": false, "latitude": -7.4072, "longitude": 36.9722, "population": 20000}, {"name": "Misungwi", "country_iso2": "TZ", "state": "Mwanza", "is_capital": false, "latitude": -2.85, "longitude": 33.0833, "population": 34612}, {"name": "Mkokotoni", "country_iso2": "TZ", "state": "Zanzibar North", "is_capital": false, "latitude": -5.88, "longitude": 39.2731, "population": 2572}, {"name": "Mlimba", "country_iso2": "TZ", "state": "Morogoro", "is_capital": false, "latitude": -8.7786, "longitude": 35.8111, "population": 34970}, {"name": "Morogoro", "country_iso2": "TZ", "state": "Morogoro", "is_capital": true, "latitude": -6.8242, "longitude": 37.6633, "population": 471409}, {"name": "Moshi", "country_iso2": "TZ", "state": "Kilimanjaro", "is_capital": true, "latitude": -3.3349, "longitude": 37.3404, "population": 201150}, {"name": "Mpanda", "country_iso2": "TZ", "state": "Katavi", "is_capital": true, "latitude": -6.35, "longitude": 31.0667, "population": 204338}, {"name": "Mpwapwa", "country_iso2": "TZ", "state": "Dodoma", "is_capital": false, "latitude": -6.35, "longitude": 36.4833, "population": 30000}, {"name": "Msata", "country_iso2": "TZ", "state": "Coast", "is_capital": false, "latitude": -6.3362, "longitude": 38.385, "population": 13740}, {"name": "Msoga", "country_iso2": "TZ", "state": "Coast", "is_capital": false, "latitude": -6.5667, "longitude": 38.3, "population": 10144}, {"name": "Mtwara", "country_iso2": "TZ", "state": "Mtwara", "is_capital": true, "latitude": -10.2736, "longitude": 40.1828, "population": 140793}, {"name": "Mugumu", "country_iso2": "TZ", "state": "Mara", "is_capital": false, "latitude": -1.8333, "longitude": 34.6667, "population": 36000}, {"name": "Muheza", "country_iso2": "TZ", "state": "Tanga", "is_capital": false, "latitude": -5.1739, "longitude": 38.7875, "population": 20000}, {"name": "Musoma", "country_iso2": "TZ", "state": "Mara", "is_capital": true, "latitude": -1.5, "longitude": 33.8, "population": 164172}, {"name": "Mwanza", "country_iso2": "TZ", "state": "Mwanza", "is_capital": true, "latitude": -2.5167, "longitude": 32.9, "population": 1104521}, {"name": "Mwaya", "country_iso2": "TZ", "state": "Mbeya", "is_capital": false, "latitude": -9.4917, "longitude": 34.0333, "population": 10304}, {"name": "Nansio", "country_iso2": "TZ", "state": "Mara", "is_capital": false, "latitude": -2.1078, "longitude": 33.0864, "population": 8644}, {"name": "Ngara", "country_iso2": "TZ", "state": "Kagera", "is_capital": false, "latitude": -2.5122, "longitude": 30.6558, "population": 16890}, {"name": "Ngerengere", "country_iso2": "TZ", "state": "Morogoro", "is_capital": false, "latitude": -6.75, "longitude": 38.1167, "population": 11780}, {"name": "Ngorongoro", "country_iso2": "TZ", "state": "Arusha", "is_capital": false, "latitude": -3.2496, "longitude": 35.52, "population": 10836}, {"name": "Ngudu", "country_iso2": "TZ", "state": "Mwanza", "is_capital": false, "latitude": -2.9667, "longitude": 33.3333, "population": 31123}, {"name": "Njombe", "country_iso2": "TZ", "state": "Njombe", "is_capital": true, "latitude": -9.3333, "longitude": 34.7667, "population": 40607}, {"name": "Nyahanga", "country_iso2": "TZ", "state": "Simiyu", "is_capital": false, "latitude": -2.3829, "longitude": 33.55, "population": 16092}, {"name": "Nzega", "country_iso2": "TZ", "state": "Tabora", "is_capital": false, "latitude": -4.2169, "longitude": 33.1864, "population": 125193}, {"name": "Oldeani", "country_iso2": "TZ", "state": "Arusha", "is_capital": false, "latitude": -3.3496, "longitude": 35.55, "population": 8000}, {"name": "Rubeho", "country_iso2": "TZ", "state": "Morogoro", "is_capital": false, "latitude": -6.2578, "longitude": 36.8653, "population": 17020}, {"name": "Rudewa", "country_iso2": "TZ", "state": "Njombe", "is_capital": false, "latitude": -10.1008, "longitude": 34.6836, "population": 8747}, {"name": "Same", "country_iso2": "TZ", "state": "Kilimanjaro", "is_capital": false, "latitude": -4.0667, "longitude": 37.7833, "population": 34322}, {"name": "Shinyanga", "country_iso2": "TZ", "state": "Shinyanga", "is_capital": true, "latitude": -3.6619, "longitude": 33.4231, "population": 139727}, {"name": "Sikonge", "country_iso2": "TZ", "state": "Tabora", "is_capital": false, "latitude": -5.6333, "longitude": 32.7667, "population": 27113}, {"name": "Singida", "country_iso2": "TZ", "state": "Singida", "is_capital": true, "latitude": -4.8167, "longitude": 34.75, "population": 232459}, {"name": "Sirari", "country_iso2": "TZ", "state": "Mara", "is_capital": false, "latitude": -1.2244, "longitude": 34.4383, "population": 17564}, {"name": "Songea", "country_iso2": "TZ", "state": "Ruvuma", "is_capital": true, "latitude": -10.6833, "longitude": 35.65, "population": 286285}, {"name": "Sumbawanga", "country_iso2": "TZ", "state": "Rukwa", "is_capital": true, "latitude": -7.9667, "longitude": 31.6167, "population": 303986}, {"name": "Tabora", "country_iso2": "TZ", "state": "Tabora", "is_capital": true, "latitude": -5.0167, "longitude": 32.8, "population": 308741}, {"name": "Tanga", "country_iso2": "TZ", "state": "Tanga", "is_capital": true, "latitude": -5.0742, "longitude": 39.0992, "population": 393429}, {"name": "Tarime", "country_iso2": "TZ", "state": "Mara", "is_capital": false, "latitude": -1.35, "longitude": 34.3833, "population": 133043}, {"name": "Tukuyu", "country_iso2": "TZ", "state": "Mbeya", "is_capital": false, "latitude": -9.25, "longitude": 33.65, "population": 50000}, {"name": "Tunduma", "country_iso2": "TZ", "state": "Mbeya", "is_capital": false, "latitude": -9.3, "longitude": 32.7667, "population": 36556}, {"name": "Tunduru", "country_iso2": "TZ", "state": "Ruvuma", "is_capital": false, "latitude": -11.0667, "longitude": 37.35, "population": 48000}, {"name": "Ubungo", "country_iso2": "TZ", "state": "Dar es Salaam", "is_capital": false, "latitude": -6.7889, "longitude": 39.2056, "population": 1086912}, {"name": "Uvinza", "country_iso2": "TZ", "state": "Kigoma", "is_capital": false, "latitude": -5.1069, "longitude": 30.3839, "population": 387442}, {"name": "Vwawa", "country_iso2": "TZ", "state": "Songwe", "is_capital": true, "latitude": -9.1081, "longitude": 32.9347, "population": null}, {"name": "Wete", "country_iso2": "TZ", "state": "Pemba North", "is_capital": true, "latitude": -5.0567, "longitude": 39.7281, "population": 26450}, {"name": "Zanzibar", "country_iso2": "TZ", "state": "Zanzibar Urban/West", "is_capital": true, "latitude": -6.165, "longitude": 39.199, "population": 219007}]