[{"name": "Alushta", "country_iso2": "UA", "state": "Krym, Avtonomna Respublika", "is_capital": false, "latitude": 44.6672, "longitude": 34.3978, "population": 29078}, {"name": "Amvrosiivka", "country_iso2": "UA", "state": "Donetska Oblast", "is_capital": false, "latitude": 47.7833, "longitude": 38.4833, "population": 17998}, {"name": "Antonivka", "country_iso2": "UA", "state": "Khersonska Oblast", "is_capital": false, "latitude": 46.6808, "longitude": 32.7358, "population": 12619}, {"name": "Antratsyt", "country_iso2": "UA", "state": "Luhanska Oblast", "is_capital": false, "latitude": 48.1192, "longitude": 39.09, "population": 52150}, {"name": "Apostolove", "country_iso2": "UA", "state": "Dnipropetrovska Oblast", "is_capital": false, "latitude": 47.6594, "longitude": 33.7167, "population": 16356}, {"name": "Armiansk", "country_iso2": "UA", "state": "Krym, Avtonomna Respublika", "is_capital": false, "latitude": 46.1074, "longitude": 33.6919, "population": 24415}, {"name": "Artsyz", "country_iso2": "UA", "state": "Odeska Oblast", "is_capital": false, "latitude": 45.9944, "longitude": 29.4322, "population": 14355}, {"name": "Bakhchysarai", "country_iso2": "UA", "state": "Krym, Avtonomna Respublika", "is_capital": false, "latitude": 44.7528, "longitude": 33.8608, "population": 27448}, {"name": "Bakhmach", "country_iso2": "UA", "state": "Chernihivska Oblast", "is_capital": false, "latitude": 51.1831, "longitude": 32.8297, "population": 16862}, {"name": "Bakhmut", "country_iso2": "UA", "state": "Donetska Oblast", "is_capital": false, "latitude": 48.5947, "longitude": 38.0008, "population": 71094}, {"name": "Balakliia", "country_iso2": "UA", "state": "Kharkivska Oblast", "is_capital": false, "latitude": 49.4658, "longitude": 36.8678, "population": 26334}, {"name": "Balta", "country_iso2": "UA", "state": "Odeska Oblast", "is_capital": false, "latitude": 47.94, "longitude": 29.6219, "population": 17854}, {"name": "Bar", "country_iso2": "UA", "state": "Vinnytska Oblast", "is_capital": false, "latitude": 49.075, "longitude": 27.6761, "population": 15337}, {"name": "Baranivka", "country_iso2": "UA", "state": "Zhytomyrska Oblast", "is_capital": false, "latitude": 50.3, "longitude": 27.6667, "population": 11161}, {"name": "Baryshivka", "country_iso2": "UA", "state": "Kyivska Oblast", "is_capital": false, "latitude": 50.3539, "longitude": 31.3167, "population": 11178}, {"name": "Bashtanka", "country_iso2": "UA", "state": "Mykolaivska Oblast", "is_capital": false, "latitude": 47.4056, "longitude": 32.4375, "population": 12180}, {"name": "Bazal’tove", "country_iso2": "UA", "state": "Rivnenska Oblast", "is_capital": false, "latitude": 50.6765, "longitude": 26.16, "population": 625543}, {"name": "Berdiansk", "country_iso2": "UA", "state": "Zaporizka Oblast", "is_capital": false, "latitude": 46.7556, "longitude": 36.7889, "population": 106311}, {"name": "Berdychiv", "country_iso2": "UA", "state": "Zhytomyrska Oblast", "is_capital": false, "latitude": 49.9, "longitude": 28.5667, "population": 73046}, {"name": "Berehove", "country_iso2": "UA", "state": "Zakarpatska Oblast", "is_capital": false, "latitude": 48.2056, "longitude": 22.6472, "population": 23325}, {"name": "Berezan", "country_iso2": "UA", "state": "Kyivska Oblast", "is_capital": false, "latitude": 50.3197, "longitude": 31.47, "population": 16047}, {"name": "Berezhany", "country_iso2": "UA", "state": "Ternopilska Oblast", "is_capital": false, "latitude": 49.4458, "longitude": 24.9361, "population": 17139}, {"name": "Berezivka", "country_iso2": "UA", "state": "Odeska Oblast", "is_capital": false, "latitude": 47.2039, "longitude": 30.9128, "population": 9428}, {"name": "Berezne", "country_iso2": "UA", "state": "Rivnenska Oblast", "is_capital": false, "latitude": 50.9967, "longitude": 26.7394, "population": 13126}, {"name": "Bershad", "country_iso2": "UA", "state": "Vinnytska Oblast", "is_capital": false, "latitude": 48.3728, "longitude": 29.5325, "population": 11742}, {"name": "Beryslav", "country_iso2": "UA", "state": "Khersonska Oblast", "is_capital": false, "latitude": 46.8333, "longitude": 33.4167, "population": 11895}, {"name": "Bezliudivka", "country_iso2": "UA", "state": "Kharkivska Oblast", "is_capital": false, "latitude": 49.8692, "longitude": 36.2697, "population": 9135}, {"name": "Bila Tserkva", "country_iso2": "UA", "state": "Kyivska Oblast", "is_capital": false, "latitude": 49.7989, "longitude": 30.1153, "population": 207273}, {"name": "Bilenke", "country_iso2": "UA", "state": "Donetska Oblast", "is_capital": false, "latitude": 48.7664, "longitude": 37.6314, "population": 9441}, {"name": "Bilhorod-Dnistrovskyi", "country_iso2": "UA", "state": "Odeska Oblast", "is_capital": false, "latitude": 46.1833, "longitude": 30.35, "population": 47727}, {"name": "Biliaivka", "country_iso2": "UA", "state": "Odeska Oblast", "is_capital": false, "latitude": 46.0, "longitude": 28.0, "population": 12355}, {"name": "Bilohirsk", "country_iso2": "UA", "state": "Krym, Avtonomna Respublika", "is_capital": false, "latitude": 45.0544, "longitude": 34.6022, "population": 16354}, {"name": "Bilohorodka", "country_iso2": "UA", "state": "Kyivska Oblast", "is_capital": false, "latitude": 50.3942, "longitude": 30.2314, "population": 21367}, {"name": "Bilopillya", "country_iso2": "UA", "state": "Sumska Oblast", "is_capital": false, "latitude": 51.1458, "longitude": 34.3117, "population": 15600}, {"name": "Bilozerka", "country_iso2": "UA", "state": "Khersonska Oblast", "is_capital": false, "latitude": 46.6278, "longitude": 32.4431, "population": 9258}, {"name": "Bilozerske", "country_iso2": "UA", "state": "Donetska Oblast", "is_capital": false, "latitude": 48.8667, "longitude": 37.1333, "population": 14634}, {"name": "Biloziria", "country_iso2": "UA", "state": "Cherkaska Oblast", "is_capital": false, "latitude": 49.3053, "longitude": 31.8922, "population": 8506}, {"name": "Bobrovytsia", "country_iso2": "UA", "state": "Chernihivska Oblast", "is_capital": false, "latitude": 50.745, "longitude": 31.3869, "population": 10541}, {"name": "Bobrynets", "country_iso2": "UA", "state": "Kirovohradska Oblast", "is_capital": false, "latitude": 48.0578, "longitude": 32.1581, "population": 10396}, {"name": "Bohodukhiv", "country_iso2": "UA", "state": "Kharkivska Oblast", "is_capital": false, "latitude": 50.1617, "longitude": 35.5256, "population": 14624}, {"name": "Bolekhiv", "country_iso2": "UA", "state": "Ivano-Frankivska Oblast", "is_capital": false, "latitude": 49.0669, "longitude": 23.8514, "population": 10259}, {"name": "Bolhrad", "country_iso2": "UA", "state": "Odeska Oblast", "is_capital": false, "latitude": 45.6672, "longitude": 28.6128, "population": 14818}, {"name": "Borodyanka", "country_iso2": "UA", "state": "Kyivska Oblast", "is_capital": false, "latitude": 50.6439, "longitude": 29.9339, "population": 12535}, {"name": "Borshchiv", "country_iso2": "UA", "state": "Ternopilska Oblast", "is_capital": false, "latitude": 48.8028, "longitude": 26.0364, "population": 10632}, {"name": "Boryslav", "country_iso2": "UA", "state": "Lvivska Oblast", "is_capital": false, "latitude": 49.2892, "longitude": 23.4189, "population": 32473}, {"name": "Boryspil", "country_iso2": "UA", "state": "Kyivska Oblast", "is_capital": false, "latitude": 50.35, "longitude": 30.95, "population": 64117}, {"name": "Borzna", "country_iso2": "UA", "state": "Chernihivska Oblast", "is_capital": false, "latitude": 51.2531, "longitude": 32.4292, "population": 9454}, {"name": "Boyarka", "country_iso2": "UA", "state": "Kyivska Oblast", "is_capital": false, "latitude": 50.3292, "longitude": 30.2886, "population": 34394}, {"name": "Brianka", "country_iso2": "UA", "state": "Luhanska Oblast", "is_capital": false, "latitude": 48.5133, "longitude": 38.6431, "population": 44760}, {"name": "Brody", "country_iso2": "UA", "state": "Lvivska Oblast", "is_capital": false, "latitude": 50.0831, "longitude": 25.1477, "population": 23134}, {"name": "Brovary", "country_iso2": "UA", "state": "Kyivska Oblast", "is_capital": false, "latitude": 50.5111, "longitude": 30.79, "population": 109806}, {"name": "Bucha", "country_iso2": "UA", "state": "Kyivska Oblast", "is_capital": false, "latitude": 50.5464, "longitude": 30.235, "population": 37321}, {"name": "Buchach", "country_iso2": "UA", "state": "Ternopilska Oblast", "is_capital": false, "latitude": 49.0833, "longitude": 25.4, "population": 12171}, {"name": "Bunhe", "country_iso2": "UA", "state": "Donetska Oblast", "is_capital": false, "latitude": 48.2206, "longitude": 38.2739, "population": 13495}, {"name": "Burshtyn", "country_iso2": "UA", "state": "Ivano-Frankivska Oblast", "is_capital": false, "latitude": 49.2583, "longitude": 24.6278, "population": 14737}, {"name": "Busk", "country_iso2": "UA", "state": "Lvivska Oblast", "is_capital": false, "latitude": 49.9667, "longitude": 24.6333, "population": 8662}, {"name": "Chaplynka", "country_iso2": "UA", "state": "Khersonska Oblast", "is_capital": false, "latitude": 46.3644, "longitude": 33.5331, "population": 9415}, {"name": "Chasiv Yar", "country_iso2": "UA", "state": "Donetska Oblast", "is_capital": false, "latitude": 48.5884, "longitude": 37.8359, "population": 12250}, {"name": "Cherkasy", "country_iso2": "UA", "state": "Cherkaska Oblast", "is_capital": true, "latitude": 49.4444, "longitude": 32.0597, "population": 269836}, {"name": "Cherniakhiv", "country_iso2": "UA", "state": "Zhytomyrska Oblast", "is_capital": false, "latitude": 50.455, "longitude": 28.6653, "population": 9132}, {"name": "Chernihiv", "country_iso2": "UA", "state": "Chernihivska Oblast", "is_capital": true, "latitude": 51.4939, "longitude": 31.2947, "population": 282747}, {"name": "Chernivtsi", "country_iso2": "UA", "state": "Chernivetska Oblast", "is_capital": true, "latitude": 48.3, "longitude": 25.9333, "population": 264298}, {"name": "Chervonohrad", "country_iso2": "UA", "state": "Lvivska Oblast", "is_capital": false, "latitude": 50.3867, "longitude": 24.2289, "population": 64297}, {"name": "Chervonopartyzansk", "country_iso2": "UA", "state": "Luhanska Oblast", "is_capital": false, "latitude": 48.0833, "longitude": 39.7833, "population": 15218}, {"name": "Chop", "country_iso2": "UA", "state": "Zakarpatska Oblast", "is_capital": false, "latitude": 48.4333, "longitude": 22.2, "population": 8626}, {"name": "Chornobaivka", "country_iso2": "UA", "state": "Khersonska Oblast", "is_capital": false, "latitude": 46.7006, "longitude": 32.5478, "population": 9275}, {"name": "Chornomorsk", "country_iso2": "UA", "state": "Odeska Oblast", "is_capital": false, "latitude": 46.0, "longitude": 18.0, "population": 57983}, {"name": "Chornomorske", "country_iso2": "UA", "state": "Krym, Avtonomna Respublika", "is_capital": false, "latitude": 45.5019, "longitude": 32.7025, "population": 11267}, {"name": "Chortkiv", "country_iso2": "UA", "state": "Ternopilska Oblast", "is_capital": false, "latitude": 49.0075, "longitude": 25.7906, "population": 28279}, {"name": "Chuhuiv", "country_iso2": "UA", "state": "Kharkivska Oblast", "is_capital": false, "latitude": 49.8356, "longitude": 36.6864, "population": 31018}, {"name": "Chyhyryn", "country_iso2": "UA", "state": "Cherkaska Oblast", "is_capital": false, "latitude": 49.0772, "longitude": 32.6492, "population": 8539}, {"name": "Chystiakove", "country_iso2": "UA", "state": "Donetska Oblast", "is_capital": false, "latitude": 48.0219, "longitude": 38.6264, "population": 53462}, {"name": "Dachne", "country_iso2": "UA", "state": "Odeska Oblast", "is_capital": false, "latitude": 46.5775, "longitude": 30.5489, "population": 11150}, {"name": "Debaltseve", "country_iso2": "UA", "state": "Donetska Oblast", "is_capital": false, "latitude": 48.3333, "longitude": 38.4, "population": 24209}, {"name": "Derazhnia", "country_iso2": "UA", "state": "Khmelnytska Oblast", "is_capital": false, "latitude": 49.2667, "longitude": 27.4333, "population": 9772}, {"name": "Derhachi", "country_iso2": "UA", "state": "Kharkivska Oblast", "is_capital": false, "latitude": 50.1066, "longitude": 36.1211, "population": 17433}, {"name": "Dnipro", "country_iso2": "UA", "state": "Dnipropetrovska Oblast", "is_capital": true, "latitude": 48.4675, "longitude": 35.04, "population": 968502}, {"name": "Dniprorudne", "country_iso2": "UA", "state": "Zaporizka Oblast", "is_capital": false, "latitude": 47.3863, "longitude": 34.997, "population": 17736}, {"name": "Dobropillia", "country_iso2": "UA", "state": "Donetska Oblast", "is_capital": false, "latitude": 48.4689, "longitude": 37.0828, "population": 28170}, {"name": "Dokuchaievsk", "country_iso2": "UA", "state": "Donetska Oblast", "is_capital": false, "latitude": 47.7519, "longitude": 37.6783, "population": 22835}, {"name": "Dolyna", "country_iso2": "UA", "state": "Ivano-Frankivska Oblast", "is_capital": false, "latitude": 48.9706, "longitude": 24.0111, "population": 20417}, {"name": "Dolynska", "country_iso2": "UA", "state": "Kirovohradska Oblast", "is_capital": false, "latitude": 48.1111, "longitude": 32.7647, "population": 18225}, {"name": "Donetsk", "country_iso2": "UA", "state": "Donetska Oblast", "is_capital": true, "latitude": 48.0028, "longitude": 37.8053, "population": 901645}, {"name": "Dovzhansk", "country_iso2": "UA", "state": "Luhanska Oblast", "is_capital": false, "latitude": 48.0778, "longitude": 39.6472, "population": 62691}, {"name": "Drohobych", "country_iso2": "UA", "state": "Lvivska Oblast", "is_capital": false, "latitude": 49.35, "longitude": 23.5, "population": 73682}, {"name": "Druzhkivka", "country_iso2": "UA", "state": "Donetska Oblast", "is_capital": false, "latitude": 48.6214, "longitude": 37.5278, "population": 53977}, {"name": "Dubliany", "country_iso2": "UA", "state": "Lvivska Oblast", "is_capital": false, "latitude": 49.8961, "longitude": 24.0925, "population": 9748}, {"name": "Dubno", "country_iso2": "UA", "state": "Rivnenska Oblast", "is_capital": false, "latitude": 50.3931, "longitude": 25.735, "population": 36901}, {"name": "Dubrovytsya", "country_iso2": "UA", "state": "Rivnenska Oblast", "is_capital": false, "latitude": 51.5667, "longitude": 26.5667, "population": 9343}, {"name": "Dunaivtsi", "country_iso2": "UA", "state": "Khmelnytska Oblast", "is_capital": false, "latitude": 48.8894, "longitude": 26.8569, "population": 15707}, {"name": "Dymka", "country_iso2": "UA", "state": "Chernivetska Oblast", "is_capital": false, "latitude": 48.0972, "longitude": 25.9753, "population": 9376}, {"name": "Dzhankoi", "country_iso2": "UA", "state": "Krym, Avtonomna Respublika", "is_capital": false, "latitude": 45.7086, "longitude": 34.3933, "population": 38622}, {"name": "Enerhodar", "country_iso2": "UA", "state": "Zaporizka Oblast", "is_capital": false, "latitude": 47.4989, "longitude": 34.6558, "population": 52237}, {"name": "Fastiv", "country_iso2": "UA", "state": "Kyivska Oblast", "is_capital": false, "latitude": 50.0833, "longitude": 29.9167, "population": 44014}, {"name": "Fedosiia", "country_iso2": "UA", "state": "Krym, Avtonomna Respublika", "is_capital": false, "latitude": 45.0342, "longitude": 35.3792, "population": 69145}, {"name": "Hadyach", "country_iso2": "UA", "state": "Poltavska Oblast", "is_capital": false, "latitude": 50.3667, "longitude": 34.0, "population": 22851}, {"name": "Haisyn", "country_iso2": "UA", "state": "Vinnytska Oblast", "is_capital": false, "latitude": 48.8103, "longitude": 29.3842, "population": 25698}, {"name": "Haivoron", "country_iso2": "UA", "state": "Kirovohradska Oblast", "is_capital": false, "latitude": 48.3333, "longitude": 29.8667, "population": 14010}, {"name": "Haspra", "country_iso2": "UA", "state": "Krym, Avtonomna Respublika", "is_capital": false, "latitude": 44.4361, "longitude": 34.1106, "population": 10310}, {"name": "Henichesk", "country_iso2": "UA", "state": "Khersonska Oblast", "is_capital": false, "latitude": 46.1667, "longitude": 34.8, "population": 18889}, {"name": "Hirnyk", "country_iso2": "UA", "state": "Donetska Oblast", "is_capital": false, "latitude": 48.05, "longitude": 37.3667, "population": 10357}, {"name": "Hirske", "country_iso2": "UA", "state": "Luhanska Oblast", "is_capital": false, "latitude": 48.7519, "longitude": 38.495, "population": 9100}, {"name": "Hlevakha", "country_iso2": "UA", "state": "Kyivska Oblast", "is_capital": false, "latitude": 50.2622, "longitude": 30.2894, "population": 8800}, {"name": "Hlobyne", "country_iso2": "UA", "state": "Poltavska Oblast", "is_capital": false, "latitude": 49.3903, "longitude": 33.2503, "population": 8955}, {"name": "Hlukhiv", "country_iso2": "UA", "state": "Sumska Oblast", "is_capital": false, "latitude": 51.6747, "longitude": 33.9133, "population": 31789}, {"name": "Hlyboka", "country_iso2": "UA", "state": "Chernivetska Oblast", "is_capital": false, "latitude": 48.0833, "longitude": 25.9333, "population": 9226}, {"name": "Hnivan", "country_iso2": "UA", "state": "Vinnytska Oblast", "is_capital": false, "latitude": 49.0911, "longitude": 28.3486, "population": 12191}, {"name": "Hola Prystan", "country_iso2": "UA", "state": "Khersonska Oblast", "is_capital": false, "latitude": 46.5167, "longitude": 32.5167, "population": 13544}, {"name": "Holubivske", "country_iso2": "UA", "state": "Luhanska Oblast", "is_capital": false, "latitude": 48.6333, "longitude": 38.65, "population": 26654}, {"name": "Horishni Plavni", "country_iso2": "UA", "state": "Poltavska Oblast", "is_capital": false, "latitude": 49.0167, "longitude": 33.6667, "population": 49854}, {"name": "Horlivka", "country_iso2": "UA", "state": "Donetska Oblast", "is_capital": false, "latitude": 48.3, "longitude": 38.05, "population": 239828}, {"name": "Horodenka", "country_iso2": "UA", "state": "Ivano-Frankivska Oblast", "is_capital": false, "latitude": 48.6675, "longitude": 25.5003, "population": 8812}, {"name": "Horodnia", "country_iso2": "UA", "state": "Chernihivska Oblast", "is_capital": false, "latitude": 51.8931, "longitude": 31.5947, "population": 11506}, {"name": "Horodok", "country_iso2": "UA", "state": "Khmelnytska Oblast", "is_capital": false, "latitude": 49.1667, "longitude": 26.5667, "population": 17746}, {"name": "Horodok", "country_iso2": "UA", "state": "Lvivska Oblast", "is_capital": false, "latitude": 49.7833, "longitude": 23.6444, "population": 16085}, {"name": "Horodyshche", "country_iso2": "UA", "state": "Cherkaska Oblast", "is_capital": false, "latitude": 49.2925, "longitude": 31.4581, "population": 13062}, {"name": "Horokhiv", "country_iso2": "UA", "state": "Volynska Oblast", "is_capital": false, "latitude": 50.4994, "longitude": 24.765, "population": 8925}, {"name": "Hostomel", "country_iso2": "UA", "state": "Kyivska Oblast", "is_capital": false, "latitude": 50.5692, "longitude": 30.2653, "population": 18466}, {"name": "Hrebinka", "country_iso2": "UA", "state": "Poltavska Oblast", "is_capital": false, "latitude": 50.1167, "longitude": 32.4167, "population": 10541}, {"name": "Hurzuf", "country_iso2": "UA", "state": "Krym, Avtonomna Respublika", "is_capital": false, "latitude": 44.5528, "longitude": 34.2875, "population": 8933}, {"name": "Hvardiiske", "country_iso2": "UA", "state": "Krym, Avtonomna Respublika", "is_capital": false, "latitude": 45.1, "longitude": 34.0, "population": 12589}, {"name": "Ichnia", "country_iso2": "UA", "state": "Chernihivska Oblast", "is_capital": false, "latitude": 50.85, "longitude": 32.4, "population": 10390}, {"name": "Ilarionove", "country_iso2": "UA", "state": "Dnipropetrovska Oblast", "is_capital": false, "latitude": 48.4092, "longitude": 35.2753, "population": 8610}, {"name": "Illintsi", "country_iso2": "UA", "state": "Vinnytska Oblast", "is_capital": false, "latitude": 49.1056, "longitude": 29.2089, "population": 11095}, {"name": "Ilovaisk", "country_iso2": "UA", "state": "Donetska Oblast", "is_capital": false, "latitude": 47.926, "longitude": 38.194, "population": 15395}, {"name": "Inkerman", "country_iso2": "UA", "state": "Sevastopol, Misto", "is_capital": false, "latitude": 44.6, "longitude": 33.6, "population": 10348}, {"name": "Irpin", "country_iso2": "UA", "state": "Kyivska Oblast", "is_capital": false, "latitude": 50.5167, "longitude": 30.25, "population": 65167}, {"name": "Irshava", "country_iso2": "UA", "state": "Zakarpatska Oblast", "is_capital": false, "latitude": 48.3, "longitude": 23.05, "population": 9163}, {"name": "Ivankiv", "country_iso2": "UA", "state": "Kyivska Oblast", "is_capital": false, "latitude": 50.9328, "longitude": 29.9047, "population": 10563}, {"name": "Ivano-Frankivsk", "country_iso2": "UA", "state": "Ivano-Frankivska Oblast", "is_capital": true, "latitude": 48.9228, "longitude": 24.7106, "population": 238196}, {"name": "Iziaslav", "country_iso2": "UA", "state": "Khmelnytska Oblast", "is_capital": false, "latitude": 50.1167, "longitude": 26.8, "population": 15996}, {"name": "Izium", "country_iso2": "UA", "state": "Kharkivska Oblast", "is_capital": false, "latitude": 49.2128, "longitude": 37.2569, "population": 44979}, {"name": "Izmail", "country_iso2": "UA", "state": "Odeska Oblast", "is_capital": false, "latitude": 45.3517, "longitude": 28.8364, "population": 69932}, {"name": "Kaharlyk", "country_iso2": "UA", "state": "Kyivska Oblast", "is_capital": false, "latitude": 49.8522, "longitude": 30.8092, "population": 13133}, {"name": "Kakhovka", "country_iso2": "UA", "state": "Khersonska Oblast", "is_capital": false, "latitude": 46.7978, "longitude": 33.475, "population": 34749}, {"name": "Kalanchak", "country_iso2": "UA", "state": "Khersonska Oblast", "is_capital": false, "latitude": 46.2522, "longitude": 33.2906, "population": 8977}, {"name": "Kalmiuske", "country_iso2": "UA", "state": "Donetska Oblast", "is_capital": false, "latitude": 47.6667, "longitude": 38.0667, "population": 11422}, {"name": "Kalush", "country_iso2": "UA", "state": "Ivano-Frankivska Oblast", "is_capital": false, "latitude": 49.0442, "longitude": 24.3597, "population": 65088}, {"name": "Kalynivka", "country_iso2": "UA", "state": "Vinnytska Oblast", "is_capital": false, "latitude": 49.4472, "longitude": 28.5231, "population": 18492}, {"name": "Kamianets-Podilskyi", "country_iso2": "UA", "state": "Khmelnytska Oblast", "is_capital": false, "latitude": 48.6833, "longitude": 26.5833, "population": 96896}, {"name": "Kamianka", "country_iso2": "UA", "state": "Cherkaska Oblast", "is_capital": false, "latitude": 49.0333, "longitude": 32.1, "population": 10945}, {"name": "Kamianka-Buzka", "country_iso2": "UA", "state": "Lvivska Oblast", "is_capital": false, "latitude": 50.1, "longitude": 24.35, "population": 10397}, {"name": "Kamianka-Dniprovska", "country_iso2": "UA", "state": "Zaporizka Oblast", "is_capital": false, "latitude": 47.4628, "longitude": 34.4061, "population": 12117}, {"name": "Kamianske", "country_iso2": "UA", "state": "Dnipropetrovska Oblast", "is_capital": false, "latitude": 48.5167, "longitude": 34.6133, "population": 226845}, {"name": "Kamin-Kashyrskyi", "country_iso2": "UA", "state": "Volynska Oblast", "is_capital": false, "latitude": 51.62, "longitude": 24.9653, "population": 11713}, {"name": "Kaniv", "country_iso2": "UA", "state": "Cherkaska Oblast", "is_capital": false, "latitude": 49.75, "longitude": 31.4667, "population": 23172}, {"name": "Karlivka", "country_iso2": "UA", "state": "Poltavska Oblast", "is_capital": false, "latitude": 49.45, "longitude": 35.1333, "population": 14045}, {"name": "Kerch", "country_iso2": "UA", "state": "Krym, Avtonomna Respublika", "is_capital": false, "latitude": 45.3619, "longitude": 36.4711, "population": 149566}, {"name": "Kharkiv", "country_iso2": "UA", "state": "Kharkivska Oblast", "is_capital": true, "latitude": 49.9925, "longitude": 36.2311, "population": 1421125}, {"name": "Khartsyzk", "country_iso2": "UA", "state": "Donetska Oblast", "is_capital": false, "latitude": 48.0428, "longitude": 38.1425, "population": 56182}, {"name": "Kherson", "country_iso2": "UA", "state": "Khersonska Oblast", "is_capital": true, "latitude": 46.6425, "longitude": 32.625, "population": 279131}, {"name": "Khmelnytskyi", "country_iso2": "UA", "state": "Khmelnytska Oblast", "is_capital": true, "latitude": 49.4167, "longitude": 27.0, "population": 274452}, {"name": "Khmilnyk", "country_iso2": "UA", "state": "Vinnytska Oblast", "is_capital": false, "latitude": 49.5569, "longitude": 27.9572, "population": 26916}, {"name": "Khodoriv", "country_iso2": "UA", "state": "Lvivska Oblast", "is_capital": false, "latitude": 49.4044, "longitude": 24.3122, "population": 8954}, {"name": "Khorol", "country_iso2": "UA", "state": "Poltavska Oblast", "is_capital": false, "latitude": 49.7667, "longitude": 33.2667, "population": 12540}, {"name": "Khotyn", "country_iso2": "UA", "state": "Chernivetska Oblast", "is_capital": false, "latitude": 48.5069, "longitude": 26.4903, "population": 18426}, {"name": "Khrestivka", "country_iso2": "UA", "state": "Donetska Oblast", "is_capital": false, "latitude": 48.1464, "longitude": 38.3606, "population": 27370}, {"name": "Khrustalnyi", "country_iso2": "UA", "state": "Luhanska Oblast", "is_capital": false, "latitude": 48.1333, "longitude": 38.9333, "population": 79533}, {"name": "Khrystynivka", "country_iso2": "UA", "state": "Cherkaska Oblast", "is_capital": false, "latitude": 48.8, "longitude": 29.9667, "population": 9879}, {"name": "Khust", "country_iso2": "UA", "state": "Zakarpatska Oblast", "is_capital": false, "latitude": 48.1814, "longitude": 23.2978, "population": 28039}, {"name": "Kiliia", "country_iso2": "UA", "state": "Odeska Oblast", "is_capital": false, "latitude": 45.45, "longitude": 29.2667, "population": 18745}, {"name": "Kirovsk", "country_iso2": "UA", "state": "Luhanska Oblast", "is_capital": false, "latitude": 48.6375, "longitude": 38.6428, "population": 26654}, {"name": "Kivertsi", "country_iso2": "UA", "state": "Volynska Oblast", "is_capital": false, "latitude": 50.8331, "longitude": 25.4614, "population": 13798}, {"name": "Kivsharivka", "country_iso2": "UA", "state": "Kharkivska Oblast", "is_capital": false, "latitude": 49.6289, "longitude": 37.6831, "population": 17960}, {"name": "Kobeliaky", "country_iso2": "UA", "state": "Poltavska Oblast", "is_capital": false, "latitude": 49.1333, "longitude": 34.2, "population": 9465}, {"name": "Kolomyia", "country_iso2": "UA", "state": "Ivano-Frankivska Oblast", "is_capital": false, "latitude": 48.5306, "longitude": 25.0403, "population": 60821}, {"name": "Konotop", "country_iso2": "UA", "state": "Sumska Oblast", "is_capital": false, "latitude": 51.2167, "longitude": 33.2, "population": 83543}, {"name": "Koriukivka", "country_iso2": "UA", "state": "Chernihivska Oblast", "is_capital": false, "latitude": 51.7833, "longitude": 32.25, "population": 12202}, {"name": "Korolevo", "country_iso2": "UA", "state": "Zakarpatska Oblast", "is_capital": false, "latitude": 48.15, "longitude": 23.1333, "population": 10165}, {"name": "Korosten", "country_iso2": "UA", "state": "Zhytomyrska Oblast", "is_capital": false, "latitude": 50.95, "longitude": 28.6333, "population": 61496}, {"name": "Korostyshiv", "country_iso2": "UA", "state": "Zhytomyrska Oblast", "is_capital": false, "latitude": 50.3167, "longitude": 29.0667, "population": 24129}, {"name": "Korsun-Shevchenkivskyi", "country_iso2": "UA", "state": "Cherkaska Oblast", "is_capital": false, "latitude": 49.4833, "longitude": 31.2833, "population": 17216}, {"name": "Kostiantynivka", "country_iso2": "UA", "state": "Donetska Oblast", "is_capital": false, "latitude": 48.5333, "longitude": 37.7167, "population": 67350}, {"name": "Kostopil", "country_iso2": "UA", "state": "Rivnenska Oblast", "is_capital": false, "latitude": 50.8833, "longitude": 26.45, "population": 30838}, {"name": "Kotelva", "country_iso2": "UA", "state": "Poltavska Oblast", "is_capital": false, "latitude": 50.0, "longitude": 3.0, "population": 11778}, {"name": "Kotsyubyns’ke", "country_iso2": "UA", "state": "Kyiv, Misto", "is_capital": false, "latitude": 50.49, "longitude": 30.3347, "population": 17623}, {"name": "Kovel", "country_iso2": "UA", "state": "Volynska Oblast", "is_capital": false, "latitude": 51.2167, "longitude": 24.7167, "population": 67575}, {"name": "Koziatyn", "country_iso2": "UA", "state": "Vinnytska Oblast", "is_capital": false, "latitude": 49.7167, "longitude": 28.8333, "population": 22241}, {"name": "Kozova", "country_iso2": "UA", "state": "Ternopilska Oblast", "is_capital": false, "latitude": 49.4319, "longitude": 25.1594, "population": 8750}, {"name": "Kramatorsk", "country_iso2": "UA", "state": "Donetska Oblast", "is_capital": false, "latitude": 48.7392, "longitude": 37.5839, "population": 147145}, {"name": "Krasnodon", "country_iso2": "UA", "state": "Luhanska Oblast", "is_capital": false, "latitude": 48.3, "longitude": 39.7333, "population": 42315}, {"name": "Krasnohorivka", "country_iso2": "UA", "state": "Donetska Oblast", "is_capital": false, "latitude": 48.0067, "longitude": 37.5128, "population": 16714}, {"name": "Krasnohrad", "country_iso2": "UA", "state": "Kharkivska Oblast", "is_capital": false, "latitude": 49.3667, "longitude": 35.45, "population": 19674}, {"name": "Krasnoilsk", "country_iso2": "UA", "state": "Chernivetska Oblast", "is_capital": false, "latitude": 48.0147, "longitude": 25.5872, "population": 10444}, {"name": "Krasnyi Luch", "country_iso2": "UA", "state": "Luhanska Oblast", "is_capital": false, "latitude": 48.1333, "longitude": 38.9333, "population": 79533}, {"name": "Krasyliv", "country_iso2": "UA", "state": "Khmelnytska Oblast", "is_capital": false, "latitude": 49.6519, "longitude": 26.9706, "population": 18356}, {"name": "Kremenchuk", "country_iso2": "UA", "state": "Poltavska Oblast", "is_capital": false, "latitude": 49.0631, "longitude": 33.4039, "population": 215271}, {"name": "Kremenets", "country_iso2": "UA", "state": "Ternopilska Oblast", "is_capital": false, "latitude": 50.1081, "longitude": 25.7275, "population": 20476}, {"name": "Kreminna", "country_iso2": "UA", "state": "Luhanska Oblast", "is_capital": false, "latitude": 49.05, "longitude": 38.2167, "population": 18116}, {"name": "Krolevets", "country_iso2": "UA", "state": "Sumska Oblast", "is_capital": false, "latitude": 51.55, "longitude": 33.3833, "population": 22111}, {"name": "Kropyvnytskyi", "country_iso2": "UA", "state": "Kirovohradska Oblast", "is_capital": true, "latitude": 48.5, "longitude": 32.2667, "population": 219676}, {"name": "Krykhivtsi", "country_iso2": "UA", "state": "Ivano-Frankivska Oblast", "is_capital": false, "latitude": 48.9008, "longitude": 24.6662, "population": 11865}, {"name": "Kryvyi Rih", "country_iso2": "UA", "state": "Dnipropetrovska Oblast", "is_capital": false, "latitude": 47.91, "longitude": 33.39, "population": 603904}, {"name": "Kupiansk", "country_iso2": "UA", "state": "Kharkivska Oblast", "is_capital": false, "latitude": 49.7167, "longitude": 37.5833, "population": 26627}, {"name": "Kurman", "country_iso2": "UA", "state": "Krym, Avtonomna Respublika", "is_capital": false, "latitude": 45.4947, "longitude": 34.2947, "population": 11134}, {"name": "Kyiv", "country_iso2": "UA", "state": "Kyiv, Misto", "is_capital": true, "latitude": 50.45, "longitude": 30.5233, "population": 2952301}, {"name": "Ladyzhyn", "country_iso2": "UA", "state": "Vinnytska Oblast", "is_capital": false, "latitude": 48.6667, "longitude": 29.25, "population": 22459}, {"name": "Lebedyn", "country_iso2": "UA", "state": "Sumska Oblast", "is_capital": false, "latitude": 50.5831, "longitude": 34.4822, "population": 23892}, {"name": "Letychiv", "country_iso2": "UA", "state": "Khmelnytska Oblast", "is_capital": false, "latitude": 49.3833, "longitude": 27.6167, "population": 10074}, {"name": "Liubashivka", "country_iso2": "UA", "state": "Odeska Oblast", "is_capital": false, "latitude": 47.8358, "longitude": 30.2642, "population": 11500}, {"name": "Liubotyn", "country_iso2": "UA", "state": "Kharkivska Oblast", "is_capital": false, "latitude": 49.9483, "longitude": 35.9294, "population": 20001}, {"name": "Liubymivka", "country_iso2": "UA", "state": "Luhanska Oblast", "is_capital": false, "latitude": 48.0397, "longitude": 39.44, "population": 8578}, {"name": "Lokhvytsya", "country_iso2": "UA", "state": "Poltavska Oblast", "is_capital": false, "latitude": 50.3598, "longitude": 33.2723, "population": 11014}, {"name": "Lozova", "country_iso2": "UA", "state": "Kharkivska Oblast", "is_capital": false, "latitude": 48.8833, "longitude": 36.3833, "population": 53126}, {"name": "Lubny", "country_iso2": "UA", "state": "Poltavska Oblast", "is_capital": false, "latitude": 50.0167, "longitude": 33.0, "population": 44089}, {"name": "Luhansk", "country_iso2": "UA", "state": "Luhanska Oblast", "is_capital": true, "latitude": 48.5678, "longitude": 39.3031, "population": 397677}, {"name": "Lutsk", "country_iso2": "UA", "state": "Volynska Oblast", "is_capital": true, "latitude": 50.75, "longitude": 25.3358, "population": 220986}, {"name": "Lviv", "country_iso2": "UA", "state": "Lvivska Oblast", "is_capital": true, "latitude": 49.8425, "longitude": 24.0322, "population": 717273}, {"name": "Lyman", "country_iso2": "UA", "state": "Donetska Oblast", "is_capital": false, "latitude": 48.9853, "longitude": 37.8111, "population": 20066}, {"name": "Lymanka", "country_iso2": "UA", "state": "Odeska Oblast", "is_capital": false, "latitude": 46.3883, "longitude": 30.6808, "population": 10590}, {"name": "Lysychansk", "country_iso2": "UA", "state": "Luhanska Oblast", "is_capital": false, "latitude": 48.9167, "longitude": 38.4, "population": 93340}, {"name": "Lyuboml’", "country_iso2": "UA", "state": "Volynska Oblast", "is_capital": false, "latitude": 51.2236, "longitude": 24.0328, "population": 10295}, {"name": "Makariv", "country_iso2": "UA", "state": "Kyivska Oblast", "is_capital": false, "latitude": 50.4597, "longitude": 29.8147, "population": 9390}, {"name": "Makiivka", "country_iso2": "UA", "state": "Donetska Oblast", "is_capital": false, "latitude": 48.0556, "longitude": 37.9611, "population": 338968}, {"name": "Mala Vyska", "country_iso2": "UA", "state": "Kirovohradska Oblast", "is_capital": false, "latitude": 48.65, "longitude": 31.6333, "population": 13132}, {"name": "Malyn", "country_iso2": "UA", "state": "Zhytomyrska Oblast", "is_capital": false, "latitude": 50.7689, "longitude": 29.27, "population": 25172}, {"name": "Manevychi", "country_iso2": "UA", "state": "Volynska Oblast", "is_capital": false, "latitude": 51.2914, "longitude": 25.5331, "population": 11725}, {"name": "Marhanets", "country_iso2": "UA", "state": "Dnipropetrovska Oblast", "is_capital": false, "latitude": 47.6447, "longitude": 34.6042, "population": 44980}, {"name": "Marinka", "country_iso2": "UA", "state": "Donetska Oblast", "is_capital": false, "latitude": 47.9419, "longitude": 37.5036, "population": 9089}, {"name": "Mariupol", "country_iso2": "UA", "state": "Donetska Oblast", "is_capital": false, "latitude": 47.0958, "longitude": 37.5494, "population": 120000}, {"name": "Melitopol", "country_iso2": "UA", "state": "Zaporizka Oblast", "is_capital": false, "latitude": 46.8489, "longitude": 35.3675, "population": 148851}, {"name": "Mena", "country_iso2": "UA", "state": "Chernihivska Oblast", "is_capital": false, "latitude": 51.5167, "longitude": 32.2167, "population": 10935}, {"name": "Merefa", "country_iso2": "UA", "state": "Kharkivska Oblast", "is_capital": false, "latitude": 49.8167, "longitude": 36.05, "population": 21202}, {"name": "Mizhhiria", "country_iso2": "UA", "state": "Zakarpatska Oblast", "is_capital": false, "latitude": 48.5286, "longitude": 23.5019, "population": 9432}, {"name": "Mohyliv-Podilskyi", "country_iso2": "UA", "state": "Vinnytska Oblast", "is_capital": false, "latitude": 48.45, "longitude": 27.7833, "population": 29925}, {"name": "Molodohvardiisk", "country_iso2": "UA", "state": "Luhanska Oblast", "is_capital": false, "latitude": 48.3444, "longitude": 39.6583, "population": 22449}, {"name": "Monastyryshche", "country_iso2": "UA", "state": "Cherkaska Oblast", "is_capital": false, "latitude": 48.99, "longitude": 29.8011, "population": 8851}, {"name": "Mospyne", "country_iso2": "UA", "state": "Donetska Oblast", "is_capital": false, "latitude": 47.9, "longitude": 38.0667, "population": 10471}, {"name": "Mostyska", "country_iso2": "UA", "state": "Lvivska Oblast", "is_capital": false, "latitude": 49.7942, "longitude": 23.1525, "population": 9044}, {"name": "Mukacheve", "country_iso2": "UA", "state": "Zakarpatska Oblast", "is_capital": false, "latitude": 48.45, "longitude": 22.75, "population": 85569}, {"name": "Mykhailivka", "country_iso2": "UA", "state": "Zaporizka Oblast", "is_capital": false, "latitude": 47.2694, "longitude": 35.2222, "population": 11530}, {"name": "Mykolaiv", "country_iso2": "UA", "state": "Mykolaivska Oblast", "is_capital": true, "latitude": 46.975, "longitude": 31.995, "population": 470011}, {"name": "Mykolaiv", "country_iso2": "UA", "state": "Lvivska Oblast", "is_capital": false, "latitude": 49.5247, "longitude": 23.9789, "population": 14498}, {"name": "Mykolaivka", "country_iso2": "UA", "state": "Donetska Oblast", "is_capital": false, "latitude": 48.8521, "longitude": 37.774, "population": 14210}, {"name": "Myrhorod", "country_iso2": "UA", "state": "Poltavska Oblast", "is_capital": false, "latitude": 49.9667, "longitude": 33.6, "population": 37886}, {"name": "Myrnohrad", "country_iso2": "UA", "state": "Donetska Oblast", "is_capital": false, "latitude": 48.2911, "longitude": 37.2681, "population": 46098}, {"name": "Myronivka", "country_iso2": "UA", "state": "Kyivska Oblast", "is_capital": false, "latitude": 49.65, "longitude": 30.9833, "population": 11103}, {"name": "Nadvirna", "country_iso2": "UA", "state": "Ivano-Frankivska Oblast", "is_capital": false, "latitude": 48.6333, "longitude": 24.5833, "population": 22504}, {"name": "Nemyriv", "country_iso2": "UA", "state": "Vinnytska Oblast", "is_capital": false, "latitude": 48.9667, "longitude": 28.85, "population": 11421}, {"name": "Nerubaiske", "country_iso2": "UA", "state": "Odeska Oblast", "is_capital": false, "latitude": 46.5502, "longitude": 30.6311, "population": 8558}, {"name": "Netishyn", "country_iso2": "UA", "state": "Khmelnytska Oblast", "is_capital": false, "latitude": 50.35, "longitude": 26.6333, "population": 36492}, {"name": "Nikopol", "country_iso2": "UA", "state": "Dnipropetrovska Oblast", "is_capital": false, "latitude": 47.5667, "longitude": 34.4, "population": 105160}, {"name": "Nizhyn", "country_iso2": "UA", "state": "Chernihivska Oblast", "is_capital": false, "latitude": 51.0381, "longitude": 31.8861, "population": 65830}, {"name": "Nosivka", "country_iso2": "UA", "state": "Chernihivska Oblast", "is_capital": false, "latitude": 50.93, "longitude": 31.5806, "population": 12908}, {"name": "Nova Kakhovka", "country_iso2": "UA", "state": "Khersonska Oblast", "is_capital": false, "latitude": 46.755, "longitude": 33.375, "population": 44427}, {"name": "Nova Odesa", "country_iso2": "UA", "state": "Mykolaivska Oblast", "is_capital": false, "latitude": 47.3097, "longitude": 31.7792, "population": 11510}, {"name": "Nova Vodolaha", "country_iso2": "UA", "state": "Kharkivska Oblast", "is_capital": false, "latitude": 49.7192, "longitude": 35.8761, "population": 10455}, {"name": "Novgorodskoye", "country_iso2": "UA", "state": "Donetska Oblast", "is_capital": false, "latitude": 48.3319, "longitude": 37.8364, "population": 9735}, {"name": "Novhorod-Siverskyi", "country_iso2": "UA", "state": "Chernihivska Oblast", "is_capital": false, "latitude": 51.9972, "longitude": 33.2667, "population": 12375}, {"name": "Novoazovsk", "country_iso2": "UA", "state": "Donetska Oblast", "is_capital": false, "latitude": 47.1117, "longitude": 38.0825, "population": 11051}, {"name": "Novodnistrovsk", "country_iso2": "UA", "state": "Chernivetska Oblast", "is_capital": false, "latitude": 48.5778, "longitude": 27.4414, "population": 10463}, {"name": "Novohrad-Volynskyi", "country_iso2": "UA", "state": "Zhytomyrska Oblast", "is_capital": false, "latitude": 50.5833, "longitude": 27.6333, "population": 55086}, {"name": "Novohrodivka", "country_iso2": "UA", "state": "Donetska Oblast", "is_capital": false, "latitude": 48.2, "longitude": 37.3394, "population": 14037}, {"name": "Novomoskovsk", "country_iso2": "UA", "state": "Dnipropetrovska Oblast", "is_capital": false, "latitude": 48.6333, "longitude": 35.2167, "population": 69855}, {"name": "Novomyrhorod", "country_iso2": "UA", "state": "Kirovohradska Oblast", "is_capital": false, "latitude": 48.7833, "longitude": 31.65, "population": 10715}, {"name": "Novooleksiivka", "country_iso2": "UA", "state": "Khersonska Oblast", "is_capital": false, "latitude": 46.2261, "longitude": 34.6417, "population": 10026}, {"name": "Novopskov", "country_iso2": "UA", "state": "Luhanska Oblast", "is_capital": false, "latitude": 49.5383, "longitude": 39.1019, "population": 9392}, {"name": "Novotroitske", "country_iso2": "UA", "state": "Khersonska Oblast", "is_capital": false, "latitude": 46.35, "longitude": 34.3333, "population": 10535}, {"name": "Novoukrainka", "country_iso2": "UA", "state": "Kirovohradska Oblast", "is_capital": false, "latitude": 48.3231, "longitude": 31.5242, "population": 16080}, {"name": "Novovolynsk", "country_iso2": "UA", "state": "Volynska Oblast", "is_capital": false, "latitude": 50.7333, "longitude": 24.1667, "population": 49772}, {"name": "Novoyavorovskoye", "country_iso2": "UA", "state": "Lvivska Oblast", "is_capital": false, "latitude": 49.9311, "longitude": 23.5731, "population": 31366}, {"name": "Novyi Buh", "country_iso2": "UA", "state": "Mykolaivska Oblast", "is_capital": false, "latitude": 47.6833, "longitude": 32.5, "population": 15000}, {"name": "Novyi Rozdil", "country_iso2": "UA", "state": "Lvivska Oblast", "is_capital": false, "latitude": 49.4697, "longitude": 24.1367, "population": 29643}, {"name": "Novyi Svit", "country_iso2": "UA", "state": "Donetska Oblast", "is_capital": false, "latitude": 47.8058, "longitude": 38.0186, "population": 8996}, {"name": "Nyzhnia Krynka", "country_iso2": "UA", "state": "Donetska Oblast", "is_capital": false, "latitude": 48.1144, "longitude": 38.1606, "population": 13557}, {"name": "Nyzhnohirskyi", "country_iso2": "UA", "state": "Krym, Avtonomna Respublika", "is_capital": false, "latitude": 45.4436, "longitude": 34.7406, "population": 8741}, {"name": "Obukhiv", "country_iso2": "UA", "state": "Kyivska Oblast", "is_capital": false, "latitude": 50.13, "longitude": 30.6567, "population": 33287}, {"name": "Obukhivka", "country_iso2": "UA", "state": "Dnipropetrovska Oblast", "is_capital": false, "latitude": 48.5433, "longitude": 34.8589, "population": 9137}, {"name": "Ochakiv", "country_iso2": "UA", "state": "Mykolaivska Oblast", "is_capital": false, "latitude": 46.6186, "longitude": 31.5392, "population": 13663}, {"name": "Odesa", "country_iso2": "UA", "state": "Odeska Oblast", "is_capital": true, "latitude": 46.492, "longitude": 30.7081, "population": 1010537}, {"name": "Okhmalynka", "country_iso2": "UA", "state": "Odeska Oblast", "is_capital": false, "latitude": 47.5333, "longitude": 29.3, "population": 19606}, {"name": "Okhtyrka", "country_iso2": "UA", "state": "Sumska Oblast", "is_capital": false, "latitude": 50.303, "longitude": 34.892, "population": 46660}, {"name": "Oleksandriia", "country_iso2": "UA", "state": "Kirovohradska Oblast", "is_capital": false, "latitude": 48.6667, "longitude": 33.1167, "population": 76097}, {"name": "Oleshky", "country_iso2": "UA", "state": "Khersonska Oblast", "is_capital": false, "latitude": 46.6167, "longitude": 32.7167, "population": 24124}, {"name": "Olevsk", "country_iso2": "UA", "state": "Zhytomyrska Oblast", "is_capital": false, "latitude": 51.2167, "longitude": 27.65, "population": 10032}, {"name": "Ostroh", "country_iso2": "UA", "state": "Rivnenska Oblast", "is_capital": false, "latitude": 50.3333, "longitude": 26.5167, "population": 14801}, {"name": "Ovidiopol", "country_iso2": "UA", "state": "Odeska Oblast", "is_capital": false, "latitude": 46.2447, "longitude": 30.4447, "population": 11407}, {"name": "Ovruch", "country_iso2": "UA", "state": "Zhytomyrska Oblast", "is_capital": false, "latitude": 51.3244, "longitude": 28.8081, "population": 15250}, {"name": "Pavlohrad", "country_iso2": "UA", "state": "Dnipropetrovska Oblast", "is_capital": false, "latitude": 48.5167, "longitude": 35.8667, "population": 101430}, {"name": "Pelahiivka", "country_iso2": "UA", "state": "Donetska Oblast", "is_capital": false, "latitude": 48.0989, "longitude": 38.6128, "population": 17833}, {"name": "Perehinske", "country_iso2": "UA", "state": "Ivano-Frankivska Oblast", "is_capital": false, "latitude": 48.81, "longitude": 24.19, "population": 12681}, {"name": "Pereshchepyne", "country_iso2": "UA", "state": "Dnipropetrovska Oblast", "is_capital": false, "latitude": 49.0167, "longitude": 35.35, "population": 9639}, {"name": "Perevalsk", "country_iso2": "UA", "state": "Luhanska Oblast", "is_capital": false, "latitude": 48.4333, "longitude": 38.8167, "population": 24817}, {"name": "Pereyaslav-Khmel’nyts’kyy", "country_iso2": "UA", "state": "Kyivska Oblast", "is_capital": false, "latitude": 50.065, "longitude": 31.445, "population": 26273}, {"name": "Pershotravens’k", "country_iso2": "UA", "state": "Dnipropetrovska Oblast", "is_capital": false, "latitude": 48.3475, "longitude": 36.4017, "population": 27099}, {"name": "Pervomaisk", "country_iso2": "UA", "state": "Mykolaivska Oblast", "is_capital": false, "latitude": 48.0439, "longitude": 30.85, "population": 62426}, {"name": "Pervomaisk", "country_iso2": "UA", "state": "Luhanska Oblast", "is_capital": false, "latitude": 48.6297, "longitude": 38.5619, "population": 36091}, {"name": "Pervomaiskyi", "country_iso2": "UA", "state": "Kharkivska Oblast", "is_capital": false, "latitude": 49.3869, "longitude": 36.2142, "population": 28510}, {"name": "Pesochin", "country_iso2": "UA", "state": "Kharkivska Oblast", "is_capital": false, "latitude": 49.9594, "longitude": 36.1108, "population": 23509}, {"name": "Petrovske", "country_iso2": "UA", "state": "Luhanska Oblast", "is_capital": false, "latitude": 48.2833, "longitude": 38.8833, "population": 12642}, {"name": "Piatykhatky", "country_iso2": "UA", "state": "Dnipropetrovska Oblast", "is_capital": false, "latitude": 48.4136, "longitude": 33.7028, "population": 18140}, {"name": "Pivnichne", "country_iso2": "UA", "state": "Donetska Oblast", "is_capital": false, "latitude": 48.3886, "longitude": 37.9067, "population": 9024}, {"name": "Podilsk", "country_iso2": "UA", "state": "Odeska Oblast", "is_capital": false, "latitude": 47.7419, "longitude": 29.535, "population": 39220}, {"name": "Pohrebyshche", "country_iso2": "UA", "state": "Vinnytska Oblast", "is_capital": false, "latitude": 49.4833, "longitude": 29.2667, "population": 9209}, {"name": "Pokotylivka", "country_iso2": "UA", "state": "Kharkivska Oblast", "is_capital": false, "latitude": 49.9114, "longitude": 36.1786, "population": 9121}, {"name": "Pokrov", "country_iso2": "UA", "state": "Dnipropetrovska Oblast", "is_capital": false, "latitude": 47.6533, "longitude": 34.0842, "population": 37493}, {"name": "Pokrovske", "country_iso2": "UA", "state": "Dnipropetrovska Oblast", "is_capital": false, "latitude": 47.9825, "longitude": 36.2339, "population": 9489}, {"name": "Polohy", "country_iso2": "UA", "state": "Zaporizka Oblast", "is_capital": false, "latitude": 47.4833, "longitude": 36.25, "population": 18111}, {"name": "Polonne", "country_iso2": "UA", "state": "Khmelnytska Oblast", "is_capital": false, "latitude": 50.12, "longitude": 27.5078, "population": 23211}, {"name": "Poltava", "country_iso2": "UA", "state": "Poltavska Oblast", "is_capital": true, "latitude": 49.5894, "longitude": 34.5514, "population": 279593}, {"name": "Pomichna", "country_iso2": "UA", "state": "Kirovohradska Oblast", "is_capital": false, "latitude": 48.25, "longitude": 31.4167, "population": 8608}, {"name": "Pryluky", "country_iso2": "UA", "state": "Chernihivska Oblast", "is_capital": false, "latitude": 50.5892, "longitude": 32.3856, "population": 51637}, {"name": "Prymorsk", "country_iso2": "UA", "state": "Zaporizka Oblast", "is_capital": false, "latitude": 46.7333, "longitude": 36.35, "population": 11157}, {"name": "Prymorskyi", "country_iso2": "UA", "state": "Krym, Avtonomna Respublika", "is_capital": false, "latitude": 45.1167, "longitude": 35.4806, "population": 12560}, {"name": "Pustomyty", "country_iso2": "UA", "state": "Lvivska Oblast", "is_capital": false, "latitude": 49.7139, "longitude": 23.9108, "population": 9372}, {"name": "Putyvl", "country_iso2": "UA", "state": "Sumska Oblast", "is_capital": false, "latitude": 51.3167, "longitude": 33.8667, "population": 14886}, {"name": "Pyryatyn", "country_iso2": "UA", "state": "Poltavska Oblast", "is_capital": false, "latitude": 50.25, "longitude": 32.5333, "population": 14988}, {"name": "Radekhiv", "country_iso2": "UA", "state": "Lvivska Oblast", "is_capital": false, "latitude": 50.2828, "longitude": 24.6375, "population": 9680}, {"name": "Radomyshl", "country_iso2": "UA", "state": "Zhytomyrska Oblast", "is_capital": false, "latitude": 50.4947, "longitude": 29.2333, "population": 13685}, {"name": "Radyvyliv", "country_iso2": "UA", "state": "Rivnenska Oblast", "is_capital": false, "latitude": 50.1286, "longitude": 25.2644, "population": 10427}, {"name": "Rakhiv", "country_iso2": "UA", "state": "Zakarpatska Oblast", "is_capital": false, "latitude": 48.05, "longitude": 24.2, "population": 15536}, {"name": "Ratne", "country_iso2": "UA", "state": "Volynska Oblast", "is_capital": false, "latitude": 51.65, "longitude": 24.5333, "population": 9577}, {"name": "Reni", "country_iso2": "UA", "state": "Odeska Oblast", "is_capital": false, "latitude": 45.4575, "longitude": 28.2711, "population": 17736}, {"name": "Reshetylivka", "country_iso2": "UA", "state": "Poltavska Oblast", "is_capital": false, "latitude": 49.5667, "longitude": 34.0667, "population": 9021}, {"name": "Rivne", "country_iso2": "UA", "state": "Rivnenska Oblast", "is_capital": true, "latitude": 50.6192, "longitude": 26.2519, "population": 243873}, {"name": "Rodynske", "country_iso2": "UA", "state": "Donetska Oblast", "is_capital": false, "latitude": 48.3531, "longitude": 37.21, "population": 9850}, {"name": "Rokytne", "country_iso2": "UA", "state": "Kyivska Oblast", "is_capital": false, "latitude": 49.6667, "longitude": 30.4833, "population": 10938}, {"name": "Romny", "country_iso2": "UA", "state": "Sumska Oblast", "is_capital": false, "latitude": 50.75, "longitude": 33.4667, "population": 37765}, {"name": "Rovenky", "country_iso2": "UA", "state": "Luhanska Oblast", "is_capital": false, "latitude": 48.0711, "longitude": 39.3428, "population": 45514}, {"name": "Rozdilna", "country_iso2": "UA", "state": "Odeska Oblast", "is_capital": false, "latitude": 46.8486, "longitude": 30.0792, "population": 17441}, {"name": "Rozhyshche", "country_iso2": "UA", "state": "Volynska Oblast", "is_capital": false, "latitude": 50.9131, "longitude": 25.27, "population": 12483}, {"name": "Rubizhne", "country_iso2": "UA", "state": "Luhanska Oblast", "is_capital": false, "latitude": 49.01, "longitude": 38.3714, "population": 55247}, {"name": "Sadovoye", "country_iso2": "UA", "state": "Odeska Oblast", "is_capital": false, "latitude": 46.05, "longitude": 30.3667, "population": 14321}, {"name": "Saky", "country_iso2": "UA", "state": "Krym, Avtonomna Respublika", "is_capital": false, "latitude": 45.1336, "longitude": 33.5772, "population": 25146}, {"name": "Sambir", "country_iso2": "UA", "state": "Lvivska Oblast", "is_capital": false, "latitude": 49.5167, "longitude": 23.2028, "population": 34152}, {"name": "Sarny", "country_iso2": "UA", "state": "Rivnenska Oblast", "is_capital": false, "latitude": 51.3372, "longitude": 26.6058, "population": 28626}, {"name": "Sartana", "country_iso2": "UA", "state": "Donetska Oblast", "is_capital": false, "latitude": 47.1667, "longitude": 37.6833, "population": 10070}, {"name": "Selydove", "country_iso2": "UA", "state": "Donetska Oblast", "is_capital": false, "latitude": 48.15, "longitude": 37.3039, "population": 21521}, {"name": "Sevastopol", "country_iso2": "UA", "state": "Sevastopol, Misto", "is_capital": true, "latitude": 44.605, "longitude": 33.5225, "population": 547820}, {"name": "Shakhtarsk", "country_iso2": "UA", "state": "Donetska Oblast", "is_capital": false, "latitude": 48.0469, "longitude": 38.4686, "population": 48208}, {"name": "Shchastia", "country_iso2": "UA", "state": "Luhanska Oblast", "is_capital": false, "latitude": 48.7333, "longitude": 39.2333, "population": 11411}, {"name": "Shepetivka", "country_iso2": "UA", "state": "Khmelnytska Oblast", "is_capital": false, "latitude": 50.1833, "longitude": 27.0667, "population": 40299}, {"name": "Shostka", "country_iso2": "UA", "state": "Sumska Oblast", "is_capital": false, "latitude": 51.8667, "longitude": 33.4833, "population": 71966}, {"name": "Shpola", "country_iso2": "UA", "state": "Cherkaska Oblast", "is_capital": false, "latitude": 48.9997, "longitude": 31.3922, "population": 16323}, {"name": "Shyroke", "country_iso2": "UA", "state": "Dnipropetrovska Oblast", "is_capital": false, "latitude": 47.6844, "longitude": 33.2728, "population": 9623}, {"name": "Sieverne", "country_iso2": "UA", "state": "Donetska Oblast", "is_capital": false, "latitude": 48.0858, "longitude": 38.6942, "population": 9832}, {"name": "Sievierodonetsk", "country_iso2": "UA", "state": "Luhanska Oblast", "is_capital": false, "latitude": 48.9481, "longitude": 38.4933, "population": 99067}, {"name": "Simferopol", "country_iso2": "UA", "state": "Krym, Avtonomna Respublika", "is_capital": true, "latitude": 44.9519, "longitude": 34.1022, "population": 332317}, {"name": "Siversk", "country_iso2": "UA", "state": "Donetska Oblast", "is_capital": false, "latitude": 48.8631, "longitude": 38.0972, "population": 10875}, {"name": "Skadovsk", "country_iso2": "UA", "state": "Khersonska Oblast", "is_capital": false, "latitude": 46.1167, "longitude": 32.9167, "population": 16969}, {"name": "Skvyra", "country_iso2": "UA", "state": "Kyivska Oblast", "is_capital": false, "latitude": 49.7167, "longitude": 29.6667, "population": 15165}, {"name": "Slavuta", "country_iso2": "UA", "state": "Khmelnytska Oblast", "is_capital": false, "latitude": 50.3028, "longitude": 26.8683, "population": 34918}, {"name": "Slavutych", "country_iso2": "UA", "state": "Kyivska Oblast", "is_capital": false, "latitude": 51.5206, "longitude": 30.7569, "population": 24464}, {"name": "Slobozhanske", "country_iso2": "UA", "state": "Dnipropetrovska Oblast", "is_capital": false, "latitude": 48.5336, "longitude": 35.0781, "population": 14661}, {"name": "Slobozhanske", "country_iso2": "UA", "state": "Kharkivska Oblast", "is_capital": false, "latitude": 49.5961, "longitude": 36.5269, "population": 13675}, {"name": "Sloviansk", "country_iso2": "UA", "state": "Donetska Oblast", "is_capital": false, "latitude": 48.8533, "longitude": 37.625, "population": 105141}, {"name": "Smila", "country_iso2": "UA", "state": "Cherkaska Oblast", "is_capital": false, "latitude": 49.2336, "longitude": 31.8822, "population": 65675}, {"name": "Smoline", "country_iso2": "UA", "state": "Kirovohradska Oblast", "is_capital": false, "latitude": 48.6017, "longitude": 31.2947, "population": 9243}, {"name": "Sniatyn", "country_iso2": "UA", "state": "Ivano-Frankivska Oblast", "is_capital": false, "latitude": 48.45, "longitude": 25.5667, "population": 9718}, {"name": "Snihurivka", "country_iso2": "UA", "state": "Mykolaivska Oblast", "is_capital": false, "latitude": 47.0736, "longitude": 32.8, "population": 12045}, {"name": "Snizhne", "country_iso2": "UA", "state": "Donetska Oblast", "is_capital": false, "latitude": 48.0283, "longitude": 38.7656, "population": 49564}, {"name": "Snovsk", "country_iso2": "UA", "state": "Chernihivska Oblast", "is_capital": false, "latitude": 51.8203, "longitude": 31.9508, "population": 10620}, {"name": "Sofiyivs’ka Borshchahivka", "country_iso2": "UA", "state": "Kyivska Oblast", "is_capital": false, "latitude": 50.4114, "longitude": 30.3692, "population": 25882}, {"name": "Sokal", "country_iso2": "UA", "state": "Lvivska Oblast", "is_capital": false, "latitude": 50.4833, "longitude": 24.2833, "population": 20373}, {"name": "Sokyriany", "country_iso2": "UA", "state": "Chernivetska Oblast", "is_capital": false, "latitude": 48.45, "longitude": 27.3667, "population": 8547}, {"name": "Soledar", "country_iso2": "UA", "state": "Donetska Oblast", "is_capital": false, "latitude": 48.6953, "longitude": 38.0675, "population": 10490}, {"name": "Solonytsivka", "country_iso2": "UA", "state": "Kharkivska Oblast", "is_capital": false, "latitude": 49.9869, "longitude": 36.0619, "population": 13254}, {"name": "Sosnivka", "country_iso2": "UA", "state": "Lvivska Oblast", "is_capital": false, "latitude": 50.2944, "longitude": 24.25, "population": 10712}, {"name": "Stakhanov", "country_iso2": "UA", "state": "Luhanska Oblast", "is_capital": false, "latitude": 48.5681, "longitude": 38.6586, "population": 74546}, {"name": "Stanytsia Luhanska", "country_iso2": "UA", "state": "Luhanska Oblast", "is_capital": false, "latitude": 48.6706, "longitude": 39.4722, "population": 12258}, {"name": "Starobilsk", "country_iso2": "UA", "state": "Luhanska Oblast", "is_capital": false, "latitude": 49.2775, "longitude": 38.9242, "population": 15947}, {"name": "Starokostiantyniv", "country_iso2": "UA", "state": "Khmelnytska Oblast", "is_capital": false, "latitude": 49.7556, "longitude": 27.2208, "population": 33921}, {"name": "Stebnyk", "country_iso2": "UA", "state": "Lvivska Oblast", "is_capital": false, "latitude": 49.3, "longitude": 23.5667, "population": 20200}, {"name": "Storozhynets", "country_iso2": "UA", "state": "Chernivetska Oblast", "is_capital": false, "latitude": 48.1619, "longitude": 25.72, "population": 14077}, {"name": "Stryi", "country_iso2": "UA", "state": "Lvivska Oblast", "is_capital": false, "latitude": 49.25, "longitude": 23.85, "population": 59425}, {"name": "Stryzhavka", "country_iso2": "UA", "state": "Vinnytska Oblast", "is_capital": false, "latitude": 49.3103, "longitude": 28.4808, "population": 9000}, {"name": "Sudak", "country_iso2": "UA", "state": "Krym, Avtonomna Respublika", "is_capital": false, "latitude": 44.8514, "longitude": 34.9725, "population": 16492}, {"name": "Sukhodilsk", "country_iso2": "UA", "state": "Luhanska Oblast", "is_capital": false, "latitude": 48.35, "longitude": 39.7167, "population": 20390}, {"name": "Sumy", "country_iso2": "UA", "state": "Sumska Oblast", "is_capital": true, "latitude": 50.9119, "longitude": 34.8028, "population": 256474}, {"name": "Svalyava", "country_iso2": "UA", "state": "Zakarpatska Oblast", "is_capital": false, "latitude": 48.5472, "longitude": 22.9861, "population": 17068}, {"name": "Svatove", "country_iso2": "UA", "state": "Luhanska Oblast", "is_capital": false, "latitude": 49.415, "longitude": 38.155, "population": 16145}, {"name": "Svitlodarsk", "country_iso2": "UA", "state": "Donetska Oblast", "is_capital": false, "latitude": 48.4333, "longitude": 38.2167, "population": 11127}, {"name": "Svitlovodsk", "country_iso2": "UA", "state": "Kirovohradska Oblast", "is_capital": false, "latitude": 49.0503, "longitude": 33.2419, "population": 43130}, {"name": "Synelnykove", "country_iso2": "UA", "state": "Dnipropetrovska Oblast", "is_capital": false, "latitude": 48.3178, "longitude": 35.5119, "population": 29651}, {"name": "Syurte", "country_iso2": "UA", "state": "Zakarpatska Oblast", "is_capital": false, "latitude": 48.5038, "longitude": 22.2267, "population": 9460}, {"name": "Talne", "country_iso2": "UA", "state": "Cherkaska Oblast", "is_capital": false, "latitude": 48.8886, "longitude": 30.7042, "population": 12839}, {"name": "Tarashcha", "country_iso2": "UA", "state": "Kyivska Oblast", "is_capital": false, "latitude": 49.55, "longitude": 30.5, "population": 9689}, {"name": "Taromske", "country_iso2": "UA", "state": "Dnipropetrovska Oblast", "is_capital": false, "latitude": 48.4617, "longitude": 34.7828, "population": 15500}, {"name": "Tatarbunary", "country_iso2": "UA", "state": "Odeska Oblast", "is_capital": false, "latitude": 45.8403, "longitude": 29.6125, "population": 10836}, {"name": "Tavriisk", "country_iso2": "UA", "state": "Khersonska Oblast", "is_capital": false, "latitude": 46.75, "longitude": 33.4167, "population": 10108}, {"name": "Teplodar", "country_iso2": "UA", "state": "Odeska Oblast", "is_capital": false, "latitude": 46.5036, "longitude": 30.3244, "population": 9958}, {"name": "Teplohirsk", "country_iso2": "UA", "state": "Luhanska Oblast", "is_capital": false, "latitude": 48.5967, "longitude": 38.5828, "population": 9270}, {"name": "Terebovlya", "country_iso2": "UA", "state": "Ternopilska Oblast", "is_capital": false, "latitude": 49.3, "longitude": 25.6903, "population": 13226}, {"name": "Ternivka", "country_iso2": "UA", "state": "Dnipropetrovska Oblast", "is_capital": false, "latitude": 48.5167, "longitude": 36.0, "population": 29226}, {"name": "Ternopil", "country_iso2": "UA", "state": "Ternopilska Oblast", "is_capital": true, "latitude": 49.5667, "longitude": 25.6, "population": 225004}, {"name": "Tetiiv", "country_iso2": "UA", "state": "Kyivska Oblast", "is_capital": false, "latitude": 49.3708, "longitude": 29.69, "population": 12640}, {"name": "Tiachiv", "country_iso2": "UA", "state": "Zakarpatska Oblast", "is_capital": false, "latitude": 48.0114, "longitude": 23.5722, "population": 8887}, {"name": "Tlumach", "country_iso2": "UA", "state": "Ivano-Frankivska Oblast", "is_capital": false, "latitude": 48.8667, "longitude": 25.0, "population": 8689}, {"name": "Tokmak", "country_iso2": "UA", "state": "Zaporizka Oblast", "is_capital": false, "latitude": 47.2556, "longitude": 35.7056, "population": 29573}, {"name": "Trostyanets’", "country_iso2": "UA", "state": "Sumska Oblast", "is_capital": false, "latitude": 50.4667, "longitude": 34.95, "population": 19544}, {"name": "Truskavets", "country_iso2": "UA", "state": "Lvivska Oblast", "is_capital": false, "latitude": 49.2806, "longitude": 23.505, "population": 28287}, {"name": "Tulchyn", "country_iso2": "UA", "state": "Vinnytska Oblast", "is_capital": false, "latitude": 48.6744, "longitude": 28.8497, "population": 13896}, {"name": "Tysmenytsia", "country_iso2": "UA", "state": "Ivano-Frankivska Oblast", "is_capital": false, "latitude": 48.9008, "longitude": 24.8492, "population": 8958}, {"name": "Ukrainka", "country_iso2": "UA", "state": "Kyivska Oblast", "is_capital": false, "latitude": 50.1531, "longitude": 30.7435, "population": 14163}, {"name": "Ukrainsk", "country_iso2": "UA", "state": "Donetska Oblast", "is_capital": false, "latitude": 48.1, "longitude": 37.3833, "population": 10655}, {"name": "Uman", "country_iso2": "UA", "state": "Cherkaska Oblast", "is_capital": false, "latitude": 48.75, "longitude": 30.2167, "population": 81525}, {"name": "Uspenka", "country_iso2": "UA", "state": "Luhanska Oblast", "is_capital": false, "latitude": 48.3939, "longitude": 39.1536, "population": 8550}, {"name": "Uzhhorod", "country_iso2": "UA", "state": "Zakarpatska Oblast", "is_capital": true, "latitude": 48.6239, "longitude": 22.295, "population": 115449}, {"name": "Uzyn", "country_iso2": "UA", "state": "Kyivska Oblast", "is_capital": false, "latitude": 49.8242, "longitude": 30.4425, "population": 11921}, {"name": "Vakhrusheve", "country_iso2": "UA", "state": "Luhanska Oblast", "is_capital": false, "latitude": 48.1667, "longitude": 38.8333, "population": 11421}, {"name": "Valky", "country_iso2": "UA", "state": "Kharkivska Oblast", "is_capital": false, "latitude": 49.8333, "longitude": 35.6167, "population": 10381}, {"name": "Varash", "country_iso2": "UA", "state": "Rivnenska Oblast", "is_capital": false, "latitude": 51.3444, "longitude": 25.8508, "population": 41711}, {"name": "Vasylivka", "country_iso2": "UA", "state": "Zaporizka Oblast", "is_capital": false, "latitude": 47.4431, "longitude": 35.2819, "population": 12567}, {"name": "Vasylkiv", "country_iso2": "UA", "state": "Kyivska Oblast", "is_capital": false, "latitude": 50.1783, "longitude": 30.3158, "population": 37068}, {"name": "Vasylkivka", "country_iso2": "UA", "state": "Dnipropetrovska Oblast", "is_capital": false, "latitude": 48.2083, "longitude": 36.0294, "population": 11242}, {"name": "Vatutine", "country_iso2": "UA", "state": "Cherkaska Oblast", "is_capital": false, "latitude": 49.0119, "longitude": 31.0714, "population": 15763}, {"name": "Velyka Dymerka", "country_iso2": "UA", "state": "Kyivska Oblast", "is_capital": false, "latitude": 50.5928, "longitude": 30.9103, "population": 9000}, {"name": "Velyki Luchky", "country_iso2": "UA", "state": "Zakarpatska Oblast", "is_capital": false, "latitude": 48.42, "longitude": 22.5611, "population": 9028}, {"name": "Velykodolynske", "country_iso2": "UA", "state": "Odeska Oblast", "is_capital": false, "latitude": 46.3447, "longitude": 30.5783, "population": 14012}, {"name": "Velykyi Bychkiv", "country_iso2": "UA", "state": "Zakarpatska Oblast", "is_capital": false, "latitude": 47.9667, "longitude": 24.015, "population": 9114}, {"name": "Verkhivtseve", "country_iso2": "UA", "state": "Dnipropetrovska Oblast", "is_capital": false, "latitude": 48.4853, "longitude": 34.2539, "population": 10142}, {"name": "Verkhnodniprovsk", "country_iso2": "UA", "state": "Dnipropetrovska Oblast", "is_capital": false, "latitude": 48.6561, "longitude": 34.3283, "population": 16976}, {"name": "Vesele", "country_iso2": "UA", "state": "Zaporizka Oblast", "is_capital": false, "latitude": 47.0158, "longitude": 34.9122, "population": 9340}, {"name": "Vilnohirsk", "country_iso2": "UA", "state": "Dnipropetrovska Oblast", "is_capital": false, "latitude": 48.4781, "longitude": 34.0281, "population": 22079}, {"name": "Vil’nyans’k", "country_iso2": "UA", "state": "Zaporizka Oblast", "is_capital": false, "latitude": 47.9419, "longitude": 35.4281, "population": 14324}, {"name": "Vinnytsia", "country_iso2": "UA", "state": "Vinnytska Oblast", "is_capital": true, "latitude": 49.2333, "longitude": 28.4833, "population": 356303}, {"name": "Volnovakha", "country_iso2": "UA", "state": "Donetska Oblast", "is_capital": false, "latitude": 47.6022, "longitude": 37.4919, "population": 21166}, {"name": "Volochysk", "country_iso2": "UA", "state": "Khmelnytska Oblast", "is_capital": false, "latitude": 49.5333, "longitude": 26.1667, "population": 18295}, {"name": "Volodymyrets", "country_iso2": "UA", "state": "Rivnenska Oblast", "is_capital": false, "latitude": 51.4208, "longitude": 26.145, "population": 8699}, {"name": "Volodymyrivka", "country_iso2": "UA", "state": "Volynska Oblast", "is_capital": false, "latitude": 50.8481, "longitude": 24.3222, "population": 37910}, {"name": "Vovchansk", "country_iso2": "UA", "state": "Kharkivska Oblast", "is_capital": false, "latitude": 50.2878, "longitude": 36.9428, "population": 17459}, {"name": "Voznesensk", "country_iso2": "UA", "state": "Mykolaivska Oblast", "is_capital": false, "latitude": 47.5667, "longitude": 31.3, "population": 33442}, {"name": "Vynnyky", "country_iso2": "UA", "state": "Lvivska Oblast", "is_capital": false, "latitude": 49.8156, "longitude": 24.1297, "population": 19037}, {"name": "Vynohradiv", "country_iso2": "UA", "state": "Zakarpatska Oblast", "is_capital": false, "latitude": 48.1497, "longitude": 23.025, "population": 25317}, {"name": "Vyshhorod", "country_iso2": "UA", "state": "Kyivska Oblast", "is_capital": false, "latitude": 50.5833, "longitude": 30.5, "population": 22933}, {"name": "Vyshneve", "country_iso2": "UA", "state": "Kyivska Oblast", "is_capital": false, "latitude": 50.3869, "longitude": 30.3581, "population": 42983}, {"name": "Vysokyi", "country_iso2": "UA", "state": "Kharkivska Oblast", "is_capital": false, "latitude": 49.8875, "longitude": 36.1211, "population": 9630}, {"name": "Yahotyn", "country_iso2": "UA", "state": "Kyivska Oblast", "is_capital": false, "latitude": 50.2569, "longitude": 31.7817, "population": 18995}, {"name": "Yakymivka", "country_iso2": "UA", "state": "Zaporizka Oblast", "is_capital": false, "latitude": 46.7, "longitude": 35.1667, "population": 11069}, {"name": "Yalta", "country_iso2": "UA", "state": "Krym, Avtonomna Respublika", "is_capital": false, "latitude": 44.4994, "longitude": 34.17, "population": 76746}, {"name": "Yampil", "country_iso2": "UA", "state": "Vinnytska Oblast", "is_capital": false, "latitude": 48.24, "longitude": 28.2783, "population": 10679}, {"name": "Yany Kapu", "country_iso2": "UA", "state": "Krym, Avtonomna Respublika", "is_capital": false, "latitude": 45.9675, "longitude": 33.8003, "population": 26268}, {"name": "Yasenivskyi", "country_iso2": "UA", "state": "Luhanska Oblast", "is_capital": false, "latitude": 48.1606, "longitude": 39.2175, "population": 8943}, {"name": "Yasynuvata", "country_iso2": "UA", "state": "Donetska Oblast", "is_capital": false, "latitude": 48.1278, "longitude": 37.8625, "population": 34144}, {"name": "Yavoriv", "country_iso2": "UA", "state": "Lvivska Oblast", "is_capital": false, "latitude": 49.9469, "longitude": 23.3931, "population": 12785}, {"name": "Yenakiieve", "country_iso2": "UA", "state": "Donetska Oblast", "is_capital": false, "latitude": 48.2167, "longitude": 38.2, "population": 76673}, {"name": "Yevpatoriia", "country_iso2": "UA", "state": "Krym, Avtonomna Respublika", "is_capital": false, "latitude": 45.1939, "longitude": 33.3681, "population": 105719}, {"name": "Yuvileine", "country_iso2": "UA", "state": "Luhanska Oblast", "is_capital": false, "latitude": 48.5531, "longitude": 39.1742, "population": 16311}, {"name": "Yuzhne", "country_iso2": "UA", "state": "Odeska Oblast", "is_capital": false, "latitude": 46.63, "longitude": 31.1, "population": 32677}, {"name": "Yuzhnoukrainsk", "country_iso2": "UA", "state": "Mykolaivska Oblast", "is_capital": false, "latitude": 47.8217, "longitude": 31.175, "population": 38560}, {"name": "Zalishchyky", "country_iso2": "UA", "state": "Ternopilska Oblast", "is_capital": false, "latitude": 48.65, "longitude": 25.7333, "population": 8928}, {"name": "Zaporizhzhia", "country_iso2": "UA", "state": "Zaporizka Oblast", "is_capital": true, "latitude": 47.85, "longitude": 35.1175, "population": 710052}, {"name": "Zbarazh", "country_iso2": "UA", "state": "Ternopilska Oblast", "is_capital": false, "latitude": 49.6667, "longitude": 25.7778, "population": 13346}, {"name": "Zdolbuniv", "country_iso2": "UA", "state": "Rivnenska Oblast", "is_capital": false, "latitude": 50.5094, "longitude": 26.2597, "population": 24501}, {"name": "Zelenodolsk", "country_iso2": "UA", "state": "Dnipropetrovska Oblast", "is_capital": false, "latitude": 47.5658, "longitude": 33.6464, "population": 12692}, {"name": "Zhashkiv", "country_iso2": "UA", "state": "Cherkaska Oblast", "is_capital": false, "latitude": 49.2358, "longitude": 30.1111, "population": 13242}, {"name": "Zhdanivka", "country_iso2": "UA", "state": "Donetska Oblast", "is_capital": false, "latitude": 48.1375, "longitude": 38.2608, "population": 11867}, {"name": "Zhmerynka", "country_iso2": "UA", "state": "Vinnytska Oblast", "is_capital": false, "latitude": 49.05, "longitude": 28.1, "population": 33754}, {"name": "Zhovkva", "country_iso2": "UA", "state": "Lvivska Oblast", "is_capital": false, "latitude": 50.055, "longitude": 23.9767, "population": 13852}, {"name": "Zhovti Vody", "country_iso2": "UA", "state": "Dnipropetrovska Oblast", "is_capital": false, "latitude": 48.35, "longitude": 33.5, "population": 42052}, {"name": "Zhydachiv", "country_iso2": "UA", "state": "Lvivska Oblast", "is_capital": false, "latitude": 49.385, "longitude": 24.1444, "population": 10353}, {"name": "Zhytomyr", "country_iso2": "UA", "state": "Zhytomyrska Oblast", "is_capital": true, "latitude": 50.25, "longitude": 28.6667, "population": 261624}, {"name": "Zimna Voda", "country_iso2": "UA", "state": "Lvivska Oblast", "is_capital": false, "latitude": 49.8222, "longitude": 23.9028, "population": 11306}, {"name": "Zinkiv", "country_iso2": "UA", "state": "Poltavska Oblast", "is_capital": false, "latitude": 50.2103, "longitude": 34.3581, "population": 9168}, {"name": "Zmiiv", "country_iso2": "UA", "state": "Kharkivska Oblast", "is_capital": false, "latitude": 49.6944, "longitude": 36.3592, "population": 13737}, {"name": "Znamianka", "country_iso2": "UA", "state": "Kirovohradska Oblast", "is_capital": false, "latitude": 48.7136, "longitude": 32.6733, "population": 21221}, {"name": "Zolochiv", "country_iso2": "UA", "state": "Lvivska Oblast", "is_capital": false, "latitude": 49.8075, "longitude": 24.9031, "population": 23912}, {"name": "Zolote", "country_iso2": "UA", "state": "Luhanska Oblast", "is_capital": false, "latitude": 48.6928, "longitude": 38.5194, "population": 13007}, {"name": "Zolotonosha", "country_iso2": "UA", "state": "Cherkaska Oblast", "is_capital": false, "latitude": 49.6686, "longitude": 32.0422, "population": 27206}, {"name": "Zuhres", "country_iso2": "UA", "state": "Donetska Oblast", "is_capital": false, "latitude": 48.0167, "longitude": 38.2667, "population": 17871}, {"name": "Zvenyhorodka", "country_iso2": "UA", "state": "Cherkaska Oblast", "is_capital": false, "latitude": 49.0697, "longitude": 30.9678, "population": 16269}, {"name": "Zymohiria", "country_iso2": "UA", "state": "Luhanska Oblast", "is_capital": false, "latitude": 48.5819, "longitude": 38.9319, "population": 9557}]