[{"name": "Aiguá", "country_iso2": "UY", "state": "Maldonado", "is_capital": false, "latitude": -34.2, "longitude": -54.75, "population": 2465}, {"name": "Artigas", "country_iso2": "UY", "state": "Artigas", "is_capital": true, "latitude": -30.4667, "longitude": -56.4667, "population": 40658}, {"name": "Baltasar Brum", "country_iso2": "UY", "state": "Artigas", "is_capital": false, "latitude": -30.7167, "longitude": -57.3333, "population": 2531}, {"name": "Barros Blancos", "country_iso2": "UY", "state": "Canelones", "is_capital": false, "latitude": -34.7542, "longitude": -56.0042, "population": 31650}, {"name": "Bella Unión", "country_iso2": "UY", "state": "Artigas", "is_capital": false, "latitude": -30.25, "longitude": -57.5833, "population": 12200}, {"name": "Canelones", "country_iso2": "UY", "state": "Canelones", "is_capital": true, "latitude": -34.5167, "longitude": -56.2833, "population": 19865}, {"name": "Carmelo", "country_iso2": "UY", "state": "Colonia", "is_capital": false, "latitude": -34.0, "longitude": -58.2833, "population": 18041}, {"name": "Castillos", "country_iso2": "UY", "state": "Rocha", "is_capital": false, "latitude": -34.1989, "longitude": -53.8575, "population": 7541}, {"name": "Chuy", "country_iso2": "UY", "state": "Rocha", "is_capital": false, "latitude": -33.6964, "longitude": -53.46, "population": 9675}, {"name": "Ciudad de la Costa", "country_iso2": "UY", "state": "Canelones", "is_capital": false, "latitude": -34.8167, "longitude": -55.95, "population": 112449}, {"name": "Ciudad del Plata", "country_iso2": "UY", "state": "San José", "is_capital": false, "latitude": -34.7667, "longitude": -56.3806, "population": 38249}, {"name": "Colonia Nicolich", "country_iso2": "UY", "state": "Canelones", "is_capital": false, "latitude": -34.8167, "longitude": -56.0167, "population": 9624}, {"name": "Colonia del Sacramento", "country_iso2": "UY", "state": "Colonia", "is_capital": true, "latitude": -34.4714, "longitude": -57.8442, "population": 26231}, {"name": "Dolores", "country_iso2": "UY", "state": "Soriano", "is_capital": false, "latitude": -33.5333, "longitude": -58.2167, "population": 17174}, {"name": "Durazno", "country_iso2": "UY", "state": "Durazno", "is_capital": true, "latitude": -33.3667, "longitude": -56.5167, "population": 34368}, {"name": "El Pinar", "country_iso2": "UY", "state": "Canelones", "is_capital": false, "latitude": -34.7972, "longitude": -55.9097, "population": 21091}, {"name": "Florida", "country_iso2": "UY", "state": "Florida", "is_capital": true, "latitude": -34.1, "longitude": -56.2167, "population": 33639}, {"name": "Fray Bentos", "country_iso2": "UY", "state": "Río Negro", "is_capital": true, "latitude": -33.1333, "longitude": -58.3, "population": 24406}, {"name": "José Batlle y Ordóñez", "country_iso2": "UY", "state": "Lavalleja", "is_capital": false, "latitude": -33.4667, "longitude": -55.15, "population": 2203}, {"name": "Juan L. Lacaze", "country_iso2": "UY", "state": "Colonia", "is_capital": false, "latitude": -34.4311, "longitude": -57.4483, "population": 12816}, {"name": "La Paloma", "country_iso2": "UY", "state": "Rocha", "is_capital": false, "latitude": -34.65, "longitude": -54.1667, "population": 3495}, {"name": "La Paz", "country_iso2": "UY", "state": "Canelones", "is_capital": false, "latitude": -34.7617, "longitude": -56.2233, "population": 20524}, {"name": "Las Piedras", "country_iso2": "UY", "state": "Canelones", "is_capital": false, "latitude": -34.7167, "longitude": -56.2167, "population": 71268}, {"name": "Lascano", "country_iso2": "UY", "state": "Rocha", "is_capital": false, "latitude": -33.6739, "longitude": -54.2075, "population": 7645}, {"name": "Libertad", "country_iso2": "UY", "state": "San José", "is_capital": false, "latitude": -34.6333, "longitude": -56.6192, "population": 10166}, {"name": "Maldonado", "country_iso2": "UY", "state": "Maldonado", "is_capital": true, "latitude": -34.9, "longitude": -54.95, "population": 135014}, {"name": "Melo", "country_iso2": "UY", "state": "Cerro Largo", "is_capital": true, "latitude": -32.3667, "longitude": -54.1833, "population": 51830}, {"name": "Mercedes", "country_iso2": "UY", "state": "Soriano", "is_capital": true, "latitude": -33.25, "longitude": -58.0333, "population": 41974}, {"name": "Minas", "country_iso2": "UY", "state": "Lavalleja", "is_capital": true, "latitude": -34.3667, "longitude": -55.2333, "population": 38446}, {"name": "Montevideo", "country_iso2": "UY", "state": "Montevideo", "is_capital": true, "latitude": -34.9056, "longitude": -56.1842, "population": 1719453}, {"name": "Nueva Helvecia", "country_iso2": "UY", "state": "Colonia", "is_capital": false, "latitude": -34.2833, "longitude": -57.2, "population": 10630}, {"name": "Nueva Palmira", "country_iso2": "UY", "state": "Colonia", "is_capital": false, "latitude": -33.8833, "longitude": -58.4167, "population": 9857}, {"name": "Nuevo Paysandú", "country_iso2": "UY", "state": "Paysandú", "is_capital": false, "latitude": -32.2667, "longitude": -58.0667, "population": 8578}, {"name": "Pando", "country_iso2": "UY", "state": "Canelones", "is_capital": false, "latitude": -34.7167, "longitude": -55.9583, "population": 25947}, {"name": "Paso de Carrasco", "country_iso2": "UY", "state": "Canelones", "is_capital": false, "latitude": -34.8714, "longitude": -56.0272, "population": 15908}, {"name": "Paso de los Toros", "country_iso2": "UY", "state": "Durazno", "is_capital": false, "latitude": -32.8112, "longitude": -56.5086, "population": 12985}, {"name": "Paysandú", "country_iso2": "UY", "state": "Paysandú", "is_capital": true, "latitude": -32.3214, "longitude": -58.0756, "population": 76412}, {"name": "Piriápolis", "country_iso2": "UY", "state": "Maldonado", "is_capital": false, "latitude": -34.9, "longitude": -55.2833, "population": 8830}, {"name": "Progreso", "country_iso2": "UY", "state": "Canelones", "is_capital": false, "latitude": -34.665, "longitude": -56.2194, "population": 16244}, {"name": "Punta del Este", "country_iso2": "UY", "state": "Maldonado", "is_capital": false, "latitude": -34.9667, "longitude": -54.95, "population": 12423}, {"name": "Rivera", "country_iso2": "UY", "state": "Rivera", "is_capital": true, "latitude": -30.9025, "longitude": -55.5506, "population": 64465}, {"name": "Rocha", "country_iso2": "UY", "state": "Rocha", "is_capital": true, "latitude": -34.4833, "longitude": -54.35, "population": 25422}, {"name": "Rosario", "country_iso2": "UY", "state": "Colonia", "is_capital": false, "latitude": -34.3139, "longitude": -57.3525, "population": 10085}, {"name": "Río Branco", "country_iso2": "UY", "state": "Cerro Largo", "is_capital": false, "latitude": -32.5972, "longitude": -53.3833, "population": 14604}, {"name": "Salinas", "country_iso2": "UY", "state": "Canelones", "is_capital": false, "latitude": -34.7833, "longitude": -55.8333, "population": 8626}, {"name": "Salto", "country_iso2": "UY", "state": "Salto", "is_capital": true, "latitude": -31.3833, "longitude": -57.95, "population": 104028}, {"name": "San Carlos", "country_iso2": "UY", "state": "Maldonado", "is_capital": false, "latitude": -34.8, "longitude": -54.9167, "population": 27471}, {"name": "San José", "country_iso2": "UY", "state": "San José", "is_capital": true, "latitude": -34.3333, "longitude": -56.7167, "population": 36743}, {"name": "Santa Lucía", "country_iso2": "UY", "state": "Canelones", "is_capital": false, "latitude": -34.4525, "longitude": -56.3964, "population": 16742}, {"name": "Tacuarembó", "country_iso2": "UY", "state": "Tacuarembó", "is_capital": true, "latitude": -31.7333, "longitude": -55.9833, "population": 54755}, {"name": "Tranqueras", "country_iso2": "UY", "state": "Rivera", "is_capital": false, "latitude": -31.1833, "longitude": -55.7667, "population": 7235}, {"name": "Treinta y Tres", "country_iso2": "UY", "state": "Treinta y Tres", "is_capital": true, "latitude": -33.2333, "longitude": -54.3833, "population": 25477}, {"name": "Trinidad", "country_iso2": "UY", "state": "Flores", "is_capital": false, "latitude": -33.5333, "longitude": -56.8833, "population": 21429}, {"name": "Vergara", "country_iso2": "UY", "state": "Treinta y Tres", "is_capital": false, "latitude": -32.95, "longitude": -53.9333, "population": 3810}, {"name": "Young", "country_iso2": "UY", "state": "Río Negro", "is_capital": false, "latitude": -32.7, "longitude": -57.6333, "population": 16756}]