[{"name": "Deçan", "country_iso2": "XK", "state": "Deçan", "is_capital": true, "latitude": 42.5378, "longitude": 20.2911, "population": 3803}, {"name": "Dragash", "country_iso2": "XK", "state": "Dragash", "is_capital": true, "latitude": 42.0265, "longitude": 20.6533, "population": 34827}, {"name": "Dushanovë", "country_iso2": "XK", "state": "Prizren", "is_capital": false, "latitude": 42.2317, "longitude": 20.7197, "population": 9398}, {"name": "Ferizaj", "country_iso2": "XK", "state": "Ferizaj", "is_capital": true, "latitude": 42.3706, "longitude": 21.1553, "population": 108610}, {"name": "Fushë Kosovë", "country_iso2": "XK", "state": "Fushë Kosovë", "is_capital": true, "latitude": 42.6639, "longitude": 21.0961, "population": 39948}, {"name": "Gjakovë", "country_iso2": "XK", "state": "Gjakovë", "is_capital": true, "latitude": 42.3803, "longitude": 20.4308, "population": 94556}, {"name": "Gjilan", "country_iso2": "XK", "state": "Gjilan", "is_capital": true, "latitude": 42.4689, "longitude": 21.4633, "population": 90178}, {"name": "Gllogovc", "country_iso2": "XK", "state": "Gllogovc", "is_capital": true, "latitude": 42.6283, "longitude": 20.8939, "population": 58531}, {"name": "Graçanicë", "country_iso2": "XK", "state": "Graçanicë", "is_capital": true, "latitude": 42.6011, "longitude": 21.1958, "population": 10675}, {"name": "Hani i Elezit", "country_iso2": "XK", "state": "Hani i Elezit", "is_capital": true, "latitude": 42.15, "longitude": 21.2967, "population": 9403}, {"name": "Istog", "country_iso2": "XK", "state": "Istog", "is_capital": true, "latitude": 42.7808, "longitude": 20.4875, "population": 39289}, {"name": "Junik", "country_iso2": "XK", "state": "Junik", "is_capital": true, "latitude": 42.4758, "longitude": 20.2772, "population": 6084}, {"name": "Kamenicë", "country_iso2": "XK", "state": "Kamenicë", "is_capital": true, "latitude": 42.5781, "longitude": 21.5803, "population": 36085}, {"name": "Kaçanik", "country_iso2": "XK", "state": "Kaçanik", "is_capital": true, "latitude": 42.2319, "longitude": 21.2594, "population": 33409}, {"name": "Klinë", "country_iso2": "XK", "state": "Klinë", "is_capital": true, "latitude": 42.6217, "longitude": 20.5778, "population": 38496}, {"name": "Kllokot", "country_iso2": "XK", "state": "Kllokot", "is_capital": true, "latitude": 42.3714, "longitude": 21.3744, "population": 2556}, {"name": "Leposaviq", "country_iso2": "XK", "state": "Leposaviq", "is_capital": true, "latitude": 43.1039, "longitude": 20.8028, "population": 18600}, {"name": "Lipjan", "country_iso2": "XK", "state": "Lipjan", "is_capital": true, "latitude": 42.5217, "longitude": 21.1258, "population": 77605}, {"name": "Malishevë", "country_iso2": "XK", "state": "Malishevë", "is_capital": true, "latitude": 42.4822, "longitude": 20.7458, "population": 3395}, {"name": "Mamushë", "country_iso2": "XK", "state": "Mamushë", "is_capital": true, "latitude": 42.3308, "longitude": 20.7269, "population": 5507}, {"name": "Matiçan", "country_iso2": "XK", "state": "Prishtinë", "is_capital": false, "latitude": 42.6456, "longitude": 21.1983, "population": 13876}, {"name": "Mitrovicë", "country_iso2": "XK", "state": "", "is_capital": true, "latitude": 42.8833, "longitude": 20.8667, "population": 85360}, {"name": "Novobërdë", "country_iso2": "XK", "state": "Novobërdë", "is_capital": true, "latitude": 42.6178, "longitude": 21.4197, "population": 7121}, {"name": "Obiliq", "country_iso2": "XK", "state": "Obiliq", "is_capital": true, "latitude": 42.6869, "longitude": 21.0703, "population": 6864}, {"name": "Partesh", "country_iso2": "XK", "state": "Partesh", "is_capital": true, "latitude": 42.4019, "longitude": 21.4336, "population": 1738}, {"name": "Pejë", "country_iso2": "XK", "state": "Pejë", "is_capital": true, "latitude": 42.66, "longitude": 20.2922, "population": 96450}, {"name": "Podujevë", "country_iso2": "XK", "state": "Podujevë", "is_capital": true, "latitude": 42.9111, "longitude": 21.1899, "population": 88499}, {"name": "Pristina", "country_iso2": "XK", "state": "Prishtinë", "is_capital": true, "latitude": 42.6666, "longitude": 21.1724, "population": 198897}, {"name": "Prizren", "country_iso2": "XK", "state": "Prizren", "is_capital": true, "latitude": 42.2139, "longitude": 20.7397, "population": 220128}, {"name": "Rahovec", "country_iso2": "XK", "state": "Rahovec", "is_capital": true, "latitude": 42.3994, "longitude": 20.6547, "population": 56208}, {"name": "Ranillug", "country_iso2": "XK", "state": "Ranillug", "is_capital": true, "latitude": 42.4922, "longitude": 21.5989, "population": 5800}, {"name": "Shtime", "country_iso2": "XK", "state": "Shtime", "is_capital": true, "latitude": 42.4331, "longitude": 21.0397, "population": 27324}, {"name": "Shtërpcë", "country_iso2": "XK", "state": "Shtërpcë", "is_capital": true, "latitude": 42.2394, "longitude": 21.0272, "population": 13858}, {"name": "Skenderaj", "country_iso2": "XK", "state": "Skenderaj", "is_capital": true, "latitude": 42.7467, "longitude": 20.7886, "population": 50858}, {"name": "Suharekë", "country_iso2": "XK", "state": "Suharekë", "is_capital": true, "latitude": 42.3586, "longitude": 20.825, "population": 59722}, {"name": "Viti", "country_iso2": "XK", "state": "Viti", "is_capital": true, "latitude": 42.3214, "longitude": 21.3583, "population": 46987}, {"name": "Vitomiricë", "country_iso2": "XK", "state": "Pejë", "is_capital": false, "latitude": 42.695, "longitude": 20.3386, "population": 14523}, {"name": "Vushtrri", "country_iso2": "XK", "state": "Vushtrri", "is_capital": true, "latitude": 42.8231, "longitude": 20.9675, "population": 69870}, {"name": "Zhur", "country_iso2": "XK", "state": "Prizren", "is_capital": false, "latitude": 42.1639, "longitude": 20.6211, "population": 8927}, {"name": "Zubin Potok", "country_iso2": "XK", "state": "Zubin Potok", "is_capital": true, "latitude": 42.9144, "longitude": 20.6897, "population": 15200}, {"name": "Zveçan", "country_iso2": "XK", "state": "Zveçan", "is_capital": true, "latitude": 42.9075, "longitude": 20.8403, "population": 16650}]