[{"name": "Abū Dīs", "country_iso2": "XW", "state": "", "is_capital": false, "latitude": 31.7622, "longitude": 35.2617, "population": 12251}, {"name": "Az̧ Z̧āhirīyah", "country_iso2": "XW", "state": "", "is_capital": false, "latitude": 31.4097, "longitude": 34.9733, "population": 35924}, {"name": "Bayt Jālā", "country_iso2": "XW", "state": "", "is_capital": false, "latitude": 31.7155, "longitude": 35.1879, "population": 13484}, {"name": "Bayt Sāḩūr", "country_iso2": "XW", "state": "", "is_capital": false, "latitude": 31.7009, "longitude": 35.2263, "population": 13281}, {"name": "Bayt Ūmmar", "country_iso2": "XW", "state": "", "is_capital": false, "latitude": 31.6233, "longitude": 35.1045, "population": 16977}, {"name": "Baytūnyā", "country_iso2": "XW", "state": "", "is_capital": false, "latitude": 31.8966, "longitude": 35.1705, "population": 26604}, {"name": "Bethlehem", "country_iso2": "XW", "state": "", "is_capital": false, "latitude": 31.7049, "longitude": 35.2038, "population": 28591}, {"name": "Hebron", "country_iso2": "XW", "state": "", "is_capital": false, "latitude": 31.5293, "longitude": 35.0938, "population": 201063}, {"name": "Idhnā", "country_iso2": "XW", "state": "", "is_capital": false, "latitude": 31.5587, "longitude": 34.9744, "population": 26009}, {"name": "Janīn", "country_iso2": "XW", "state": "", "is_capital": false, "latitude": 32.4594, "longitude": 35.3009, "population": 49908}, {"name": "Jericho", "country_iso2": "XW", "state": "", "is_capital": false, "latitude": 31.8571, "longitude": 35.4603, "population": 20907}, {"name": "Nāblus", "country_iso2": "XW", "state": "", "is_capital": false, "latitude": 32.2199, "longitude": 35.2636, "population": 156906}, {"name": "Qabāţīyah", "country_iso2": "XW", "state": "", "is_capital": false, "latitude": 32.4104, "longitude": 35.2809, "population": 24439}, {"name": "Qalqīlyah", "country_iso2": "XW", "state": "", "is_capital": false, "latitude": 32.1897, "longitude": 34.9706, "population": 51683}, {"name": "Ramallah", "country_iso2": "XW", "state": "", "is_capital": false, "latitude": 31.9026, "longitude": 35.1955, "population": 38998}, {"name": "Yattir", "country_iso2": "XW", "state": "", "is_capital": false, "latitude": 31.4333, "longitude": 35.0833, "population": 63511}, {"name": "Ya‘bad", "country_iso2": "XW", "state": "", "is_capital": false, "latitude": 32.4457, "longitude": 35.1682, "population": 16012}, {"name": "Ţūlkarm", "country_iso2": "XW", "state": "", "is_capital": false, "latitude": 32.3104, "longitude": 35.0286, "population": 64532}]