[{"name": "Ad Dīs", "country_iso2": "YE", "state": "Ḩaḑramawt", "is_capital": false, "latitude": 14.8833, "longitude": 49.8667, "population": 16614}, {"name": "Aden", "country_iso2": "YE", "state": "‘Adan", "is_capital": true, "latitude": 12.8, "longitude": 45.0333, "population": 863000}, {"name": "Al Bayḑā’", "country_iso2": "YE", "state": "Al Bayḑā’", "is_capital": true, "latitude": 13.979, "longitude": 45.574, "population": 37821}, {"name": "Al Ghayz̧ah", "country_iso2": "YE", "state": "Al Mahrah", "is_capital": true, "latitude": 16.2106, "longitude": 52.1711, "population": 10948}, {"name": "Al Jabīn", "country_iso2": "YE", "state": "Raymah", "is_capital": true, "latitude": 14.704, "longitude": 43.599, "population": null}, {"name": "Al Madad", "country_iso2": "YE", "state": "Aḑ Ḑāli‘", "is_capital": false, "latitude": 13.7167, "longitude": 44.7333, "population": 29853}, {"name": "Al Manşūrah", "country_iso2": "YE", "state": "‘Adan", "is_capital": false, "latitude": 12.8531, "longitude": 44.9722, "population": 114931}, {"name": "Al Maḩwīt", "country_iso2": "YE", "state": "Al Maḩwīt", "is_capital": true, "latitude": 15.4694, "longitude": 43.5453, "population": 16291}, {"name": "Al Ma‘allā’", "country_iso2": "YE", "state": "‘Adan", "is_capital": false, "latitude": 12.7897, "longitude": 45.0064, "population": 49891}, {"name": "Al Misrākh", "country_iso2": "YE", "state": "Ta‘izz", "is_capital": false, "latitude": 13.47, "longitude": 44.0375, "population": 112653}, {"name": "Al Mukallā", "country_iso2": "YE", "state": "Ḩaḑramawt", "is_capital": true, "latitude": 14.5333, "longitude": 49.1333, "population": 594951}, {"name": "Al Qā‘idah", "country_iso2": "YE", "state": "Ibb", "is_capital": false, "latitude": 13.7555, "longitude": 44.132, "population": 39254}, {"name": "Al Ḩazm", "country_iso2": "YE", "state": "Al Jawf", "is_capital": true, "latitude": 16.1642, "longitude": 44.7767, "population": 16044}, {"name": "Al Ḩudaydah", "country_iso2": "YE", "state": "Al Ḩudaydah", "is_capital": true, "latitude": 14.8022, "longitude": 42.9511, "population": 404062}, {"name": "Ash Shaykh ‘Uthmān", "country_iso2": "YE", "state": "‘Adan", "is_capital": false, "latitude": 12.8864, "longitude": 45.0156, "population": 105248}, {"name": "Ash Shiḩr", "country_iso2": "YE", "state": "Ḩaḑramawt", "is_capital": false, "latitude": 14.7608, "longitude": 49.6069, "population": 68313}, {"name": "At Tawāhī", "country_iso2": "YE", "state": "‘Adan", "is_capital": false, "latitude": 12.7833, "longitude": 44.9833, "population": 52984}, {"name": "Ataq", "country_iso2": "YE", "state": "Shabwah", "is_capital": true, "latitude": 14.5364, "longitude": 46.8331, "population": 37315}, {"name": "Az Zaydīyah", "country_iso2": "YE", "state": "Al Ḩudaydah", "is_capital": false, "latitude": 15.3292, "longitude": 43.0094, "population": 16246}, {"name": "Aḑ Ḑabyah", "country_iso2": "YE", "state": "Aḑ Ḑāli‘", "is_capital": false, "latitude": 13.6967, "longitude": 44.7308, "population": 21783}, {"name": "Aḑ Ḑāli‘", "country_iso2": "YE", "state": "Aḑ Ḑāli‘", "is_capital": true, "latitude": 13.6957, "longitude": 44.7314, "population": 21783}, {"name": "Bayt al Faqīh", "country_iso2": "YE", "state": "Al Ḩudaydah", "is_capital": false, "latitude": 14.5161, "longitude": 43.3244, "population": 41652}, {"name": "Bājil", "country_iso2": "YE", "state": "Al Ḩudaydah", "is_capital": false, "latitude": 15.059, "longitude": 43.2873, "population": 46005}, {"name": "Dammāj", "country_iso2": "YE", "state": "Şa‘dah", "is_capital": false, "latitude": 16.8939, "longitude": 43.8022, "population": 15626}, {"name": "Dhamār", "country_iso2": "YE", "state": "Dhamār", "is_capital": true, "latitude": 14.55, "longitude": 44.4017, "population": 146346}, {"name": "Ibb", "country_iso2": "YE", "state": "Ibb", "is_capital": false, "latitude": 13.9759, "longitude": 44.1709, "population": 234837}, {"name": "Ibb", "country_iso2": "YE", "state": "Ibb", "is_capital": true, "latitude": 13.9667, "longitude": 44.1667, "population": 221472}, {"name": "Ja‘ār", "country_iso2": "YE", "state": "Abyan", "is_capital": false, "latitude": 13.2231, "longitude": 45.3056, "population": 29495}, {"name": "Jiblah", "country_iso2": "YE", "state": "Ibb", "is_capital": false, "latitude": 13.9167, "longitude": 44.15, "population": 15431}, {"name": "Khamir", "country_iso2": "YE", "state": "‘Amrān", "is_capital": false, "latitude": 15.9889, "longitude": 43.9589, "population": 18645}, {"name": "Laḩij", "country_iso2": "YE", "state": "Laḩij", "is_capital": true, "latitude": 13.05, "longitude": 44.8833, "population": 30661}, {"name": "Marib", "country_iso2": "YE", "state": "Ma’rib", "is_capital": true, "latitude": 15.4606, "longitude": 45.3261, "population": 16794}, {"name": "Ma‘bar", "country_iso2": "YE", "state": "Dhamār", "is_capital": false, "latitude": 14.794, "longitude": 44.2935, "population": 24707}, {"name": "Mocha", "country_iso2": "YE", "state": "Ta‘izz", "is_capital": false, "latitude": 13.3203, "longitude": 43.25, "population": 16794}, {"name": "Radā‘", "country_iso2": "YE", "state": "Al Bayḑā’", "is_capital": false, "latitude": 14.4151, "longitude": 44.8371, "population": 45233}, {"name": "Raydah", "country_iso2": "YE", "state": "‘Amrān", "is_capital": false, "latitude": 15.8233, "longitude": 44.0386, "population": 13971}, {"name": "Sanaa", "country_iso2": "YE", "state": "Amānat al ‘Āşimah", "is_capital": true, "latitude": 15.3483, "longitude": 44.2064, "population": 2545000}, {"name": "Say’ūn", "country_iso2": "YE", "state": "Ḩaḑramawt", "is_capital": false, "latitude": 15.943, "longitude": 48.7873, "population": 68747}, {"name": "Tarīm", "country_iso2": "YE", "state": "Ḩaḑramawt", "is_capital": false, "latitude": 16.05, "longitude": 49.0, "population": 58523}, {"name": "Ta‘izz", "country_iso2": "YE", "state": "Ta‘izz", "is_capital": true, "latitude": 13.5789, "longitude": 44.0219, "population": 458789}, {"name": "Yarīm", "country_iso2": "YE", "state": "Ibb", "is_capital": false, "latitude": 14.2972, "longitude": 44.3803, "population": 46964}, {"name": "Zabīd", "country_iso2": "YE", "state": "Al Ḩudaydah", "is_capital": false, "latitude": 14.2, "longitude": 43.3167, "population": 50781}, {"name": "Zinjibār", "country_iso2": "YE", "state": "Abyan", "is_capital": true, "latitude": 13.1283, "longitude": 45.3803, "population": 19879}, {"name": "Şa‘dah", "country_iso2": "YE", "state": "Şa‘dah", "is_capital": true, "latitude": 16.94, "longitude": 43.7592, "population": 51870}, {"name": "Ḩadībū", "country_iso2": "YE", "state": "Arkhabīl Suquţrá", "is_capital": true, "latitude": 12.65, "longitude": 54.0167, "population": 8545}, {"name": "Ḩajjah", "country_iso2": "YE", "state": "Ḩajjah", "is_capital": true, "latitude": 15.695, "longitude": 43.5975, "population": 53887}, {"name": "‘Amrān", "country_iso2": "YE", "state": "‘Amrān", "is_capital": true, "latitude": 15.6594, "longitude": 43.9439, "population": null}]