[{"name": "Acornhoek", "country_iso2": "ZA", "state": "Limpopo", "is_capital": false, "latitude": -24.593, "longitude": 31.097, "population": 33529}, {"name": "Adelaide", "country_iso2": "ZA", "state": "Eastern Cape", "is_capital": false, "latitude": -32.7078, "longitude": 26.2956, "population": 12191}, {"name": "Alberton", "country_iso2": "ZA", "state": "Gauteng", "is_capital": false, "latitude": -26.2672, "longitude": 28.1219, "population": 121536}, {"name": "Alexander Bay", "country_iso2": "ZA", "state": "Northern Cape", "is_capital": false, "latitude": -28.6083, "longitude": 16.5033, "population": 1500}, {"name": "Alexandria", "country_iso2": "ZA", "state": "Eastern Cape", "is_capital": false, "latitude": -33.6533, "longitude": 26.4083, "population": 10085}, {"name": "Alice", "country_iso2": "ZA", "state": "Eastern Cape", "is_capital": false, "latitude": -32.7892, "longitude": 26.835, "population": 15143}, {"name": "Aliwal North", "country_iso2": "ZA", "state": "Eastern Cape", "is_capital": false, "latitude": -30.7, "longitude": 26.7, "population": 3992}, {"name": "Allanridge", "country_iso2": "ZA", "state": "Free State", "is_capital": false, "latitude": -27.7544, "longitude": 26.6367, "population": 19337}, {"name": "Amersfoort", "country_iso2": "ZA", "state": "Mpumalanga", "is_capital": false, "latitude": -27.0078, "longitude": 29.8711, "population": 12335}, {"name": "Ashton", "country_iso2": "ZA", "state": "Western Cape", "is_capital": false, "latitude": -33.8347, "longitude": 20.0547, "population": 13325}, {"name": "Ballitoville", "country_iso2": "ZA", "state": "KwaZulu-Natal", "is_capital": false, "latitude": -29.5333, "longitude": 31.2167, "population": 19234}, {"name": "Barberton", "country_iso2": "ZA", "state": "Mpumalanga", "is_capital": false, "latitude": -25.7861, "longitude": 31.0531, "population": 11997}, {"name": "Barkly East", "country_iso2": "ZA", "state": "Eastern Cape", "is_capital": false, "latitude": -30.9681, "longitude": 27.5933, "population": 9986}, {"name": "Barkly West", "country_iso2": "ZA", "state": "Northern Cape", "is_capital": false, "latitude": -28.5381, "longitude": 24.5186, "population": 20105}, {"name": "Beaufort West", "country_iso2": "ZA", "state": "Western Cape", "is_capital": false, "latitude": -32.35, "longitude": 22.5833, "population": 34085}, {"name": "Bedfordview", "country_iso2": "ZA", "state": "Gauteng", "is_capital": false, "latitude": -26.1794, "longitude": 28.1361, "population": 13959}, {"name": "Benoni", "country_iso2": "ZA", "state": "Gauteng", "is_capital": false, "latitude": -26.1883, "longitude": 28.3206, "population": 158777}, {"name": "Bethal", "country_iso2": "ZA", "state": "Mpumalanga", "is_capital": false, "latitude": -26.45, "longitude": 29.45, "population": 60779}, {"name": "Bethelsdorp", "country_iso2": "ZA", "state": "Eastern Cape", "is_capital": false, "latitude": -33.8833, "longitude": 25.5, "population": 182012}, {"name": "Bethlehem", "country_iso2": "ZA", "state": "Free State", "is_capital": false, "latitude": -28.224, "longitude": 28.311, "population": 16236}, {"name": "Bethulie", "country_iso2": "ZA", "state": "Free State", "is_capital": false, "latitude": -30.4667, "longitude": 25.9667, "population": 16000}, {"name": "Bhisho", "country_iso2": "ZA", "state": "Eastern Cape", "is_capital": true, "latitude": -32.8494, "longitude": 27.4381, "population": 11192}, {"name": "Bloemfontein", "country_iso2": "ZA", "state": "Free State", "is_capital": true, "latitude": -29.1167, "longitude": 26.2167, "population": 256185}, {"name": "Bloemhof", "country_iso2": "ZA", "state": "North West", "is_capital": false, "latitude": -27.65, "longitude": 25.59, "population": 2339}, {"name": "Boekenhouthoek", "country_iso2": "ZA", "state": "Mpumalanga", "is_capital": false, "latitude": -25.303, "longitude": 29.015, "population": 9166}, {"name": "Boksburg", "country_iso2": "ZA", "state": "Gauteng", "is_capital": false, "latitude": -26.2125, "longitude": 28.2625, "population": 260321}, {"name": "Bonnievale", "country_iso2": "ZA", "state": "Western Cape", "is_capital": false, "latitude": -33.9275, "longitude": 20.1006, "population": 9092}, {"name": "Boshof", "country_iso2": "ZA", "state": "Free State", "is_capital": false, "latitude": -28.55, "longitude": 25.2333, "population": 8509}, {"name": "Bothaville", "country_iso2": "ZA", "state": "Free State", "is_capital": false, "latitude": -27.3833, "longitude": 26.6167, "population": 46030}, {"name": "Brakpan", "country_iso2": "ZA", "state": "Gauteng", "is_capital": false, "latitude": -26.2353, "longitude": 28.37, "population": 73080}, {"name": "Brandfort", "country_iso2": "ZA", "state": "Free State", "is_capital": false, "latitude": -28.7014, "longitude": 26.4589, "population": 3143}, {"name": "Bredasdorp", "country_iso2": "ZA", "state": "Western Cape", "is_capital": false, "latitude": -34.5333, "longitude": 20.0417, "population": 15524}, {"name": "Breyten", "country_iso2": "ZA", "state": "Mpumalanga", "is_capital": false, "latitude": -26.3, "longitude": 29.9833, "population": 14347}, {"name": "Brits", "country_iso2": "ZA", "state": "North West", "is_capital": false, "latitude": -25.6344, "longitude": 27.7811, "population": 53511}, {"name": "Buffelshoek", "country_iso2": "ZA", "state": "Limpopo", "is_capital": false, "latitude": -24.6308, "longitude": 31.1383, "population": 12703}, {"name": "Bultfontein", "country_iso2": "ZA", "state": "Free State", "is_capital": false, "latitude": -28.2869, "longitude": 26.1506, "population": 23365}, {"name": "Caledon", "country_iso2": "ZA", "state": "Western Cape", "is_capital": false, "latitude": -34.23, "longitude": 19.4283, "population": 13020}, {"name": "Cape Town", "country_iso2": "ZA", "state": "Western Cape", "is_capital": true, "latitude": -33.9253, "longitude": 18.4239, "population": 4770313}, {"name": "Carletonville", "country_iso2": "ZA", "state": "Gauteng", "is_capital": false, "latitude": -26.3581, "longitude": 27.3981, "population": 23000}, {"name": "Carnarvon", "country_iso2": "ZA", "state": "Northern Cape", "is_capital": false, "latitude": -30.9667, "longitude": 22.1333, "population": 6612}, {"name": "Casteel", "country_iso2": "ZA", "state": "Mpumalanga", "is_capital": false, "latitude": -24.7247, "longitude": 31.0201, "population": 12752}, {"name": "Centurion", "country_iso2": "ZA", "state": "Gauteng", "is_capital": false, "latitude": -25.8603, "longitude": 28.1894, "population": 236580}, {"name": "Ceres", "country_iso2": "ZA", "state": "Western Cape", "is_capital": false, "latitude": -33.3667, "longitude": 19.3167, "population": 33224}, {"name": "Cofimvaba", "country_iso2": "ZA", "state": "Eastern Cape", "is_capital": false, "latitude": -32.0025, "longitude": 27.5806, "population": 8783}, {"name": "Colesberg", "country_iso2": "ZA", "state": "Northern Cape", "is_capital": false, "latitude": -30.7167, "longitude": 25.1, "population": 16869}, {"name": "Cradock", "country_iso2": "ZA", "state": "Eastern Cape", "is_capital": false, "latitude": -32.165, "longitude": 25.6175, "population": 8626}, {"name": "Cullinan", "country_iso2": "ZA", "state": "Gauteng", "is_capital": false, "latitude": -25.6728, "longitude": 28.5208, "population": 8693}, {"name": "Daniëlskuil", "country_iso2": "ZA", "state": "Northern Cape", "is_capital": false, "latitude": -28.2, "longitude": 23.5833, "population": 13597}, {"name": "De Aar", "country_iso2": "ZA", "state": "Northern Cape", "is_capital": false, "latitude": -30.65, "longitude": 24.0167, "population": 23760}, {"name": "De Doorns", "country_iso2": "ZA", "state": "Western Cape", "is_capital": false, "latitude": -33.4833, "longitude": 19.6833, "population": 11278}, {"name": "Delareyville", "country_iso2": "ZA", "state": "North West", "is_capital": false, "latitude": -26.6833, "longitude": 25.4667, "population": 10630}, {"name": "Delportshoop", "country_iso2": "ZA", "state": "Northern Cape", "is_capital": false, "latitude": -28.4167, "longitude": 24.3, "population": 10346}, {"name": "Deneysville", "country_iso2": "ZA", "state": "Free State", "is_capital": false, "latitude": -26.895, "longitude": 28.0983, "population": 19479}, {"name": "Despatch", "country_iso2": "ZA", "state": "Eastern Cape", "is_capital": false, "latitude": -33.8015, "longitude": 25.4768, "population": 39619}, {"name": "Dinokana", "country_iso2": "ZA", "state": "North West", "is_capital": false, "latitude": -25.447, "longitude": 25.863, "population": 26409}, {"name": "Doornkop", "country_iso2": "ZA", "state": "Gauteng", "is_capital": false, "latitude": -26.2328, "longitude": 27.7833, "population": 8740}, {"name": "Douglas", "country_iso2": "ZA", "state": "Northern Cape", "is_capital": false, "latitude": -29.05, "longitude": 23.7667, "population": 20083}, {"name": "Dundee", "country_iso2": "ZA", "state": "KwaZulu-Natal", "is_capital": false, "latitude": -28.1725, "longitude": 30.2314, "population": 34924}, {"name": "Durban", "country_iso2": "ZA", "state": "KwaZulu-Natal", "is_capital": false, "latitude": -29.8833, "longitude": 31.05, "population": 838634}, {"name": "Dysselsdorp", "country_iso2": "ZA", "state": "Western Cape", "is_capital": false, "latitude": -33.5667, "longitude": 22.4333, "population": 12544}, {"name": "East London", "country_iso2": "ZA", "state": "Eastern Cape", "is_capital": false, "latitude": -33.0175, "longitude": 27.9047, "population": 267007}, {"name": "Edenburg", "country_iso2": "ZA", "state": "Free State", "is_capital": false, "latitude": -29.7347, "longitude": 25.9369, "population": 14566}, {"name": "Edenvale", "country_iso2": "ZA", "state": "Gauteng", "is_capital": false, "latitude": -26.1411, "longitude": 28.1528, "population": 49292}, {"name": "Ekuvukeni", "country_iso2": "ZA", "state": "KwaZulu-Natal", "is_capital": false, "latitude": -28.466, "longitude": 30.157, "population": 11018}, {"name": "Elandsdoorn", "country_iso2": "ZA", "state": "Mpumalanga", "is_capital": false, "latitude": -25.288, "longitude": 29.196, "population": 12941}, {"name": "Empangeni", "country_iso2": "ZA", "state": "KwaZulu-Natal", "is_capital": false, "latitude": -28.75, "longitude": 31.9, "population": 110340}, {"name": "Ermelo", "country_iso2": "ZA", "state": "Mpumalanga", "is_capital": false, "latitude": -26.5333, "longitude": 29.9833, "population": 83865}, {"name": "Eshowe", "country_iso2": "ZA", "state": "KwaZulu-Natal", "is_capital": false, "latitude": -28.8883, "longitude": 31.4483, "population": 14744}, {"name": "Estcourt", "country_iso2": "ZA", "state": "KwaZulu-Natal", "is_capital": false, "latitude": -29.0, "longitude": 29.8833, "population": 22071}, {"name": "Evander", "country_iso2": "ZA", "state": "Mpumalanga", "is_capital": false, "latitude": -26.4719, "longitude": 29.11, "population": 10166}, {"name": "Fochville", "country_iso2": "ZA", "state": "North West", "is_capital": false, "latitude": -26.4833, "longitude": 27.4833, "population": 9497}, {"name": "Fort Beaufort", "country_iso2": "ZA", "state": "Eastern Cape", "is_capital": false, "latitude": -32.7789, "longitude": 26.6353, "population": 25668}, {"name": "Fouriesburg", "country_iso2": "ZA", "state": "Free State", "is_capital": false, "latitude": -28.6227, "longitude": 28.2109, "population": 19425}, {"name": "Frankfort", "country_iso2": "ZA", "state": "Free State", "is_capital": false, "latitude": -27.2833, "longitude": 28.5167, "population": 26144}, {"name": "Ga-Kgapane", "country_iso2": "ZA", "state": "Limpopo", "is_capital": false, "latitude": -23.649, "longitude": 30.226, "population": 9879}, {"name": "Gansbaai", "country_iso2": "ZA", "state": "Western Cape", "is_capital": false, "latitude": -34.5828, "longitude": 19.3522, "population": 11598}, {"name": "Ganyesa", "country_iso2": "ZA", "state": "North West", "is_capital": false, "latitude": -26.5908, "longitude": 24.1594, "population": 19290}, {"name": "Garsfontein", "country_iso2": "ZA", "state": "Gauteng", "is_capital": false, "latitude": -25.7913, "longitude": 28.2935, "population": 19501}, {"name": "George", "country_iso2": "ZA", "state": "Western Cape", "is_capital": false, "latitude": -33.9667, "longitude": 22.45, "population": 157394}, {"name": "Germiston", "country_iso2": "ZA", "state": "Gauteng", "is_capital": false, "latitude": -26.2178, "longitude": 28.1672, "population": 255863}, {"name": "Gillitts", "country_iso2": "ZA", "state": "KwaZulu-Natal", "is_capital": false, "latitude": -29.7972, "longitude": 30.7944, "population": 8661}, {"name": "Giyani", "country_iso2": "ZA", "state": "Limpopo", "is_capital": false, "latitude": -23.31, "longitude": 30.7064, "population": 25954}, {"name": "Glencoe", "country_iso2": "ZA", "state": "KwaZulu-Natal", "is_capital": false, "latitude": -28.1833, "longitude": 30.15, "population": 17548}, {"name": "Gonubie", "country_iso2": "ZA", "state": "Eastern Cape", "is_capital": false, "latitude": -32.943, "longitude": 28.008, "population": 11471}, {"name": "Gqeberha", "country_iso2": "ZA", "state": "Eastern Cape", "is_capital": false, "latitude": -33.9581, "longitude": 25.6, "population": 967677}, {"name": "Gqeberha", "country_iso2": "ZA", "state": "Eastern Cape", "is_capital": false, "latitude": -33.9681, "longitude": 25.5981, "population": null}, {"name": "Graaff-Reinet", "country_iso2": "ZA", "state": "Eastern Cape", "is_capital": false, "latitude": -32.2522, "longitude": 24.5406, "population": 35672}, {"name": "Grabouw", "country_iso2": "ZA", "state": "Western Cape", "is_capital": false, "latitude": -34.15, "longitude": 19.0167, "population": 44593}, {"name": "Grahamstown", "country_iso2": "ZA", "state": "Eastern Cape", "is_capital": false, "latitude": -33.2996, "longitude": 26.52, "population": 91548}, {"name": "Greytown", "country_iso2": "ZA", "state": "KwaZulu-Natal", "is_capital": false, "latitude": -29.0667, "longitude": 30.5833, "population": 9090}, {"name": "Groot-Brakrivier", "country_iso2": "ZA", "state": "Western Cape", "is_capital": false, "latitude": -34.0425, "longitude": 22.2314, "population": 10619}, {"name": "Groutville", "country_iso2": "ZA", "state": "KwaZulu-Natal", "is_capital": false, "latitude": -29.388, "longitude": 31.245, "population": 12638}, {"name": "Hammanskraal", "country_iso2": "ZA", "state": "North West", "is_capital": false, "latitude": -25.4, "longitude": 28.2833, "population": 21345}, {"name": "Hankey", "country_iso2": "ZA", "state": "Eastern Cape", "is_capital": false, "latitude": -33.8314, "longitude": 24.8808, "population": 11761}, {"name": "Harding", "country_iso2": "ZA", "state": "KwaZulu-Natal", "is_capital": false, "latitude": -30.5833, "longitude": 29.8833, "population": 9544}, {"name": "Harrismith", "country_iso2": "ZA", "state": "Free State", "is_capital": false, "latitude": -28.2833, "longitude": 29.1333, "population": 52765}, {"name": "Hartbeespoort", "country_iso2": "ZA", "state": "North West", "is_capital": false, "latitude": -25.7442, "longitude": 27.8994, "population": 22374}, {"name": "Hartswater", "country_iso2": "ZA", "state": "Northern Cape", "is_capital": false, "latitude": -27.7667, "longitude": 24.8167, "population": 10465}, {"name": "Heilbron", "country_iso2": "ZA", "state": "Free State", "is_capital": false, "latitude": -27.2836, "longitude": 27.9708, "population": 27407}, {"name": "Hennenman", "country_iso2": "ZA", "state": "Free State", "is_capital": false, "latitude": -27.9667, "longitude": 27.0333, "population": 24355}, {"name": "Hermanus", "country_iso2": "ZA", "state": "Western Cape", "is_capital": false, "latitude": -34.4167, "longitude": 19.25, "population": 5610}, {"name": "Hertzogville", "country_iso2": "ZA", "state": "Free State", "is_capital": false, "latitude": -28.1333, "longitude": 25.5, "population": 9423}, {"name": "Hillcrest", "country_iso2": "ZA", "state": "KwaZulu-Natal", "is_capital": false, "latitude": -29.78, "longitude": 30.7628, "population": 13329}, {"name": "Hoopstad", "country_iso2": "ZA", "state": "Free State", "is_capital": false, "latitude": -27.8333, "longitude": 25.9167, "population": 89917}, {"name": "Hopetown", "country_iso2": "ZA", "state": "Northern Cape", "is_capital": false, "latitude": -29.6258, "longitude": 24.0856, "population": 10259}, {"name": "Howick", "country_iso2": "ZA", "state": "KwaZulu-Natal", "is_capital": false, "latitude": -29.4667, "longitude": 30.2333, "population": 21639}, {"name": "Humansdorp", "country_iso2": "ZA", "state": "Eastern Cape", "is_capital": false, "latitude": -34.0333, "longitude": 24.7667, "population": 28990}, {"name": "Indwe", "country_iso2": "ZA", "state": "Eastern Cape", "is_capital": false, "latitude": -31.466, "longitude": 27.333, "population": 20000}, {"name": "Itsoseng", "country_iso2": "ZA", "state": "North West", "is_capital": false, "latitude": -26.083, "longitude": 25.882, "population": 19959}, {"name": "Jan Kempdorp", "country_iso2": "ZA", "state": "North West", "is_capital": false, "latitude": -27.9194, "longitude": 24.8361, "population": 24220}, {"name": "Jeffrey’s Bay", "country_iso2": "ZA", "state": "Eastern Cape", "is_capital": false, "latitude": -34.0333, "longitude": 24.9167, "population": 27107}, {"name": "Jeppe’s Reef", "country_iso2": "ZA", "state": "Mpumalanga", "is_capital": false, "latitude": -25.72, "longitude": 31.477, "population": 12589}, {"name": "Johannesburg", "country_iso2": "ZA", "state": "Gauteng", "is_capital": true, "latitude": -26.2044, "longitude": 28.0456, "population": 7860781}, {"name": "Ka-Bungeni", "country_iso2": "ZA", "state": "Limpopo", "is_capital": false, "latitude": -23.206, "longitude": 30.224, "population": 23000}, {"name": "Kakamas", "country_iso2": "ZA", "state": "Northern Cape", "is_capital": false, "latitude": -28.8, "longitude": 20.65, "population": 9538}, {"name": "Kathu", "country_iso2": "ZA", "state": "Northern Cape", "is_capital": false, "latitude": -27.7, "longitude": 23.05, "population": 11510}, {"name": "Katlehong", "country_iso2": "ZA", "state": "Gauteng", "is_capital": false, "latitude": -26.3333, "longitude": 28.15, "population": 467890}, {"name": "Keimoes", "country_iso2": "ZA", "state": "Northern Cape", "is_capital": false, "latitude": -28.7, "longitude": 20.9667, "population": 12000}, {"name": "Kempton Park", "country_iso2": "ZA", "state": "Gauteng", "is_capital": false, "latitude": -26.1, "longitude": 28.2333, "population": 171575}, {"name": "Khayelitsha", "country_iso2": "ZA", "state": "Western Cape", "is_capital": false, "latitude": -34.0403, "longitude": 18.6778, "population": 391749}, {"name": "Kimberley", "country_iso2": "ZA", "state": "Northern Cape", "is_capital": true, "latitude": -28.7383, "longitude": 24.7639, "population": 96977}, {"name": "Kingsborough", "country_iso2": "ZA", "state": "KwaZulu-Natal", "is_capital": false, "latitude": -30.0833, "longitude": 30.8667, "population": 16368}, {"name": "Kinross", "country_iso2": "ZA", "state": "Mpumalanga", "is_capital": false, "latitude": -26.4167, "longitude": 29.0833, "population": 15246}, {"name": "Kirkwood", "country_iso2": "ZA", "state": "Eastern Cape", "is_capital": false, "latitude": -33.4003, "longitude": 25.4425, "population": 13765}, {"name": "Klerksdorp", "country_iso2": "ZA", "state": "North West", "is_capital": false, "latitude": -26.8667, "longitude": 26.6667, "population": 186515}, {"name": "Kloof", "country_iso2": "ZA", "state": "KwaZulu-Natal", "is_capital": false, "latitude": -29.7833, "longitude": 30.8333, "population": 29704}, {"name": "Knysna", "country_iso2": "ZA", "state": "Western Cape", "is_capital": false, "latitude": -34.0356, "longitude": 23.0489, "population": 76150}, {"name": "Koffiefontein", "country_iso2": "ZA", "state": "Free State", "is_capital": false, "latitude": -29.4081, "longitude": 25.0022, "population": 10402}, {"name": "Kokstad", "country_iso2": "ZA", "state": "KwaZulu-Natal", "is_capital": false, "latitude": -30.5539, "longitude": 29.4269, "population": 51561}, {"name": "Koloti", "country_iso2": "ZA", "state": "Limpopo", "is_capital": false, "latitude": -23.746, "longitude": 29.307, "population": 9953}, {"name": "Komatipoort", "country_iso2": "ZA", "state": "Mpumalanga", "is_capital": false, "latitude": -25.4333, "longitude": 31.95, "population": 4683}, {"name": "Koppies", "country_iso2": "ZA", "state": "Free State", "is_capital": false, "latitude": -27.2333, "longitude": 27.5833, "population": 13803}, {"name": "Kraaipan", "country_iso2": "ZA", "state": "North West", "is_capital": false, "latitude": -26.294, "longitude": 25.297, "population": 9933}, {"name": "Kriel", "country_iso2": "ZA", "state": "Mpumalanga", "is_capital": false, "latitude": -26.255, "longitude": 29.263, "population": 15237}, {"name": "Kroonstad", "country_iso2": "ZA", "state": "Free State", "is_capital": false, "latitude": -27.65, "longitude": 27.2333, "population": 168762}, {"name": "Krugersdorp", "country_iso2": "ZA", "state": "Gauteng", "is_capital": false, "latitude": -26.1, "longitude": 27.7667, "population": 140643}, {"name": "Kuilsrivier", "country_iso2": "ZA", "state": "Western Cape", "is_capital": false, "latitude": -33.9414, "longitude": 18.7066, "population": 46685}, {"name": "Kuruman", "country_iso2": "ZA", "state": "Northern Cape", "is_capital": false, "latitude": -27.45, "longitude": 23.4333, "population": 13057}, {"name": "KwaDukuza", "country_iso2": "ZA", "state": "KwaZulu-Natal", "is_capital": false, "latitude": -29.3333, "longitude": 31.2917, "population": 101224}, {"name": "Kwaggafontein", "country_iso2": "ZA", "state": "Mpumalanga", "is_capital": false, "latitude": -25.3075, "longitude": 28.9469, "population": 45104}, {"name": "Kwamhlanga", "country_iso2": "ZA", "state": "Gauteng", "is_capital": false, "latitude": -25.432, "longitude": 28.708, "population": 69853}, {"name": "Ladysmith", "country_iso2": "ZA", "state": "KwaZulu-Natal", "is_capital": false, "latitude": -28.5597, "longitude": 29.7806, "population": 64855}, {"name": "Langeloop", "country_iso2": "ZA", "state": "Mpumalanga", "is_capital": false, "latitude": -25.684, "longitude": 31.635, "population": 11122}, {"name": "Lebowakgomo", "country_iso2": "ZA", "state": "Limpopo", "is_capital": false, "latitude": -24.305, "longitude": 29.565, "population": 35087}, {"name": "Lenyenye", "country_iso2": "ZA", "state": "Limpopo", "is_capital": false, "latitude": -23.972, "longitude": 30.269, "population": 12099}, {"name": "Lichtenburg", "country_iso2": "ZA", "state": "North West", "is_capital": false, "latitude": -26.15, "longitude": 26.1667, "population": 26338}, {"name": "Louis Trichardt", "country_iso2": "ZA", "state": "Limpopo", "is_capital": false, "latitude": -23.05, "longitude": 29.9, "population": 25360}, {"name": "Lydenburg", "country_iso2": "ZA", "state": "Mpumalanga", "is_capital": false, "latitude": -25.096, "longitude": 30.446, "population": 37258}, {"name": "Mabeskraal", "country_iso2": "ZA", "state": "North West", "is_capital": false, "latitude": -25.196, "longitude": 26.803, "population": 9282}, {"name": "Machadodorp", "country_iso2": "ZA", "state": "Mpumalanga", "is_capital": false, "latitude": -25.6667, "longitude": 30.25, "population": 8835}, {"name": "Mahikeng", "country_iso2": "ZA", "state": "North West", "is_capital": true, "latitude": -25.8656, "longitude": 25.6436, "population": 291527}, {"name": "Makan", "country_iso2": "ZA", "state": "North West", "is_capital": false, "latitude": -25.605, "longitude": 27.91, "population": 36605}, {"name": "Makapanstad", "country_iso2": "ZA", "state": "North West", "is_capital": false, "latitude": -25.239, "longitude": 28.116, "population": 15076}, {"name": "Makwassie", "country_iso2": "ZA", "state": "North West", "is_capital": false, "latitude": -27.3167, "longitude": 25.9833, "population": 13351}, {"name": "Malmesbury", "country_iso2": "ZA", "state": "Western Cape", "is_capital": false, "latitude": -33.45, "longitude": 18.7333, "population": 35897}, {"name": "Mankoeng", "country_iso2": "ZA", "state": "Limpopo", "is_capital": false, "latitude": -23.886, "longitude": 29.718, "population": 33738}, {"name": "Margate", "country_iso2": "ZA", "state": "KwaZulu-Natal", "is_capital": false, "latitude": -30.85, "longitude": 30.3667, "population": 26785}, {"name": "Matatiele", "country_iso2": "ZA", "state": "KwaZulu-Natal", "is_capital": false, "latitude": -30.3422, "longitude": 28.8061, "population": 12466}, {"name": "Mathibestad", "country_iso2": "ZA", "state": "North West", "is_capital": false, "latitude": -25.276, "longitude": 28.178, "population": 25945}, {"name": "Mbuzini", "country_iso2": "ZA", "state": "Mpumalanga", "is_capital": false, "latitude": -25.9333, "longitude": 31.9333, "population": 9070}, {"name": "Meyerton", "country_iso2": "ZA", "state": "Gauteng", "is_capital": false, "latitude": -26.5583, "longitude": 28.0197, "population": 55283}, {"name": "Middelburg", "country_iso2": "ZA", "state": "Mpumalanga", "is_capital": false, "latitude": -25.7681, "longitude": 29.4547, "population": 87348}, {"name": "Middelburg", "country_iso2": "ZA", "state": "Eastern Cape", "is_capital": false, "latitude": -31.4939, "longitude": 25.0172, "population": 18681}, {"name": "Midrand", "country_iso2": "ZA", "state": "Gauteng", "is_capital": false, "latitude": -25.9992, "longitude": 28.1264, "population": 87387}, {"name": "Mitchells Plain", "country_iso2": "ZA", "state": "Western Cape", "is_capital": false, "latitude": -34.0506, "longitude": 18.6181, "population": 310485}, {"name": "Mmabatho", "country_iso2": "ZA", "state": "North West", "is_capital": false, "latitude": -25.85, "longitude": 25.6333, "population": 38297}, {"name": "Mogogelo", "country_iso2": "ZA", "state": "North West", "is_capital": false, "latitude": -25.354, "longitude": 28.138, "population": 11425}, {"name": "Mogwase", "country_iso2": "ZA", "state": "North West", "is_capital": false, "latitude": -25.276, "longitude": 27.216, "population": 10743}, {"name": "Molteno", "country_iso2": "ZA", "state": "Eastern Cape", "is_capital": false, "latitude": -31.3961, "longitude": 26.3631, "population": 11553}, {"name": "Mondlo", "country_iso2": "ZA", "state": "KwaZulu-Natal", "is_capital": false, "latitude": -27.967, "longitude": 30.722, "population": 28871}, {"name": "Montagu", "country_iso2": "ZA", "state": "Western Cape", "is_capital": false, "latitude": -33.7833, "longitude": 20.1167, "population": 15176}, {"name": "Mooirivier", "country_iso2": "ZA", "state": "KwaZulu-Natal", "is_capital": false, "latitude": -29.2, "longitude": 29.9833, "population": 17779}, {"name": "Morokweng", "country_iso2": "ZA", "state": "North West", "is_capital": false, "latitude": -26.127, "longitude": 23.775, "population": 14260}, {"name": "Mossel Bay", "country_iso2": "ZA", "state": "Western Cape", "is_capital": false, "latitude": -34.1833, "longitude": 22.1333, "population": 99000}, {"name": "Mount Fletcher", "country_iso2": "ZA", "state": "Eastern Cape", "is_capital": false, "latitude": -30.692, "longitude": 28.503, "population": 11488}, {"name": "Mpophomeni", "country_iso2": "ZA", "state": "KwaZulu-Natal", "is_capital": false, "latitude": -29.567, "longitude": 30.182, "population": 25732}, {"name": "Mthatha", "country_iso2": "ZA", "state": "Eastern Cape", "is_capital": false, "latitude": -31.5886, "longitude": 28.79, "population": 96114}, {"name": "Mtubatuba", "country_iso2": "ZA", "state": "KwaZulu-Natal", "is_capital": false, "latitude": -28.4167, "longitude": 32.1833, "population": 27237}, {"name": "Musina", "country_iso2": "ZA", "state": "Limpopo", "is_capital": false, "latitude": -22.3381, "longitude": 30.0417, "population": 42678}, {"name": "Namakgale", "country_iso2": "ZA", "state": "Limpopo", "is_capital": false, "latitude": -23.938, "longitude": 31.028, "population": 36365}, {"name": "Ncora", "country_iso2": "ZA", "state": "Eastern Cape", "is_capital": false, "latitude": -31.7938, "longitude": 27.7579, "population": 9755}, {"name": "Nelspruit", "country_iso2": "ZA", "state": "Mpumalanga", "is_capital": true, "latitude": -25.4745, "longitude": 30.9703, "population": null}, {"name": "New Germany", "country_iso2": "ZA", "state": "KwaZulu-Natal", "is_capital": false, "latitude": -29.8, "longitude": 30.8833, "population": 12592}, {"name": "Newcastle", "country_iso2": "ZA", "state": "KwaZulu-Natal", "is_capital": false, "latitude": -27.7464, "longitude": 29.9328, "population": 507710}, {"name": "Nigel", "country_iso2": "ZA", "state": "Gauteng", "is_capital": false, "latitude": -26.4203, "longitude": 28.4683, "population": 38318}, {"name": "Nkowakowa", "country_iso2": "ZA", "state": "Limpopo", "is_capital": false, "latitude": -23.886, "longitude": 30.293, "population": 22484}, {"name": "Nqutu", "country_iso2": "ZA", "state": "KwaZulu-Natal", "is_capital": false, "latitude": -28.232, "longitude": 30.566, "population": 170307}, {"name": "Odendaalsrus", "country_iso2": "ZA", "state": "Free State", "is_capital": false, "latitude": -27.8667, "longitude": 26.6833, "population": 63743}, {"name": "Okkerneutboom", "country_iso2": "ZA", "state": "Limpopo", "is_capital": false, "latitude": -24.595, "longitude": 31.139, "population": 13324}, {"name": "Olifantshoek", "country_iso2": "ZA", "state": "Northern Cape", "is_capital": false, "latitude": -27.9333, "longitude": 22.7333, "population": 10233}, {"name": "Onverwacht", "country_iso2": "ZA", "state": "Limpopo", "is_capital": false, "latitude": -23.685, "longitude": 27.696, "population": 9502}, {"name": "Orkney", "country_iso2": "ZA", "state": "North West", "is_capital": false, "latitude": -26.9789, "longitude": 26.6692, "population": 13435}, {"name": "Oudtshoorn", "country_iso2": "ZA", "state": "Western Cape", "is_capital": false, "latitude": -33.5833, "longitude": 22.2, "population": 61507}, {"name": "Paarl", "country_iso2": "ZA", "state": "Western Cape", "is_capital": false, "latitude": -33.7242, "longitude": 18.9558, "population": 294457}, {"name": "Pampierstad", "country_iso2": "ZA", "state": "North West", "is_capital": false, "latitude": -27.776, "longitude": 24.69, "population": 21707}, {"name": "Parow", "country_iso2": "ZA", "state": "Western Cape", "is_capital": false, "latitude": -33.9, "longitude": 18.6, "population": 119462}, {"name": "Parys", "country_iso2": "ZA", "state": "Free State", "is_capital": false, "latitude": -26.9, "longitude": 27.45, "population": 45868}, {"name": "Petrus Steyn", "country_iso2": "ZA", "state": "Free State", "is_capital": false, "latitude": -27.65, "longitude": 28.1333, "population": 12893}, {"name": "Phalaborwa", "country_iso2": "ZA", "state": "Limpopo", "is_capital": false, "latitude": -23.9333, "longitude": 31.1167, "population": 13108}, {"name": "Phokeng", "country_iso2": "ZA", "state": "North West", "is_capital": false, "latitude": -25.5833, "longitude": 27.1333, "population": 34597}, {"name": "Phuthaditjhaba", "country_iso2": "ZA", "state": "Free State", "is_capital": false, "latitude": -28.5333, "longitude": 28.8167, "population": 54661}, {"name": "Pietermaritzburg", "country_iso2": "ZA", "state": "KwaZulu-Natal", "is_capital": true, "latitude": -29.6167, "longitude": 30.3833, "population": 839327}, {"name": "Piketberg", "country_iso2": "ZA", "state": "Western Cape", "is_capital": false, "latitude": -32.9, "longitude": 18.7667, "population": 12075}, {"name": "Pinetown", "country_iso2": "ZA", "state": "KwaZulu-Natal", "is_capital": false, "latitude": -29.8167, "longitude": 30.85, "population": 144026}, {"name": "Plettenberg Bay", "country_iso2": "ZA", "state": "Western Cape", "is_capital": false, "latitude": -34.05, "longitude": 23.3667, "population": 64108}, {"name": "Pofadder", "country_iso2": "ZA", "state": "Northern Cape", "is_capital": false, "latitude": -29.1286, "longitude": 19.3947, "population": 3287}, {"name": "Polokwane", "country_iso2": "ZA", "state": "Limpopo", "is_capital": true, "latitude": -23.9, "longitude": 29.45, "population": 130028}, {"name": "Port Alfred", "country_iso2": "ZA", "state": "Eastern Cape", "is_capital": false, "latitude": -33.5917, "longitude": 26.8875, "population": 25859}, {"name": "Port Saint John’s", "country_iso2": "ZA", "state": "Eastern Cape", "is_capital": false, "latitude": -31.6288, "longitude": 29.5369, "population": 6441}, {"name": "Port Shepstone", "country_iso2": "ZA", "state": "KwaZulu-Natal", "is_capital": false, "latitude": -30.75, "longitude": 30.45, "population": 35633}, {"name": "Postmasburg", "country_iso2": "ZA", "state": "Northern Cape", "is_capital": false, "latitude": -28.3279, "longitude": 23.0706, "population": 30089}, {"name": "Potchefstroom", "country_iso2": "ZA", "state": "North West", "is_capital": false, "latitude": -26.715, "longitude": 27.1033, "population": 43448}, {"name": "Pretoria", "country_iso2": "ZA", "state": "Gauteng", "is_capital": true, "latitude": -25.7461, "longitude": 28.1881, "population": 2818100}, {"name": "Pretoria-Noord", "country_iso2": "ZA", "state": "Gauteng", "is_capital": false, "latitude": -25.6731, "longitude": 28.1733, "population": 12972}, {"name": "Prieska", "country_iso2": "ZA", "state": "Northern Cape", "is_capital": false, "latitude": -29.6683, "longitude": 22.7439, "population": 14246}, {"name": "Primrose", "country_iso2": "ZA", "state": "Gauteng", "is_capital": false, "latitude": -26.1833, "longitude": 28.1667, "population": 14024}, {"name": "Queensburgh", "country_iso2": "ZA", "state": "KwaZulu-Natal", "is_capital": false, "latitude": -29.8667, "longitude": 30.9333, "population": 54846}, {"name": "Queenstown", "country_iso2": "ZA", "state": "Eastern Cape", "is_capital": false, "latitude": -31.9, "longitude": 26.8833, "population": 68872}, {"name": "Randburg", "country_iso2": "ZA", "state": "Gauteng", "is_capital": false, "latitude": -26.0936, "longitude": 28.0064, "population": 337053}, {"name": "Randfontein", "country_iso2": "ZA", "state": "Gauteng", "is_capital": false, "latitude": -26.1797, "longitude": 27.7042, "population": 80492}, {"name": "Reitz", "country_iso2": "ZA", "state": "Free State", "is_capital": false, "latitude": -27.8, "longitude": 28.4333, "population": 20183}, {"name": "Richards Bay", "country_iso2": "ZA", "state": "KwaZulu-Natal", "is_capital": false, "latitude": -28.7694, "longitude": 32.0594, "population": 57387}, {"name": "Riebeeckstad", "country_iso2": "ZA", "state": "Free State", "is_capital": false, "latitude": -27.9188, "longitude": 26.8188, "population": 11268}, {"name": "Ritchie", "country_iso2": "ZA", "state": "Northern Cape", "is_capital": false, "latitude": -29.05, "longitude": 24.6, "population": 14850}, {"name": "Riversdale", "country_iso2": "ZA", "state": "Western Cape", "is_capital": false, "latitude": -34.0969, "longitude": 21.2622, "population": 16176}, {"name": "Robertson", "country_iso2": "ZA", "state": "Western Cape", "is_capital": false, "latitude": -33.8, "longitude": 19.8833, "population": 9355}, {"name": "Roodepoort", "country_iso2": "ZA", "state": "Gauteng", "is_capital": false, "latitude": -26.1625, "longitude": 27.8725, "population": 326416}, {"name": "Rustenburg", "country_iso2": "ZA", "state": "North West", "is_capital": false, "latitude": -25.6667, "longitude": 27.2428, "population": 549575}, {"name": "Sabie", "country_iso2": "ZA", "state": "Mpumalanga", "is_capital": false, "latitude": -25.0978, "longitude": 30.7792, "population": 9148}, {"name": "Saint Helena Bay", "country_iso2": "ZA", "state": "Western Cape", "is_capital": false, "latitude": -32.7583, "longitude": 18.0278, "population": 11529}, {"name": "Saldanha", "country_iso2": "ZA", "state": "Western Cape", "is_capital": false, "latitude": -32.9978, "longitude": 17.9456, "population": 28142}, {"name": "Sandton", "country_iso2": "ZA", "state": "Gauteng", "is_capital": false, "latitude": -26.107, "longitude": 28.0517, "population": 222415}, {"name": "Sannieshof", "country_iso2": "ZA", "state": "North West", "is_capital": false, "latitude": -26.5333, "longitude": 25.8, "population": 11016}, {"name": "Sasolburg", "country_iso2": "ZA", "state": "Free State", "is_capital": false, "latitude": -26.8142, "longitude": 27.8286, "population": 76349}, {"name": "Schweizer-Reineke", "country_iso2": "ZA", "state": "North West", "is_capital": false, "latitude": -27.1833, "longitude": 25.3333, "population": 41226}, {"name": "Scottburgh", "country_iso2": "ZA", "state": "KwaZulu-Natal", "is_capital": false, "latitude": -30.2833, "longitude": 30.75, "population": 11403}, {"name": "Secunda", "country_iso2": "ZA", "state": "Mpumalanga", "is_capital": false, "latitude": -26.5161, "longitude": 29.2028, "population": 40198}, {"name": "Setlagode", "country_iso2": "ZA", "state": "North West", "is_capital": false, "latitude": -26.287, "longitude": 25.117, "population": 19452}, {"name": "Sitebe", "country_iso2": "ZA", "state": "KwaZulu-Natal", "is_capital": false, "latitude": -29.089, "longitude": 31.432, "population": 9564}, {"name": "Siyabuswa", "country_iso2": "ZA", "state": "Mpumalanga", "is_capital": false, "latitude": -25.1167, "longitude": 29.05, "population": 36882}, {"name": "Somerset East", "country_iso2": "ZA", "state": "Eastern Cape", "is_capital": false, "latitude": -32.7167, "longitude": 25.5833, "population": 18825}, {"name": "Soweto", "country_iso2": "ZA", "state": "Gauteng", "is_capital": false, "latitude": -26.2678, "longitude": 27.8585, "population": 1271628}, {"name": "Springbok", "country_iso2": "ZA", "state": "Northern Cape", "is_capital": false, "latitude": -29.6667, "longitude": 17.8833, "population": 12790}, {"name": "Springs", "country_iso2": "ZA", "state": "Gauteng", "is_capital": false, "latitude": -26.2547, "longitude": 28.4428, "population": 121610}, {"name": "Standerton", "country_iso2": "ZA", "state": "Mpumalanga", "is_capital": false, "latitude": -26.95, "longitude": 29.25, "population": 84383}, {"name": "Stellenbosch", "country_iso2": "ZA", "state": "Western Cape", "is_capital": false, "latitude": -33.9367, "longitude": 18.8614, "population": 77476}, {"name": "Steynsrus", "country_iso2": "ZA", "state": "Free State", "is_capital": false, "latitude": -27.95, "longitude": 27.5667, "population": 9106}, {"name": "Stilfontein", "country_iso2": "ZA", "state": "North West", "is_capital": false, "latitude": -26.8428, "longitude": 26.7744, "population": 17942}, {"name": "Stutterheim", "country_iso2": "ZA", "state": "Eastern Cape", "is_capital": false, "latitude": -32.5667, "longitude": 27.4167, "population": 24673}, {"name": "Summerstrand", "country_iso2": "ZA", "state": "Eastern Cape", "is_capital": false, "latitude": -33.9914, "longitude": 25.6569, "population": 12614}, {"name": "Swellendam", "country_iso2": "ZA", "state": "Western Cape", "is_capital": false, "latitude": -34.0231, "longitude": 20.44, "population": 4676}, {"name": "Taung", "country_iso2": "ZA", "state": "North West", "is_capital": false, "latitude": -27.5625, "longitude": 24.7481, "population": 18289}, {"name": "Thaba Nchu", "country_iso2": "ZA", "state": "Free State", "is_capital": false, "latitude": -29.2, "longitude": 26.8333, "population": 70118}, {"name": "Thabazimbi", "country_iso2": "ZA", "state": "Limpopo", "is_capital": false, "latitude": -24.6, "longitude": 27.4, "population": 28847}, {"name": "Thohoyandou", "country_iso2": "ZA", "state": "Limpopo", "is_capital": false, "latitude": -22.95, "longitude": 30.4833, "population": 69453}, {"name": "Tulbagh", "country_iso2": "ZA", "state": "Western Cape", "is_capital": false, "latitude": -33.285, "longitude": 19.1378, "population": 8969}, {"name": "Turffontein", "country_iso2": "ZA", "state": "Gauteng", "is_capital": false, "latitude": -26.2446, "longitude": 28.0397, "population": 15887}, {"name": "Tzaneen", "country_iso2": "ZA", "state": "Limpopo", "is_capital": false, "latitude": -23.8333, "longitude": 30.1667, "population": 14571}, {"name": "Ubombo", "country_iso2": "ZA", "state": "KwaZulu-Natal", "is_capital": false, "latitude": -27.5667, "longitude": 32.0833, "population": 1220}, {"name": "Uitenhage", "country_iso2": "ZA", "state": "Eastern Cape", "is_capital": false, "latitude": -33.7667, "longitude": 25.4, "population": 103639}, {"name": "Ulundi", "country_iso2": "ZA", "state": "KwaZulu-Natal", "is_capital": false, "latitude": -28.3167, "longitude": 31.4167, "population": 30828}, {"name": "Upington", "country_iso2": "ZA", "state": "Northern Cape", "is_capital": false, "latitude": -28.45, "longitude": 21.25, "population": 74834}, {"name": "Vaal Reefs", "country_iso2": "ZA", "state": "North West", "is_capital": false, "latitude": -26.929, "longitude": 26.736, "population": 11345}, {"name": "Vanderbijlpark", "country_iso2": "ZA", "state": "Gauteng", "is_capital": false, "latitude": -26.6992, "longitude": 27.8356, "population": 95840}, {"name": "Vanrhynsdorp", "country_iso2": "ZA", "state": "Western Cape", "is_capital": false, "latitude": -31.6167, "longitude": 18.7333, "population": 6272}, {"name": "Velddrif", "country_iso2": "ZA", "state": "Western Cape", "is_capital": false, "latitude": -32.7833, "longitude": 18.1667, "population": 17043}, {"name": "Ventersburg", "country_iso2": "ZA", "state": "Free State", "is_capital": false, "latitude": -28.0833, "longitude": 27.1333, "population": 11260}, {"name": "Vereeniging", "country_iso2": "ZA", "state": "Gauteng", "is_capital": false, "latitude": -26.6736, "longitude": 27.9319, "population": 99000}, {"name": "Villiers", "country_iso2": "ZA", "state": "Free State", "is_capital": false, "latitude": -27.0333, "longitude": 28.6, "population": 17315}, {"name": "Villiersdorp", "country_iso2": "ZA", "state": "Western Cape", "is_capital": false, "latitude": -33.9908, "longitude": 19.2894, "population": 10004}, {"name": "Virginia", "country_iso2": "ZA", "state": "Free State", "is_capital": false, "latitude": -28.1064, "longitude": 26.8622, "population": 66208}, {"name": "Volksrust", "country_iso2": "ZA", "state": "Mpumalanga", "is_capital": false, "latitude": -27.3667, "longitude": 29.8833, "population": 24281}, {"name": "Vrede", "country_iso2": "ZA", "state": "Free State", "is_capital": false, "latitude": -27.43, "longitude": 29.16, "population": 17689}, {"name": "Vredefort", "country_iso2": "ZA", "state": "Free State", "is_capital": false, "latitude": -27.0167, "longitude": 27.3833, "population": 14619}, {"name": "Vredenburg", "country_iso2": "ZA", "state": "Western Cape", "is_capital": false, "latitude": -32.9064, "longitude": 17.9958, "population": 38382}, {"name": "Vredendal", "country_iso2": "ZA", "state": "Western Cape", "is_capital": false, "latitude": -31.6644, "longitude": 18.5061, "population": 18170}, {"name": "Vryburg", "country_iso2": "ZA", "state": "North West", "is_capital": false, "latitude": -26.9586, "longitude": 24.7322, "population": 21182}, {"name": "Vryheid", "country_iso2": "ZA", "state": "KwaZulu-Natal", "is_capital": false, "latitude": -27.7669, "longitude": 30.8, "population": 47365}, {"name": "Warden", "country_iso2": "ZA", "state": "Free State", "is_capital": false, "latitude": -27.8539, "longitude": 28.9667, "population": 10977}, {"name": "Warrenton", "country_iso2": "ZA", "state": "Northern Cape", "is_capital": false, "latitude": -28.1114, "longitude": 24.8497, "population": 22588}, {"name": "Welkom", "country_iso2": "ZA", "state": "Free State", "is_capital": false, "latitude": -27.9831, "longitude": 26.7208, "population": 64130}, {"name": "Wellington", "country_iso2": "ZA", "state": "Western Cape", "is_capital": false, "latitude": -33.6333, "longitude": 18.9833, "population": 55543}, {"name": "Wepener", "country_iso2": "ZA", "state": "Free State", "is_capital": false, "latitude": -29.7333, "longitude": 27.0333, "population": 9553}, {"name": "Wesselsbron", "country_iso2": "ZA", "state": "Free State", "is_capital": false, "latitude": -27.85, "longitude": 26.3667, "population": 26807}, {"name": "Westonaria", "country_iso2": "ZA", "state": "Gauteng", "is_capital": false, "latitude": -26.3178, "longitude": 27.6506, "population": 10259}, {"name": "Westville", "country_iso2": "ZA", "state": "KwaZulu-Natal", "is_capital": false, "latitude": -29.831, "longitude": 30.925, "population": 30508}, {"name": "Winterveld", "country_iso2": "ZA", "state": "North West", "is_capital": false, "latitude": -25.42, "longitude": 27.949, "population": 120826}, {"name": "Witbank", "country_iso2": "ZA", "state": "Mpumalanga", "is_capital": false, "latitude": -25.877, "longitude": 29.201, "population": 108673}, {"name": "Worcester", "country_iso2": "ZA", "state": "Western Cape", "is_capital": false, "latitude": -33.645, "longitude": 19.4436, "population": 127597}, {"name": "Zastron", "country_iso2": "ZA", "state": "Free State", "is_capital": false, "latitude": -30.3, "longitude": 27.0833, "population": 15607}, {"name": "Zebediela", "country_iso2": "ZA", "state": "Limpopo", "is_capital": false, "latitude": -24.31, "longitude": 29.27, "population": 448000}, {"name": "Zeerust", "country_iso2": "ZA", "state": "North West", "is_capital": false, "latitude": -25.5333, "longitude": 26.0833, "population": 9093}, {"name": "eManzimtoti", "country_iso2": "ZA", "state": "KwaZulu-Natal", "is_capital": false, "latitude": -30.05, "longitude": 30.8833, "population": 13813}, {"name": "eMuziwezinto", "country_iso2": "ZA", "state": "KwaZulu-Natal", "is_capital": false, "latitude": -30.3167, "longitude": 30.6667, "population": 16205}, {"name": "eXobho", "country_iso2": "ZA", "state": "KwaZulu-Natal", "is_capital": false, "latitude": -30.1572, "longitude": 30.0647, "population": 12461}, {"name": "uMhlanga Rocks", "country_iso2": "ZA", "state": "KwaZulu-Natal", "is_capital": false, "latitude": -29.7333, "longitude": 31.0708, "population": 24238}]