[{"name": "Bwana Mkubwa", "country_iso2": "ZM", "state": "Copperbelt", "is_capital": false, "latitude": -12.9833, "longitude": 28.7, "population": 118464}, {"name": "Chifubu", "country_iso2": "ZM", "state": "Copperbelt", "is_capital": false, "latitude": -12.9333, "longitude": 28.6167, "population": 13307}, {"name": "Chililabombwe", "country_iso2": "ZM", "state": "Copperbelt", "is_capital": false, "latitude": -12.3667, "longitude": 27.8278, "population": 90530}, {"name": "Chilonga", "country_iso2": "ZM", "state": "Muchinga", "is_capital": false, "latitude": -12.0244, "longitude": 31.3364, "population": 11816}, {"name": "Chingola", "country_iso2": "ZM", "state": "Copperbelt", "is_capital": false, "latitude": -12.5333, "longitude": 27.85, "population": 256560}, {"name": "Chinsali", "country_iso2": "ZM", "state": "Muchinga", "is_capital": true, "latitude": -10.5522, "longitude": 32.0692, "population": 15198}, {"name": "Chipata", "country_iso2": "ZM", "state": "Eastern", "is_capital": true, "latitude": -13.6453, "longitude": 32.6464, "population": 327059}, {"name": "Chirundu", "country_iso2": "ZM", "state": "Southern", "is_capital": false, "latitude": -16.05, "longitude": 28.8333, "population": 84750}, {"name": "Choma", "country_iso2": "ZM", "state": "Southern", "is_capital": true, "latitude": -16.7711, "longitude": 26.9922, "population": 51842}, {"name": "Kabwe", "country_iso2": "ZM", "state": "Central", "is_capital": true, "latitude": -14.4333, "longitude": 28.45, "population": 288598}, {"name": "Kafue", "country_iso2": "ZM", "state": "Lusaka", "is_capital": false, "latitude": -15.7667, "longitude": 28.1833, "population": 219000}, {"name": "Kalabo", "country_iso2": "ZM", "state": "Western", "is_capital": false, "latitude": -14.9911, "longitude": 22.6789, "population": 7731}, {"name": "Kaoma", "country_iso2": "ZM", "state": "Western", "is_capital": false, "latitude": -14.8, "longitude": 24.8, "population": 14200}, {"name": "Kapiri Mposhi", "country_iso2": "ZM", "state": "Central", "is_capital": false, "latitude": -13.9772, "longitude": 28.6847, "population": 14792}, {"name": "Kasama", "country_iso2": "ZM", "state": "Northern", "is_capital": true, "latitude": -10.2117, "longitude": 31.1783, "population": 101845}, {"name": "Kasempa", "country_iso2": "ZM", "state": "North-Western", "is_capital": false, "latitude": -13.455, "longitude": 25.835, "population": 111272}, {"name": "Kashikishi", "country_iso2": "ZM", "state": "Luapula", "is_capital": false, "latitude": -9.3, "longitude": 28.7167, "population": 150000}, {"name": "Kawambwa", "country_iso2": "ZM", "state": "Luapula", "is_capital": false, "latitude": -9.7914, "longitude": 29.0789, "population": 20589}, {"name": "Kitwe", "country_iso2": "ZM", "state": "Copperbelt", "is_capital": false, "latitude": -12.8167, "longitude": 28.2, "population": 661901}, {"name": "Livingstone", "country_iso2": "ZM", "state": "Southern", "is_capital": false, "latitude": -17.85, "longitude": 25.8667, "population": 134349}, {"name": "Luanshya", "country_iso2": "ZM", "state": "Copperbelt", "is_capital": false, "latitude": -13.1333, "longitude": 28.4, "population": 154863}, {"name": "Lukulu", "country_iso2": "ZM", "state": "Western", "is_capital": false, "latitude": -14.4083, "longitude": 23.2667, "population": 3349}, {"name": "Lundazi", "country_iso2": "ZM", "state": "Eastern", "is_capital": false, "latitude": -12.3, "longitude": 33.1833, "population": 11635}, {"name": "Lusaka", "country_iso2": "ZM", "state": "Lusaka", "is_capital": true, "latitude": -15.4167, "longitude": 28.2833, "population": 1747152}, {"name": "Mansa", "country_iso2": "ZM", "state": "Luapula", "is_capital": true, "latitude": -11.2, "longitude": 28.8833, "population": 129185}, {"name": "Mazabuka", "country_iso2": "ZM", "state": "Southern", "is_capital": false, "latitude": -15.8467, "longitude": 27.7475, "population": 71700}, {"name": "Mbala", "country_iso2": "ZM", "state": "Northern", "is_capital": false, "latitude": -8.8333, "longitude": 31.3833, "population": 20570}, {"name": "Mongu", "country_iso2": "ZM", "state": "Western", "is_capital": true, "latitude": -15.2775, "longitude": 23.1319, "population": 179585}, {"name": "Mpika", "country_iso2": "ZM", "state": "Muchinga", "is_capital": false, "latitude": -11.83, "longitude": 31.46, "population": 28445}, {"name": "Mporokoso", "country_iso2": "ZM", "state": "Northern", "is_capital": false, "latitude": -9.3833, "longitude": 30.1, "population": 100993}, {"name": "Mufulira", "country_iso2": "ZM", "state": "Copperbelt", "is_capital": false, "latitude": -12.5356, "longitude": 28.2419, "population": 151309}, {"name": "Mumbwa", "country_iso2": "ZM", "state": "Central", "is_capital": false, "latitude": -14.9853, "longitude": 27.0619, "population": 19086}, {"name": "Mwinilunga", "country_iso2": "ZM", "state": "North-Western", "is_capital": false, "latitude": -11.7172, "longitude": 24.4289, "population": 15704}, {"name": "Nakonde", "country_iso2": "ZM", "state": "Muchinga", "is_capital": false, "latitude": -9.3314, "longitude": 32.7548, "population": 10652}, {"name": "Nchelenge", "country_iso2": "ZM", "state": "Luapula", "is_capital": false, "latitude": -9.3533, "longitude": 28.7403, "population": 147927}, {"name": "Ndola", "country_iso2": "ZM", "state": "Copperbelt", "is_capital": true, "latitude": -12.9689, "longitude": 28.6325, "population": 627503}, {"name": "Nyimba", "country_iso2": "ZM", "state": "Eastern", "is_capital": false, "latitude": -14.5495, "longitude": 30.81, "population": 1336}, {"name": "Senanga", "country_iso2": "ZM", "state": "Western", "is_capital": false, "latitude": -16.1167, "longitude": 23.2667, "population": 10005}, {"name": "Sesheke", "country_iso2": "ZM", "state": "Western", "is_capital": false, "latitude": -17.4667, "longitude": 24.3, "population": 20149}, {"name": "Solwezi", "country_iso2": "ZM", "state": "North-Western", "is_capital": true, "latitude": -12.1433, "longitude": 26.3858, "population": 90856}, {"name": "Zambezi", "country_iso2": "ZM", "state": "North-Western", "is_capital": false, "latitude": -13.55, "longitude": 23.1167, "population": 7074}]